mission_id,time,real_x,real_y,real_z,vx,vy,vz,ax,ay,az,roll,pitch,yaw,wind_x,wind_y,wind_z,velocity,rain,fog,snow,is_attack
11,1745179475.0581577,0.0,0.0,-5.0,-0.3169721066951751,0.2499664723873138,0.0390634648501873,-0.0843186751008033,-0.0150062274187803,-8.012899398803711,-0.0975366251508445,0.0335426739985847,-2.865958303932299,2.83625938595715,1.593909991709617,0.5324808409099615,9.85,0.13,0.01,0.022,0
11,1745179475.061067,2.0,0.0,-5.0,-0.3169721066951751,0.2499664723873138,0.0390634648501873,-0.0352608673274517,-0.0004602065309882,-7.975026130676269,-0.0943461534327601,0.0330471822935846,-2.865895189605625,3.1604073218614976,1.749657986964717,0.4642523795822602,9.85,0.13,0.01,0.022,0
11,1745179475.065055,5.521189212799072,2.4335005283355717,-2.2358932495117188,-0.3169721066951751,0.2499664723873138,0.0390634648501873,-0.0835192203521728,0.0409121140837669,-7.981540679931641,-0.0943461534327601,0.0330471822935846,-2.865895189605625,3.127026118227172,2.3928847051439783,0.562605873700933,9.85,0.13,0.01,0.022,0
11,1745179475.0672596,5.521189212799072,2.4335005283355717,-2.2358932495117188,-0.3169721066951751,0.2499664723873138,0.0390634648501873,-0.05714563280344,0.0045169196091592,-7.952919006347656,-0.0943461534327601,0.0330471822935846,-2.865895189605625,2.749810989093138,1.7974324788583558,0.5192972746479574,9.85,0.13,0.01,0.022,0
11,1745179475.0694904,5.521189212799072,2.4335005283355717,-2.2358932495117188,-0.3169721066951751,0.2499664723873138,0.0390634648501873,-0.0630792677402496,0.0275807753205299,-7.946620464324951,-0.0943461534327601,0.0330471822935846,-2.865895189605625,3.350216934405643,1.6233524857608843,0.5378971534298086,9.85,0.13,0.01,0.022,0
11,1745179475.0722656,10.0,0.0,-5.0,-0.3372102379798889,0.2359068542718887,0.087599866092205,-0.1460117697715759,0.0238950997591018,-7.975763320922852,-0.0886062856474589,0.0317421033682974,-2.865756787086471,2.6727615021766997,1.9383804323043448,0.5906533421165546,9.85,0.13,0.01,0.022,0
11,1745179475.0753844,12.0,0.0,-5.0,-0.3372102379798889,0.2359068542718887,0.087599866092205,-0.0730686634778976,0.0236454270780086,-7.998363018035889,-0.0886062856474589,0.0317421033682974,-2.865756787086471,3.2706329552051234,1.887169703974839,0.5908518393425671,9.85,0.13,0.01,0.022,0
11,1745179475.0786448,14.0,0.0,-5.0,-0.3372102379798889,0.2359068542718887,0.087599866092205,-0.047494564205408,0.021959763020277,-8.088359832763672,-0.0886062856474589,0.0317421033682974,-2.865756787086471,3.204193878026964,1.569640131500308,0.5227870941161997,9.85,0.13,0.01,0.022,0
11,1745179475.082343,16.0,0.0,-5.0,-0.3372102379798889,0.2359068542718887,0.087599866092205,-0.0651377066969871,-0.0380091294646263,-8.039748191833496,-0.0838285308788101,0.03047734285701,-2.865651100043728,2.6873973440841703,1.8385774632608607,0.5233859532297398,9.85,0.13,0.01,0.022,0
11,1745179475.0867176,21.923692541971768,1.0360796353614132,-5.0,-0.3372102379798889,0.2359068542718887,0.087599866092205,-0.0281106047332286,0.0561791062355041,-8.085078239440918,-0.0838285308788101,0.03047734285701,-2.865651100043728,2.671190967996539,1.892765748506056,0.4751093120926064,9.85,0.13,0.01,0.022,0
11,1745179475.089238,22.736145436885263,2.1817052930319165,-5.0,-0.3372102379798889,0.2359068542718887,0.087599866092205,-0.0645490139722824,-0.0522030219435691,-8.137438774108887,-0.0838285308788101,0.03047734285701,-2.865651100043728,3.223814897238026,2.047045594637569,0.4173660766907538,9.85,0.13,0.01,0.022,0
11,1745179475.091077,22.76064067596227,2.281683268013474,-5.0,-0.3372102379798889,0.2359068542718887,0.087599866092205,-0.0645490139722824,-0.0522030219435691,-8.137438774108887,-0.0790808809111063,0.0291084637918705,-2.8655482743973613,3.336459598367298,1.842689935346995,0.4696505362026321,9.85,0.13,0.01,0.022,0
11,1745179475.0930123,16.0,0.0,-5.0,-0.3372102379798889,0.2359068542718887,0.087599866092205,-0.0350347384810447,0.0164298899471759,-8.017439842224121,-0.0790808809111063,0.0291084637918705,-2.8655482743973613,3.041473397488734,1.5171717924895902,0.5916653389291711,9.85,0.13,0.01,0.022,0
11,1745179475.0960605,14.0,0.0,-5.0,-0.3372102379798889,0.2359068542718887,0.087599866092205,-0.1431823521852493,0.0187692586332559,-8.11440658569336,-0.0790808809111063,0.0291084637918705,-2.8655482743973613,3.37532260571843,1.8833488360784056,0.5642667169636689,9.85,0.13,0.01,0.022,0
11,1745179475.0989213,12.0,0.0,-5.0,-0.3372102379798889,0.2359068542718887,0.087599866092205,-0.0320369377732276,0.0219881292432546,-8.144064903259277,-0.0790808809111063,0.0291084637918705,-2.8655482743973613,2.7394540904769458,1.8268648980386388,0.56274499518866,9.85,0.13,0.01,0.022,0
11,1745179475.155298,10.0,0.0,-5.0,-0.362623393535614,0.2176959067583084,0.1972363740205764,-0.0038439482450485,0.0273922383785247,-8.401365280151367,-0.0486260459365444,0.018942566008099,-2.865077388924776,2.527450549694562,1.5920599850431134,0.5283293135834225,9.85,0.13,0.01,0.022,0
11,1745179475.201282,5.493947982788086,2.485525608062744,-2.2164459228515625,-0.3719711005687713,0.2105571776628494,0.250324934720993,-0.0906989723443985,-0.0347943603992462,-8.503386497497559,-0.0276547036126744,0.0107682104801717,-2.864924686269642,2.623364759532609,2.3638187800047907,0.4091162681805405,9.85,0.13,0.01,0.022,0
11,1745179475.2483227,5.477133750915527,2.50811505317688,-2.1979217529296875,-0.3792230784893036,0.2059176862239837,0.3306232094764709,-0.0644591078162193,-0.0071179289370775,-8.79629135131836,-0.0161962346151918,0.0059126407101234,-2.8649846352840576,3.243646877682902,2.046846703389204,0.5881055660027219,9.85,0.13,0.01,0.022,0
11,1745179475.2948468,5.466720581054688,2.520766019821167,-2.185249328613281,-0.3796883523464203,0.206168994307518,0.3715980350971222,-0.0797474235296249,-0.0637091919779777,-8.817882537841797,-0.0067200973526583,0.0016092854091943,-2.865091903843489,3.1966390157059457,1.6468672164736362,0.4823965429212634,9.85,0.13,0.01,0.022,0
11,1745179476.147541,2.0,0.0,-5.0,-0.4509748816490173,0.1812429279088974,0.737548291683197,-0.0375106483697891,0.0321436747908592,-9.623628616333008,-0.001434202506523,5.39635670965931e-05,-2.866581832817338,3.380619616957509,1.9984174047759544,0.4514258355504761,9.85,0.13,0.01,0.022,0
11,1745179476.194225,0.0,0.0,-5.0,-0.468802660703659,0.1703382283449173,0.753934383392334,-0.0810469835996627,0.0545902028679847,-9.667104721069336,-0.0014185141290973,-4.393657604702917e-06,-2.866494789377456,2.587064302832953,2.134750114606724,0.4992831302950187,9.85,0.13,0.01,0.022,0
108,1745185511.1526406,0.6609123349189758,0.547927975654602,-3.3933258056640625,-0.6287851333618164,-0.2687073945999145,-1.822471022605896,-0.0643950700759887,-0.093145802617073,-9.13352870941162,-0.0260914292403236,0.0615102157345901,-3.1242701103939345,3.172519782972444,1.9260219677405652,0.5625800023319614,9.43,0.02,0.159,0.12,0
108,1745185511.1550858,0.644271731376648,0.5447810888290405,-3.4359207153320312,-0.6347602009773254,-0.2770960927009582,-1.804330825805664,-0.1442356407642364,0.0049581751227378,-9.19931983947754,-0.0260914292403236,0.0615102157345901,-3.1242701103939345,2.605225896698874,2.236920820522173,0.4714920718720063,9.43,0.02,0.159,0.12,0
108,1745185512.1593692,0.3367393910884857,0.1978382617235183,-4.818511962890625,0.6594462990760803,-0.3996095359325409,-0.7583710551261902,-0.0575506463646888,-0.1331984996795654,-8.440362930297852,0.2419567333304076,-0.0057443353512656,-3.129105003371351,3.1060721615777105,1.546464424486257,0.570827891432561,9.43,0.02,0.159,0.12,0
108,1745185513.1643062,1.3078267574310305,-0.2417450100183487,-5.284614562988281,1.892061829566956,-0.1297932118177414,0.1692281365394592,-0.0952123329043388,-0.0176009982824325,-9.220253944396973,0.0362573001296258,-0.0494317243126014,-3.129033237909713,3.2777886736099178,1.8278863358438404,0.4519903160648627,9.43,0.02,0.159,0.12,0
108,1745185514.169716,3.3313257694244385,-0.3417941927909851,-5.138969421386719,1.8685187101364136,0.2247266918420791,0.2740879654884338,-0.0064273150637745,-0.0096053574234247,-10.11312198638916,-0.1460516820463969,-0.0229681052790291,-3.1311625556934626,3.010003577657619,2.0818488425244355,0.5758557173461205,9.43,0.02,0.159,0.12,0
108,1745185514.1726377,3.3313257694244385,-0.3417941927909851,-5.138969421386719,1.8685187101364136,0.2247266918420791,0.2740879654884338,-0.0558111444115638,-0.0477095544338226,-10.118894577026367,-0.1460516820463969,-0.0229681052790291,-3.1311625556934626,2.919934743804393,2.085675854629902,0.4834090722684885,9.43,0.02,0.159,0.12,0
108,1745185516.1792142,9.921944618225098,2.0833675861358643,-4.88177490234375,2.441082239151001,1.246761441230774,-0.0580965802073478,-0.0171498004347085,0.0141882766038179,-10.50411891937256,-0.3473283257066763,0.1378510998926097,-3.095989362023989,3.3646377588368988,2.0419813514877827,0.4229308709394924,9.43,0.02,0.159,0.12,0
108,1745185518.2404134,7.900388717651367,0.6687684655189514,-4.699226379394531,-2.9789209365844727,-1.977852702140808,-0.4039796590805053,-0.2836358547210693,-0.1153004541993141,-10.797661781311035,0.1966631711476153,-0.1034085454954135,-3.0786489203077285,2.997292611435232,1.9335027989361255,0.4908595478769759,9.43,0.02,0.159,0.12,0
108,1745185518.2427678,7.900388717651367,0.6687684655189514,-4.699226379394531,-2.9789209365844727,-1.977852702140808,-0.4039796590805053,-0.3692005574703216,-0.0689563527703285,-10.710782051086426,0.2020271703507647,-0.1066119262328436,-3.079402586439989,2.895505447237526,1.7166830911113915,0.4436548918936453,9.43,0.02,0.159,0.12,0
108,1745185518.2454095,7.900388717651367,0.6687684655189514,-4.699226379394531,-2.9789209365844727,-1.977852702140808,-0.4039796590805053,-0.4297007322311401,-0.0838893204927444,-10.715106964111328,0.2020271703507647,-0.1066119262328436,-3.079402586439989,3.4860741090296585,1.6468142113663502,0.448138349023323,9.43,0.02,0.159,0.12,0
108,1745185520.1592474,10.527552604675291,0.202784925699234,-4.962654113769531,1.8934826850891116,0.919205605983734,0.0106294127181172,-0.0798023045063018,-0.0231081210076808,-10.619305610656738,-0.3510300546205667,0.1298106512883535,-3.073521038186985,3.272624790709231,2.1953965696520856,0.5983380058573118,9.43,0.02,0.159,0.12,0
108,1745185520.2059555,10.704545974731444,0.2931604981422424,-4.953521728515625,1.7332980632781982,0.8592112064361572,0.0097158160060644,-0.026824951171875,-0.0596098154783248,-11.1036958694458,-0.3569439549814679,0.1338869907042119,-3.07423532970005,3.149733959154544,2.4757773042924778,0.466472917561718,9.43,0.02,0.159,0.12,0
108,1745185522.2122278,9.136249542236328,0.3889005482196808,-4.851806640625,-2.775960683822632,-0.8893449306488037,-0.2492038607597351,-0.3199359178543091,0.0184674337506294,-10.161062240600586,0.1301800687296653,-0.0101777322333373,-3.045206422367062,2.689291116410192,2.498286841723759,0.4822855215709402,9.43,0.02,0.159,0.12,0
108,1745185523.2169795,6.1778059005737305,-0.6037499308586121,-4.9411468505859375,-1.440578818321228,-0.2660317420959472,-0.2165254056453704,-0.1735661178827285,0.0857914984226226,-10.249801635742188,0.3056445897725026,-0.0905875833155674,-3.0628239062099607,3.3072476154214137,1.6232078580363951,0.4826029670849197,9.43,0.02,0.159,0.12,0
108,1745185523.2728157,6.037635803222656,-0.6430984735488892,-4.949790954589844,-1.2921661138534546,-0.2060866504907608,-0.2065248787403106,-0.1328173726797104,0.0016766749322414,-9.979209899902344,0.3072728450798128,-0.0901335000514531,-3.062555197308008,2.767639239149487,1.965582704193682,0.4851601554831596,9.43,0.02,0.159,0.12,0
108,1745185523.2752826,6.037635803222656,-0.6430984735488892,-4.949790954589844,-1.2921661138534546,-0.2060866504907608,-0.2065248787403106,-0.1328173726797104,0.0016766749322414,-9.979209899902344,0.3036638992351427,-0.0902246598239781,-3.0621274860141336,3.340420775928612,2.362765094853716,0.580413270365161,9.43,0.02,0.159,0.12,0
108,1745185524.2815292,4.309053421020508,-0.6433337926864624,-5.066314697265625,-1.12769615650177,0.5424795150756836,-0.0416503064334392,-0.0700741484761238,-0.0506432652473449,-9.755427360534668,0.1075205246426592,-0.0182789900781807,-3.052302256638513,2.663821502909849,1.8292234823777247,0.4154916439923961,9.43,0.02,0.159,0.12,0
108,1745185524.283919,4.309053421020508,-0.6433337926864624,-5.066314697265625,-1.12769615650177,0.5424795150756836,-0.0416503064334392,-0.0888971462845802,0.0115744303911924,-9.722442626953123,0.1075205246426592,-0.0182789900781807,-3.052302256638513,3.088636720881853,1.888266419598966,0.5142221309224965,9.43,0.02,0.159,0.12,0
108,1745185525.2885177,3.152772665023804,0.0835525095462799,-5.0574798583984375,-1.4223098754882812,0.4959144294261932,0.0492844879627227,-0.0815663486719131,0.0231244657188653,-9.876043319702148,-0.001114694805699,0.0914244408352447,-3.0422355129678333,2.873223774483211,1.848155608294617,0.5841931717751281,9.43,0.02,0.159,0.12,0
108,1745185526.2939425,1.950146436691284,0.5670065879821777,-5.016578674316406,-1.399701476097107,-0.1071626767516136,0.0184960756450891,-0.2584926187992096,-0.0471139103174209,-9.895477294921877,0.0248673027478101,0.1030223901862754,-3.036164652148313,3.49503038666122,2.138359714501094,0.5986646158009289,9.43,0.02,0.159,0.12,0
108,1745185527.299378,0.7096648216247559,0.3699206709861755,-5.0106048583984375,-1.2333555221557615,-0.4709125757217407,-0.0132061848416924,-0.2367281913757324,-0.0175394564867019,-9.825053215026855,0.0504083511122806,0.0274726871431607,-3.036669151397657,3.4313412966941588,2.302254925137749,0.4318500141445265,9.43,0.02,0.159,0.12,0
109,1745185553.723172,-0.0218461286276578,-0.1773772090673446,-3.47271728515625,0.0496607348322868,0.298529177904129,-1.8244261741638184,-0.1677907407283783,-0.0862733423709869,-8.852876663208008,-0.0164467818612304,0.0103252310791236,-3.03897535048601,3.474007192876253,2.484732899113093,0.4753240848500588,7.13,0.0,0.043,0.181,0
109,1745185553.725808,-0.0204794649034738,-0.1634371429681778,-3.5284652709960938,0.0478768348693847,0.3033269345760345,-1.784867286682129,-0.0926147475838661,0.0100538600236177,-8.77897834777832,-0.0165196343246416,0.0113279449662635,-3.038936971507761,3.488417378552144,2.157726286002841,0.4389822622567985,7.13,0.0,0.043,0.181,0
109,1745185554.730711,0.5454548001289368,0.178334578871727,-4.78253173828125,1.2407373189926147,0.1459514498710632,-0.6405559182167053,-0.012482825666666,-0.0971477180719375,-8.425293922424316,0.0593131220351198,0.0680316083658636,-3.0420852744946183,2.8292985648100903,1.593755921943616,0.5382575665547846,7.13,0.0,0.043,0.181,0
109,1745185555.735385,2.023250102996826,0.3307831287384033,-5.179931640625,1.6858428716659546,-0.1247408688068389,0.1408413350582122,0.0303050577640533,-0.0458671972155571,-9.423670768737791,-0.0806908212437422,0.0462798975068228,-3.037415638733616,3.2898972051996536,2.451460087222722,0.5624411952551412,7.13,0.0,0.043,0.181,0
109,1745185556.7400153,3.78249192237854,0.16912741959095,-5.051521301269531,1.2801159620285034,-0.2719616889953613,0.1996345221996307,-0.0589106492698192,-0.0272742323577404,-10.034456253051758,-0.1576202068939977,-0.009015585278632,-3.0255158820155743,3.0199811011462665,1.5714271438604048,0.4230855235406593,7.13,0.0,0.043,0.181,0
109,1745185556.795489,3.838106393814087,0.1580407321453094,-5.04412841796875,1.234339714050293,-0.2720192968845367,0.1945674568414688,-0.0129858944565057,-0.0640903785824775,-10.022637367248535,-0.1583988582263639,-0.0119439167793401,-3.0250720099545214,2.633206833091576,2.091533219736184,0.4410808945018913,7.13,0.0,0.043,0.181,0
109,1745185557.7997298,5.339368343353272,-0.1741635054349899,-4.895599365234375,1.234312653541565,-0.1034602224826812,-0.0019540106877684,-0.0596975348889827,0.0201692059636116,-10.051225662231444,-0.0838618100777863,-0.0393569804171393,-3.0157199718415537,2.6893244837085004,2.4677987531067327,0.5934838911993401,7.13,0.0,0.043,0.181,0
109,1745185557.8020444,5.339368343353272,-0.1741635054349899,-4.895599365234375,1.234312653541565,-0.1034602224826812,-0.0019540106877684,-0.10808727145195,0.0206522420048713,-9.944128036499023,-0.0838618100777863,-0.0393569804171393,-3.0157199718415537,3.303588399885324,1.556624489484105,0.43181113450288,7.13,0.0,0.043,0.181,0
109,1745185558.8076313,6.731365203857422,-0.2689437866210937,-4.890228271484375,1.6490826606750488,0.1621831059455871,-0.0959294140338897,-0.0248350817710161,-0.0307583659887313,-9.89796543121338,-0.0408334355359373,-0.018957029949472,-3.012358756809457,3.2575157286158727,1.90122597796082,0.4682060658016133,7.13,0.0,0.043,0.181,0
109,1745185559.8125982,8.221282958984375,-0.054288126528263,-4.940055847167969,1.4654290676116943,0.2232376337051391,-0.0704822912812233,0.0175815969705581,0.0379388928413391,-9.83311367034912,-0.101986118725713,0.0174412868424857,-3.0117465280345237,2.5312834881571336,1.7729257821344868,0.5206631439297442,7.13,0.0,0.043,0.181,0
109,1745185559.8150697,8.221282958984375,-0.054288126528263,-4.940055847167969,1.4654290676116943,0.2232376337051391,-0.0704822912812233,0.0819836035370826,0.0103262681514024,-9.858187675476074,-0.101986118725713,0.0174412868424857,-3.0117465280345237,2.719297256565816,1.9342291151161104,0.448437192199476,7.13,0.0,0.043,0.181,0
109,1745185559.8175445,8.221282958984375,-0.054288126528263,-4.940055847167969,1.4654290676116943,0.2232376337051391,-0.0704822912812233,0.0154564790427684,-0.0569328069686889,-9.80162239074707,-0.101986118725713,0.0174412868424857,-3.0117465280345237,3.438203840570865,2.41533132695378,0.5812946874974336,7.13,0.0,0.043,0.181,0
109,1745185560.8224523,10.047157287597656,0.4962513744831085,-4.982505798339844,2.260077714920044,0.7812563180923462,-0.0226028840988874,0.0115155130624771,-0.0131398756057024,-9.82153606414795,-0.0467533957950941,0.0075750043919427,-2.9924563209638158,2.5273963940034103,2.4944961580397917,0.4426160078303048,7.13,0.0,0.043,0.181,0
109,1745185560.8246367,10.047157287597656,0.4962513744831085,-4.982505798339844,2.260077714920044,0.7812563180923462,-0.0226028840988874,-0.0613080039620399,0.028749793767929,-9.808222770690918,-0.0497254344234859,0.0085086331553473,-2.992394304311492,3.325000118451767,1.7513264035237837,0.5299243433806549,7.13,0.0,0.043,0.181,0
109,1745185562.8311908,7.806159973144531,0.3672505021095276,-4.816642761230469,-3.4237635135650635,-0.7966320514678955,-0.1922928541898727,-0.3840329945087433,-0.0361437909305095,-10.367244720458984,0.120336422707201,-0.004192518183487,-2.9605392171553397,2.6262741374429046,2.3079155373787783,0.4193540782862043,7.13,0.0,0.043,0.181,0
109,1745185563.8358252,4.232486248016357,-0.5134958624839783,-4.8930511474609375,-1.828046798706055,-0.1902753859758377,-0.2649836540222168,-0.1173752024769783,-0.0367954857647419,-10.377991676330566,0.3515402160954209,-0.0386382792240382,-2.9751709934225814,2.973758415931769,1.877220258209516,0.4117680295053265,7.13,0.0,0.043,0.181,0
109,1745185563.8942008,4.135148525238037,-0.5305586457252502,-4.8987579345703125,-1.727815866470337,-0.1586229056119918,-0.2582553029060364,-0.212163358926773,-0.0054433075711131,-10.047945022583008,0.3527363293340325,-0.0372550389033501,-2.9749523775256344,3.319293232646013,1.6461151519985842,0.5704289649850995,7.13,0.0,0.043,0.181,0
109,1745185563.8967075,4.135148525238037,-0.5305586457252502,-4.8987579345703125,-1.727815866470337,-0.1586229056119918,-0.2582553029060364,-0.212163358926773,-0.0054433075711131,-10.047945022583008,0.3527363293340325,-0.0372550389033501,-2.9749523775256344,3.2111773860041413,1.7841378590964756,0.49054422636698,7.13,0.0,0.043,0.181,0
109,1745185564.9012194,2.13547945022583,-0.4190985858440399,-5.0409088134765625,-1.127021551132202,0.498658537864685,-0.0738558992743492,-0.1394504606723785,-0.011261336505413,-9.741512298583984,0.1396090809923984,0.0276060783203549,-2.966976744821071,3.0787853160075382,1.945475897921196,0.4901878640717674,7.13,0.0,0.043,0.181,0
109,1745185564.95003,2.053962230682373,-0.3748737871646881,-5.046958923339844,-1.0195438861846924,0.5172309279441833,-0.0596200190484523,-0.110558807849884,0.0139523576945066,-9.7182035446167,0.1364719278296137,0.0324560247067724,-2.9669102473472204,3.4232684064479297,2.262669035742197,0.4275584081042939,7.13,0.0,0.043,0.181,0
109,1745185565.9542155,1.1014093160629272,0.3392639756202698,-5.046638488769531,-1.2062838077545166,0.3006933033466339,0.0373463258147239,-0.0724556967616081,0.0632949396967887,-9.861937522888184,-0.0256843885407134,0.1051157166282813,-2.9550572760093683,2.6321318582951587,1.7138368007236175,0.5325857414763979,7.13,0.0,0.043,0.181,0
110,1745185570.3611207,0.1104668453335762,-0.5533327460289001,-3.219833374023437,-0.0370817147195339,0.7269511222839355,-1.997631549835205,-0.1468220353126526,0.0522774457931518,-9.136350631713867,-0.0177756309240058,0.0043222872786508,-2.936080830867219,3.22526331977846,1.697931088918595,0.5710147314634075,4.96,0.07,0.029,0.156,0
110,1745185571.3659606,0.2877768278121948,0.2565758228302002,-4.711982727050781,0.558600664138794,0.5007098913192749,-0.846259593963623,-0.082251101732254,-0.0099791036918759,-8.266682624816895,0.0211571436819171,0.1233187295452666,-2.943791698530246,2.76281758711727,2.4071197417215098,0.424125704637627,4.96,0.07,0.029,0.156,0
110,1745185571.3685968,0.2877768278121948,0.2565758228302002,-4.711982727050781,0.558600664138794,0.5007098913192749,-0.846259593963623,-0.0919676050543785,-0.0730458348989486,-8.26689338684082,0.0211571436819171,0.1233187295452666,-2.943791698530246,2.6672751225785136,2.067825393281269,0.4714490460611716,4.96,0.07,0.029,0.156,0
110,1745185572.3727393,1.3258190155029297,0.680381715297699,-5.264251708984375,1.7934627532958984,-0.1388091146945953,0.1349311470985412,-0.0389378815889358,-0.0037541352212429,-9.214576721191406,0.0083971381684091,0.1120874157450759,-2.9513637406663897,3.369201771421032,2.46282226595945,0.4447728882891854,4.96,0.07,0.029,0.156,0
110,1745185573.3771183,3.2532920837402344,0.437897264957428,-5.1459503173828125,1.845919489860535,-0.4940384924411773,0.282770425081253,-0.0216690059751272,-0.1808098703622818,-10.07493019104004,-0.1421549897215846,-0.0055120429501807,-2.94154175869318,3.1999132552743816,2.13416530715709,0.4690776692364671,4.96,0.07,0.029,0.156,0
110,1745185573.379661,3.2532920837402344,0.437897264957428,-5.1459503173828125,1.845919489860535,-0.4940384924411773,0.282770425081253,-0.0216690059751272,-0.1808098703622818,-10.07493019104004,-0.1421549897215846,-0.0055120429501807,-2.94154175869318,2.7962128138303126,2.484569110341612,0.5148919272461087,4.96,0.07,0.029,0.156,0
110,1745185574.3846953,5.321539402008057,-0.1133809089660644,-4.9383392333984375,1.6963297128677368,-0.2897520959377289,0.0611819401383399,0.0652122199535369,-0.0175797287374734,-10.08559513092041,-0.1336228412753332,-0.072965436968357,-2.9291495074051115,2.7395405453991,1.9625247987083267,0.5818527930252478,4.96,0.07,0.029,0.156,0
110,1745185574.3869598,5.321539402008057,-0.1133809089660644,-4.9383392333984375,1.6963297128677368,-0.2897520959377289,0.0611819401383399,-0.0774578899145126,-0.0358354561030864,-10.205251693725586,-0.1336228412753332,-0.072965436968357,-2.9291495074051115,3.0974623370591265,2.023954569868541,0.4373798029558778,4.96,0.07,0.029,0.156,0
110,1745185575.391274,7.066932678222656,-0.3764667510986328,-4.8920440673828125,1.625713586807251,0.1540762186050415,-0.0799028202891349,-0.0346721336245536,-0.0064770951867103,-9.977370262145996,-0.0944589989581063,-0.0531156067624424,-2.928918638557425,3.345466514099652,2.3713087746672725,0.5934541584426161,4.96,0.07,0.029,0.156,0
110,1745185575.393636,7.121786594390869,-0.3762042820453644,-4.892669677734375,1.5883910655975342,0.1686003804206848,-0.0805488750338554,-0.0279832053929567,-0.0012239478528499,-9.901175498962402,-0.0944589989581063,-0.0531156067624424,-2.928918638557425,2.7566540796141403,2.3365626869862277,0.5183512779644155,4.96,0.07,0.029,0.156,0
110,1745185576.4009488,8.73062515258789,-0.1540600508451461,-4.938133239746094,1.7911851406097412,0.3429904282093048,-0.0820347294211387,-0.0635133534669876,0.0112442336976528,-9.81663703918457,-0.0720435676838932,0.0139532923225809,-2.934475782638051,2.9131092441622486,2.2824323839863965,0.4715344826763474,4.96,0.07,0.029,0.156,0
110,1745185576.403605,8.73062515258789,-0.1540600508451461,-4.938133239746094,1.7911851406097412,0.3429904282093048,-0.0820347294211387,-0.0024040574207901,-0.0147598888725042,-9.80060577392578,-0.0720435676838932,0.0139532923225809,-2.934475782638051,2.7340487737543624,1.9648876670738236,0.4284953440815176,4.96,0.07,0.029,0.156,0
110,1745185576.4084346,8.73062515258789,-0.1540600508451461,-4.938133239746094,1.7911851406097412,0.3429904282093048,-0.0820347294211387,0.0276421681046485,0.0031694332137703,-9.756559371948242,-0.0720435676838932,0.0139532923225809,-2.934475782638051,2.7792243571502286,1.7805482696420578,0.5626580163360371,4.96,0.07,0.029,0.156,0
110,1745185576.41082,8.73062515258789,-0.1540600508451461,-4.938133239746094,1.7911851406097412,0.3429904282093048,-0.0820347294211387,0.0276421681046485,0.0031694332137703,-9.756559371948242,-0.0720435676838932,0.0139532923225809,-2.934475782638051,2.71140668580073,1.6339174265829062,0.4047792904511079,4.96,0.07,0.029,0.156,0
110,1745185579.4646585,5.483235836029053,-0.0271540563553571,-4.926185607910156,-1.4373472929000854,-0.1568106114864349,-0.142788216471672,-0.1523583829402923,0.0639167726039886,-10.17105197906494,0.2409972971114913,0.0451715376509385,-2.9270625845720706,3.2750242773646105,2.1298058289755124,0.4210319548189798,4.96,0.07,0.029,0.156,0
110,1745185579.47229,5.483235836029053,-0.0271540563553571,-4.926185607910156,-1.4373472929000854,-0.1568106114864349,-0.142788216471672,-0.1795547157526016,0.016810830682516,-10.111676216125488,0.2409972971114913,0.0451715376509385,-2.9270625845720706,3.334198106821389,2.1959883084712613,0.4701760952203644,4.96,0.07,0.029,0.156,0
110,1745185581.521809,7.689650535583496,2.4819912910461426,-4.948989868164063,2.684762954711914,1.44345223903656,-0.0615790486335754,-0.0076790265738964,-0.0167028084397315,-10.27219295501709,-0.2330987543493401,0.152253656459199,-2.915104758237314,3.096609877692813,1.7309329271398282,0.4260218196760351,4.96,0.07,0.029,0.156,0
110,1745185583.4397094,2.656451940536499,-0.5620285868644714,-4.77191162109375,-2.8538975715637207,-1.179912805557251,-0.5781332850456238,-0.3271332681179046,-0.0531947873532772,-11.018988609313965,0.4244987677783494,-0.1161383198095354,-2.9053596200722214,3.447913511961468,1.7308237696436546,0.5680085599363992,4.96,0.07,0.029,0.156,0
110,1745185583.489883,2.405879497528076,-0.6764235496520996,-4.790748596191406,-2.654332399368286,-1.062685489654541,-0.5715240836143494,-0.2479017823934555,0.031749203801155,-11.100732803344728,0.4366497203646166,-0.1158468183079878,-2.905430422801898,3.206122132788141,2.374323200378546,0.5292406972154655,4.96,0.07,0.029,0.156,0
110,1745185583.538766,2.26781964302063,-0.7384666800498962,-4.801979064941406,-2.537667989730835,-0.9945622682571412,-0.5645977258682251,-0.2722915112972259,0.0378441177308559,-10.85977268218994,0.4466372014469547,-0.1151301127241303,-2.9053166801094443,3.054913627227344,1.5424869210448486,0.5972246466532489,4.96,0.07,0.029,0.156,0
110,1745185584.5893338,0.3156351745128631,-1.4192231893539429,-5.064956665039063,0.5793873071670532,0.598029613494873,0.0807791054248809,-0.037349734455347,-0.0156026799231767,-10.209863662719728,0.083187300091883,-0.0307797053511498,-2.8788655944685906,3.141828574710213,1.8643885820975323,0.5877986995231457,4.96,0.07,0.029,0.156,0
111,1745185614.9666471,-0.0063179801218211,-0.9805430769920348,-3.429107666015625,0.0366529189050197,0.9269572496414183,-1.8351799249649048,-0.0277582313865423,0.083101749420166,-9.004366874694824,0.058948375816744,-0.0261456028905062,-2.0590726244565736,3.100519546715745,2.084839794039067,0.4688810652528934,4.79,0.15,0.047,0.085,0
111,1745185615.9711857,0.1517799347639084,-0.0415237247943878,-4.758888244628906,0.5960500836372375,0.7399199604988098,-0.687974214553833,-0.0895939618349075,0.004514904692769,-8.43869686126709,-0.0457088898570796,0.1079400001552931,-2.0630721636036284,2.95399091990142,2.449442833790744,0.4700265643207836,4.79,0.15,0.047,0.085,0
111,1745185615.9732423,0.1517799347639084,-0.0415237247943878,-4.758888244628906,0.5960500836372375,0.7399199604988098,-0.687974214553833,-0.0200506653636693,0.1263649761676788,-8.47909927368164,-0.0457088898570796,0.1079400001552931,-2.0630721636036284,3.0712586465097558,2.1682598039631387,0.5482663112097531,4.79,0.15,0.047,0.085,0
111,1745185616.9788427,1.2802644968032837,0.6270042061805725,-5.1845703125,1.8860735893249512,0.0320651791989803,0.1413255035877227,0.0403161309659481,0.0667972564697265,-9.3972749710083,-0.0795284257093994,0.0919388621247076,-2.0688300379135307,3.494722192910185,1.5058019771574482,0.5405297963801152,4.79,0.15,0.047,0.085,0
111,1745185617.983438,3.431797504425049,0.6599389314651489,-5.04705810546875,1.875046133995056,-0.533051609992981,0.2178692072629928,0.0440022274851799,0.073116585612297,-10.155839920043944,-0.1157881823055341,-0.1153182287974196,-2.0374381964844304,3.301321869752851,1.7501964182710568,0.5181697757823795,4.79,0.15,0.047,0.085,0
111,1745185617.9861758,3.431797504425049,0.6599389314651489,-5.04705810546875,1.875046133995056,-0.533051609992981,0.2178692072629928,-0.056678868830204,-0.0273571163415908,-10.146804809570312,-0.1157881823055341,-0.1153182287974196,-2.0374381964844304,3.116879792560449,1.5030296472270344,0.4376314996455223,4.79,0.15,0.047,0.085,0
111,1745185618.9905276,5.642757892608643,0.0045458925887942,-4.87359619140625,1.5268666744232178,-0.5690481066703796,-0.0011613657698035,-0.0939841270446777,0.0115300035104155,-10.244321823120115,-0.0146871262553351,-0.1724760700430543,-2.0250069558899453,2.7433434427573298,2.2011800849718024,0.5714321821627838,4.79,0.15,0.047,0.085,0
111,1745185619.0484445,5.754376411437988,-0.0485775098204612,-4.867431640625,1.429195761680603,-0.5438056588172913,-0.0100750811398029,-0.067924179136753,-0.0137164443731307,-10.118060111999512,-0.0101183136074412,-0.1765504870627663,-2.0250596170185857,3.2588254125544127,2.312775060759863,0.4055376704924716,4.79,0.15,0.047,0.085,0
111,1745185620.0531373,7.244208335876465,-0.70401531457901,-4.866714477539063,1.2443801164627075,0.0411262102425098,-0.1256561279296875,-0.0952844396233558,0.1117470115423202,-9.885560989379885,0.072481219354957,-0.1085118023444501,-2.009829223803313,3.0831981423192163,2.0225010579344893,0.4056940634091203,4.79,0.15,0.047,0.085,0
111,1745185620.0554054,7.244208335876465,-0.70401531457901,-4.866714477539063,1.2443801164627075,0.0411262102425098,-0.1256561279296875,-0.0441271699965,0.028394216671586,-9.963461875915527,0.072481219354957,-0.1085118023444501,-2.009829223803313,2.7754000873938764,2.317795414638676,0.4973993166368176,4.79,0.15,0.047,0.085,0
111,1745185621.063502,8.422743797302246,-0.6330852508544922,-4.9388427734375,1.6516995429992676,0.5913988947868347,-0.0900250747799873,6.240047514438629e-05,-0.0154283195734024,-9.738174438476562,0.0405963753247001,0.0026174270353448,-1.9987964819694757,2.871497572120408,2.2622482588619848,0.4405431944602873,4.79,0.15,0.047,0.085,0
111,1745185621.0660756,8.422743797302246,-0.6330852508544922,-4.9388427734375,1.6516995429992676,0.5913988947868347,-0.0900250747799873,-0.0571176372468471,-0.0085353925824165,-9.73178482055664,0.0391427910058943,0.0021258814395911,-1.998541546051685,3.0155303540218457,1.5071214995050044,0.509524538274398,4.79,0.15,0.047,0.085,0
111,1745185621.06951,8.422743797302246,-0.6330852508544922,-4.9388427734375,1.6516995429992676,0.5913988947868347,-0.0900250747799873,0.0030406415462493,0.0522660762071609,-9.779216766357422,0.0391427910058943,0.0021258814395911,-1.998541546051685,2.5426570495688736,2.4722162654579,0.4814189201929406,4.79,0.15,0.047,0.085,0
111,1745185621.0718195,8.422743797302246,-0.6330852508544922,-4.9388427734375,1.6516995429992676,0.5913988947868347,-0.0900250747799873,0.086999274790287,0.0316993445158004,-9.801535606384276,0.0391427910058943,0.0021258814395911,-1.998541546051685,2.733118696722208,1.584101821044988,0.4077610736719436,4.79,0.15,0.047,0.085,0
111,1745185623.0779023,6.6876301765441895,0.2530920505523681,-4.916351318359375,-1.958342432975769,-0.0938441306352615,-0.1197256222367286,-0.0869542136788368,0.0941439867019653,-10.022990226745604,0.0248727280037487,0.130447338782476,-2.006958281918647,2.5226273416959346,2.206192348637701,0.5360993863523834,4.79,0.15,0.047,0.085,0
111,1745185623.080322,6.6876301765441895,0.2530920505523681,-4.916351318359375,-1.958342432975769,-0.0938441306352615,-0.1197256222367286,-0.0612722486257553,0.1470163166522979,-10.089216232299805,0.0248727280037487,0.130447338782476,-2.006958281918647,2.8622243372474494,1.7384239264486203,0.4443379661660385,4.79,0.15,0.047,0.085,0
111,1745185633.1078355,8.098329623060348,2.2823570337449905,-5.0,-1.025368332862854,-0.0025799821596592,0.7167993187904358,-0.0792363435029983,0.0961148887872695,-9.543999671936035,-1.1302730801165134e-05,0.000652373495216,-1.9737791944509293,3.157338736497394,2.0467820528154177,0.4847289336165181,4.79,0.15,0.047,0.085,0
111,1745185643.1344953,6.228656975160781,1.984896775173944,-5.0,-0.0306159649044275,-0.004570456687361,0.027295671403408,0.0087846703827381,0.0272230356931686,-9.894086837768556,0.0127353160629631,0.0173214180437753,-1.9755471325659304,3.4081773463940843,1.508890372030261,0.4172606985902065,4.79,0.15,0.047,0.085,0
111,1745185654.0751035,4.446378352416364,1.4114978957591138,-5.0,0.0152725856751203,-0.0051010833121836,0.0102770552039146,0.0903143435716629,0.0044191968627274,-9.84951877593994,0.0087903489087081,0.0209492036338692,-1.953234148703633,2.5674775831210708,2.418395903524773,0.5799812093496417,4.79,0.15,0.047,0.085,0
111,1745185664.104103,1.0,0.0,-5.0,0.0076817455701529,-0.0045725381933152,0.0083563765510916,-0.0195906292647123,-0.0379420518875122,-9.79133129119873,0.0078650655803528,0.0193463390235722,-1.9310213946949035,2.9979077246985235,2.464553722063715,0.5967186935203852,4.79,0.15,0.047,0.085,0
111,1745185674.132485,0.0,0.0,-5.0,0.0042182984761893,-0.005730481352657,0.0083400616422295,-0.0567135252058506,0.0080345598980784,-9.877321243286133,0.0072814904085891,0.0185098160822625,-1.9115623544388431,3.232244730092328,1.6504829928649856,0.4098078769015062,4.79,0.15,0.047,0.085,0
113,1745185906.4189315,0.0,0.0,-5.0,-0.0003250008739996,-0.0006016181432642,-0.0071344007737934,0.0253908913582563,0.0175233110785484,-9.868709564208984,0.0058248460053437,0.0134523201065986,-1.8251413454877008,2.9705704594607365,2.341807513433154,0.4614862948767477,7.13,0.04,0.038,0.154,0
113,1745185916.4867885,1.0,0.0,-5.0,0.0031019698362797,0.002297808881849,0.001670250785537,-0.0257505252957344,-0.0221550911664962,-9.786168098449709,0.0059936451475602,0.0137068563632659,-1.82473618790642,2.765540966955513,1.9702915751956984,0.4348462841531496,7.13,0.04,0.038,0.154,0
113,1745185927.4590693,2.0,0.0,-5.0,-0.0018100312445312,-0.0022791700903326,-0.0033581655006855,-0.060088638216257,0.0188778396695852,-9.799907684326172,0.0056257429220619,0.0136313931161829,-1.8244574135462728,3.2417031130829645,2.3757303608007017,0.5226294982304306,7.13,0.04,0.038,0.154,0
113,1745185937.5275838,3.0,0.0,-5.0,-0.0026614237576723,-0.0002267731761094,-0.0023631886579096,-0.0693366080522537,0.0670729279518127,-9.768444061279297,0.005840847489931,0.0134686944714067,-1.8241062609161407,2.5676951707155884,2.386583303997324,0.4092360026812367,7.13,0.04,0.038,0.154,0
113,1745185947.6047518,4.0,0.0,-5.0,0.0020637984853237,-0.001381043693982,0.0002768571430351,-0.0426129288971424,0.0277168396860361,-9.727328300476074,0.0058326598714082,0.013740280575169,-1.8237405876833976,2.9174842400445047,2.1004419059243467,0.525483041377427,7.13,0.04,0.038,0.154,0
113,1745185958.5600622,5.0,0.0,-5.0,-0.000911057810299,-0.0037489649839699,-0.0006024410249665,-0.0275441296398639,-0.0087657216936349,-9.781367301940918,0.0057852419582551,0.0134665634625312,-1.8232081914214744,3.264732031557295,1.889048647269273,0.5531712899945209,7.13,0.04,0.038,0.154,0
113,1745185968.6340103,6.0,0.0,-5.0,-0.0018438595579937,0.003608128754422,0.0004577315121423,0.0033646775409579,-0.0222865361720323,-9.868757247924805,0.0057833921220752,0.0133762912744123,-1.8227670601196744,3.090131681030434,2.216085192318068,0.5709747822098598,7.13,0.04,0.038,0.154,0
113,1745185978.7065165,7.0,0.0,-5.0,-0.0016207894077524,-0.0014041408430784,-0.0015920455334708,0.0304621569812297,-0.0615223869681358,-9.830838203430176,0.0058475196458658,0.0139614790587699,-1.8223022061379337,2.9624078545595784,2.298450087254044,0.4161546266994121,7.13,0.04,0.038,0.154,0
113,1745185989.6599743,8.0,0.0,-5.0,-0.0042050797492265,-0.0005106502212584,-0.000771367282141,-0.0439390763640403,0.0203980524092912,-9.84633445739746,0.005975162633051,0.0135235312913002,-1.8217144174504627,2.825962758159061,1.7723179700119034,0.5212312243262734,7.13,0.04,0.038,0.154,0
113,1745185999.7376354,9.0,0.0,-5.0,0.0004627650196198,0.000496503082104,-0.0041333590634167,0.0101473927497863,-0.0077618807554244,-9.835331916809082,0.0060876774496925,0.0138269890053281,-1.8212086172180384,2.998496676341024,2.072385979284654,0.4878386510272798,7.13,0.04,0.038,0.154,0
113,1745186009.8188715,10.0,0.0,-5.0,-0.0016138057690113,-0.0012191087007522,-0.002867050236091,0.0073415818624198,0.0294353775680065,-9.786210060119627,0.0058166428745467,0.0136423232087242,-1.8208072094562453,3.4018553475799176,2.4893954666979274,0.4036750306340776,7.13,0.04,0.038,0.154,0
113,1745186020.7814286,13.14430222777748,1.2407130552273589,-5.0,0.0026113083586096,0.0046073533594608,0.0025832536630332,0.0140720000490546,0.0010204109130427,-9.84152603149414,0.0057466140145104,0.0138162162321492,-1.820196560159568,2.967905949865741,2.282043647580886,0.4143026096038582,7.13,0.04,0.038,0.154,0
113,1745186030.852527,8.0,0.0,-5.0,-0.002452376531437,-0.0041394857689738,-0.002964346203953,-0.0020662501920014,-0.0536106638610363,-9.761520385742188,0.0057238757440369,0.0134651918516464,-1.819674150840472,2.8765962914961394,1.552477145427795,0.4410774748978147,7.13,0.04,0.038,0.154,0
113,1745186040.925201,7.0,0.0,-5.0,0.002963873790577,-0.0007422235794365,-0.0017305032815784,0.0353146828711032,0.0195977091789245,-9.862098693847656,0.0057735194721547,0.0139182155626567,-1.8190714658618468,3.162704459517284,2.3814943281607914,0.5882291304089712,7.13,0.04,0.038,0.154,0
113,1745186051.860531,6.0,0.0,-5.0,-0.0028728952165693,-0.0014304077485576,0.0017702664481475,-0.0203776378184556,0.015718774870038,-9.787407875061035,0.0056563611680723,0.0136196840384381,-1.81839659721018,2.8663626978503625,1.7179243559676496,0.4057779300755285,7.13,0.04,0.038,0.154,0
113,1745186061.9322157,5.0,0.0,-5.0,-4.906157482764684e-05,0.0003114212013315,-0.0016544914105907,0.0460782498121261,-0.0199322178959846,-9.764077186584473,0.0057111358643722,0.013840569602343,-1.8179435298777495,2.6627744325890235,1.8048328176548547,0.5548794088613903,7.13,0.04,0.038,0.154,0
113,1745186071.999682,4.0,0.0,-5.0,0.0046517173759639,0.0046660844236612,0.0029378517065197,0.037856351584196,0.023795137181878,-9.835318565368652,0.0058120977681304,0.0137657513701715,-1.8174817381279509,3.069416638428006,1.8839825855148624,0.5740139901730767,7.13,0.04,0.038,0.154,0
113,1745186083.000621,3.0,0.0,-5.0,-0.0002953783550765,0.0030415907967835,0.0007585197454318,-0.0195771940052509,0.0130747137591242,-9.822972297668455,0.0059938177374522,0.0138142212586862,-1.816934405253115,2.600896272015601,1.6465733072101632,0.5653668726472252,7.13,0.04,0.038,0.154,0
113,1745186093.079945,2.0,0.0,-5.0,-0.0018893619999289,0.001741365995258,0.0005048286984674,0.0387232080101966,0.0281540565192699,-9.77684211730957,0.0057274643455204,0.0139549978692545,-1.8163498730024223,2.801928611770095,1.8527258331893155,0.4362643004196329,7.13,0.04,0.038,0.154,0
113,1745186103.1570058,1.0,0.0,-5.0,0.0004773141117766,-0.0005577536066994,0.0006555836880579,-0.0245465170592069,0.0280545875430107,-9.81528377532959,0.0056126849628249,0.0136867432896755,-1.8158417554508155,2.523303267480462,1.6958661944021127,0.4584376751173472,7.13,0.04,0.038,0.154,0
113,1745186113.18569,0.0,0.0,-5.0,0.000721403863281,0.0012300967937335,-0.0053239502012729,-0.0007815471617504,-0.0096206292510032,-9.804160118103027,0.0056841900247379,0.0135503330337467,-1.8152755031416112,3.025187168917924,2.325322638623439,0.4933177727301303,7.13,0.04,0.038,0.154,0
116,1745186575.950849,0.0,0.0,-5.0,0.0027705535758286,0.0032752901315689,-0.0006082129548303,-0.0176695231348276,0.0024128959048539,-9.839442253112791,0.0058103662789631,0.0135449995018975,-1.7904036452667245,2.8322373006185444,2.4735546010351026,0.5574202547084253,7.61,0.0,0.095,0.114,0
116,1745186586.8991406,1.0,0.0,-5.0,-0.0044658202677965,-0.0039076865650713,0.0055515840649604,0.0036249738186597,-0.0297592096030712,-9.806448936462402,0.0056596439141581,0.0135083319757789,-1.7898831800847963,3.3244238416419827,1.678656062809639,0.443794838746357,7.61,0.0,0.095,0.114,0
116,1745186596.9265816,2.0,0.0,-5.0,-0.0020398222841322,0.0047799777239561,0.0012628611875697,-0.022439956665039,-0.0898720920085907,-9.765639305114746,0.0058517682575707,0.013711812402309,-1.7890106139091102,2.724995428542176,1.6551501709692684,0.5871479668006483,7.61,0.0,0.095,0.114,0
116,1745186606.952716,3.0,0.0,-5.0,0.0020546503365039,-0.0006251725135371,-0.0016305687604472,-0.0626532733440399,0.0722507834434509,-9.83847427368164,0.0058703809173357,0.0139530890984815,-1.7883724335871818,3.0228220274463995,1.8365926090109024,0.5714256246450468,7.61,0.0,0.095,0.114,0
116,1745186617.915205,4.0,0.0,-5.0,-0.0013001969782635,-0.0010968412971124,-0.0002815281332004,-0.0630006417632103,0.0143698938190937,-9.80714988708496,0.0057813962487752,0.0135418325025059,-1.7881089691626733,3.359898861909281,1.864277913446436,0.4657542311858346,7.61,0.0,0.095,0.114,0
116,1745186627.9448345,5.0,0.0,-5.0,-0.0010315006365999,-0.0014947669114917,0.0011198830325156,-0.0011764568043872,0.051020972430706,-9.741771697998049,0.0056861658393654,0.013638559495591,-1.787879185813811,3.3708532094498898,1.9976386220239388,0.5991320662044649,7.61,0.0,0.095,0.114,0
116,1745186637.9733658,6.0,0.0,-5.0,0.0011090133339166,-0.002146776067093,0.0011104078730568,0.0290942192077636,0.0141644021496176,-9.85096549987793,0.0054859632304999,0.013597178615305,-1.787405893279763,3.4268957302057323,2.002212793098522,0.5112332938458953,7.61,0.0,0.095,0.114,0
116,1745186648.8512795,7.0,0.0,-5.0,-0.0046548563987016,0.0013826354406774,-0.0023219613358378,0.0536332726478576,0.0761398524045944,-9.756494522094728,0.0057876998717095,0.0135897588235243,-1.7864682186772145,2.9818429126465595,1.9347380834336836,0.4360766812029397,7.61,0.0,0.095,0.114,0
116,1745186658.8779097,8.0,0.0,-5.0,-0.000284840731183,0.0017142144497483,0.0051298420876264,0.0570952706038951,-0.0024838137906044,-9.848008155822754,0.0059216350401994,0.0133633370057229,-1.7861320990009164,2.912715464817465,2.2804747307015125,0.526982407325616,7.61,0.0,0.095,0.114,0
116,1745186668.9039092,9.0,0.0,-5.0,0.0006544575444422,-0.0045751896686851,0.0014986526221036,-0.0290175955742597,-0.0510540641844272,-9.78646469116211,0.0057108077362022,0.0135515925016837,-1.7853029567669,3.207051012963959,2.204640305624265,0.4787393371184336,7.61,0.0,0.095,0.114,0
116,1745186679.8388453,10.0,0.0,-5.0,-0.0020887874998152,0.0011661519529297,-0.0013645596336573,0.0384131111204624,0.0392314381897449,-9.812472343444824,0.0058339326438173,0.0135972378026118,-1.7846015718960226,3.2012366682968425,2.3492247622871663,0.466343431119433,7.61,0.0,0.095,0.114,0
116,1745186689.8656929,12.737513690719116,1.7566018623073194,-5.0,-0.004741882905364,-0.0018710566218942,0.0047249933704733,0.0129768708720803,-0.0552037730813026,-9.840126037597656,0.0057419964311592,0.0134637445326476,-1.784091745712385,2.5862906020356773,1.814667344599111,0.5840558636433997,7.61,0.0,0.095,0.114,0
116,1745186699.8923786,11.511814877735866,1.3987548427344887,-5.0,0.0008181720622815,5.42739981028717e-05,-0.0023196300026029,-0.0377804189920425,0.0278377942740917,-9.803415298461914,0.0057448430506263,0.0138595132166918,-1.7834463618948737,2.823041522277885,1.9199310616633896,0.4428844184904232,7.61,0.0,0.095,0.114,0
116,1745186710.8234353,9.16558225129682,2.8412771816924383,-5.0,-0.001350472564809,0.0012554387794807,-0.0014985982561483,-0.0650808587670326,-0.0559321530163288,-9.842381477355955,0.0058398764506421,0.0141079405044596,-1.78282370652539,2.891022098213984,2.047190802896999,0.4159463748367893,7.61,0.0,0.095,0.114,0
116,1745186720.8494115,10.60323115658026,2.889797697477245,-5.0,-0.00137520278804,-0.0030250276904553,-0.0012829318875446,0.0176446307450532,-0.0939220786094665,-9.789706230163574,0.0055945004103898,0.0134532191260594,-1.7822877200305762,3.1525717997391123,2.1190811257564377,0.5002883741641244,7.61,0.0,0.095,0.114,0
116,1745186730.8738446,5.0,0.0,-5.0,0.0031609919387847,-0.0003986915980931,-0.0046577262692153,-0.0231846868991851,-0.0077297831885516,-9.861541748046877,0.0056407659127969,0.0135295941679098,-1.781627307686125,2.8007352772869534,1.889308140355348,0.4060794896465852,7.61,0.0,0.095,0.114,0
116,1745186741.7930615,4.0,0.0,-5.0,-0.0035859409254044,0.0056451237760484,-0.0054905540309846,0.0357306897640228,0.0060420129448175,-9.754534721374512,0.0057581592807741,0.013346551731634,-1.780973270057776,2.607187297148347,1.6418780766516674,0.4204160404259837,7.61,0.0,0.095,0.114,0
116,1745186751.8236623,3.0,0.0,-5.0,0.0015621461207047,-0.0004125406849198,0.0003110840916633,0.0836891680955886,-0.0107044652104377,-9.826714515686035,0.0056279668248108,0.0136186133434652,-1.7800884594611228,3.263680296862588,2.3546036930284373,0.4893395204702632,7.61,0.0,0.095,0.114,0
116,1745186761.8492248,2.0,0.0,-5.0,0.0005674544954672,-0.002215972635895,0.0008909005555324,-0.0128205167129635,-0.0005700711626559,-9.811344146728516,0.0055922057585666,0.0135091638345124,-1.7795581060070615,2.630836384259775,2.1960750844859875,0.4389035313885639,7.61,0.0,0.095,0.114,0
116,1745186772.7520907,1.0,0.0,-5.0,0.0052253119647502,0.0032493087928742,-0.0020644676405936,0.0339100658893585,-0.0288577154278755,-9.78990364074707,0.0059302015109768,0.0136605720668315,-1.7792501778824223,2.535545031378578,2.1428856923882185,0.4929665335678925,7.61,0.0,0.095,0.114,0
116,1745186782.776188,0.0,0.0,-5.0,-0.001415861188434,0.000999832060188,0.0003344126162119,0.0117442552000284,0.025463942438364,-9.8093843460083,0.0056452441672701,0.0138310217351848,-1.7784745376499915,2.6793979077322887,2.216885931280785,0.5770202300353359,7.61,0.0,0.095,0.114,0
117,1745186798.05683,0.0,0.0,-5.0,-0.0009494736441411,-1.2848349797422998e-05,-0.0092928688973188,-0.0174751617014408,-0.047243844717741,-9.75754165649414,0.0058066454995807,0.0134442472821964,-1.7772199687574397,2.5369322617615206,2.0498872945359,0.5586688145764557,4.36,0.19,0.098,0.073,0
117,1745186808.967406,1.0,0.0,-5.0,-0.0033877249807119,-0.003343494143337,-0.0021063853055238,-0.0337682850658893,-0.0226461831480264,-9.838061332702637,0.0056455689069885,0.013562607790759,-1.7765297883029694,2.669616947897553,2.0054556179952767,0.5317196155657922,4.36,0.19,0.098,0.073,0
117,1745186819.0368922,2.0,0.0,-5.0,-0.0008931149495765,-0.002931096823886,-0.0035562324337661,0.0234633479267358,0.0406110063195228,-9.697056770324709,0.0056123037234002,0.0136276712380613,-1.7759652742405525,2.730798689997321,1.7485858987539582,0.5197634125484885,4.36,0.19,0.098,0.073,0
117,1745186829.1039803,3.0,0.0,-5.0,-0.0027004776056855,-0.0003625926037784,-0.002314515877515,-0.0801472291350364,0.0465423353016376,-9.823201179504396,0.0058423072832793,0.0134567321664704,-1.7753195932289934,3.183616315309261,2.126583740445568,0.4013146934446694,4.36,0.19,0.098,0.073,0
117,1745186840.106209,4.0,0.0,-5.0,-0.0004176987276878,-0.0010876698652282,-0.0032567679882049,0.0376499369740486,-0.0396146774291992,-9.687603950500488,0.0059343502469162,0.0138140910404361,-1.7745250484031465,2.608229099501194,2.0878714450135742,0.4207135561406865,4.36,0.19,0.098,0.073,0
117,1745186850.1792517,5.0,0.0,-5.0,-0.0007156924111768,-0.0035871199797838,-0.0003765467263292,-0.0201157964766025,-0.0568864122033119,-9.819851875305176,0.0057769198161602,0.013451772544276,-1.7741324686442752,2.8199849596353035,2.105346435852878,0.5555254931081633,4.36,0.19,0.098,0.073,0
117,1745186860.2532475,6.0,0.0,-5.0,-0.0020257397554814,0.0035124365240335,0.0004875930317211,-0.0211765635758638,-0.0065016918815672,-9.8215913772583,0.0057704100496357,0.0133812527485896,-1.7739075606512238,2.824768343176414,1.5961702652337804,0.5776203079268216,4.36,0.19,0.098,0.073,0
117,1745186871.1921616,7.0,0.0,-5.0,0.003527860622853,-7.457474566763267e-07,0.0058743353001773,-0.0169426798820495,-0.0406012013554573,-9.85910415649414,0.0059504801404422,0.0139159714444032,-1.7732293880400198,2.927385672029064,2.131630667483672,0.4295930919571274,4.36,0.19,0.098,0.073,0
117,1745186881.2703426,8.0,0.0,-5.0,-0.0036536471452564,-0.0004788188380189,-0.0009145004441961,-0.0461354181170463,-0.0318441577255725,-9.828951835632324,0.005972397944122,0.0135235923451616,-1.7726424356316095,3.102952244771074,1.793664951451168,0.4382109582314658,4.36,0.19,0.098,0.073,0
117,1745186891.3470464,13.442705680235944,1.119673645087477,-5.0,0.0012395266676321,0.00051019503735,-0.0034495997242629,-0.0441775992512702,0.0065035289153456,-9.80463981628418,0.00611748200001,0.0138398786876113,-1.772338548908155,3.096760843384046,1.8314982598854312,0.5482299381015476,4.36,0.19,0.098,0.073,0
117,1745186902.3352146,13.24734938869024,2.7190036101704718,-5.0,0.0020078236702829,0.0019107493571937,-0.0039165900088846,-0.0132348192855715,0.0134271997958421,-9.759631156921388,0.0058774440319229,0.0137942888136214,-1.7718050796750686,2.64550955473819,2.2181409306542053,0.5547663447159872,4.36,0.19,0.098,0.073,0
117,1745186912.4011824,12.129037638935111,2.440209681112289,-5.0,0.0030396182555705,0.003861563745886,0.002389790257439,0.0658696889877319,-0.031017780303955,-9.802677154541016,0.0057275139027769,0.0138161081658879,-1.7712412212083335,2.913775399217084,1.898755239321238,0.5777289354322884,4.36,0.19,0.098,0.073,0
117,1745186922.4779336,8.0,0.0,-5.0,-0.0031432860996574,-0.004349154420197,-0.0027740029618144,0.0303648263216018,-0.1080823093652725,-9.810708045959473,0.0057274083574988,0.0134565460796428,-1.7710877418855548,2.6479123425498248,1.780271040777404,0.4746069639984606,4.36,0.19,0.098,0.073,0
117,1745186933.4338243,7.0,0.0,-5.0,-0.0006876740371808,0.0014807938132435,-0.0022357006091624,0.0296339467167854,-0.0518506616353988,-9.77626895904541,0.0059443753896876,0.0137164920574782,-1.769856257176378,2.502320130673273,1.6992058062069564,0.5681395099292714,4.36,0.19,0.098,0.073,0
117,1745186943.512204,6.0,0.0,-5.0,-0.0026187798939645,-0.0030821054242551,0.0017292863922193,0.0031915826257318,0.0221236925572156,-9.871037483215332,0.0056545587973408,0.0135892582990624,-1.7692580171123111,2.642816316472821,1.7168093546223964,0.5582766063843357,4.36,0.19,0.098,0.073,0
117,1745186953.5772698,5.0,0.0,-5.0,0.0007623170968145,0.0012377296807244,-0.0023081286344677,0.0105032529681921,-0.0107279047369956,-9.849586486816406,0.0056631911506818,0.0138139132433075,-1.7687695395386949,2.717229950042069,1.5381100182844911,0.4156169857217728,4.36,0.19,0.098,0.073,0
117,1745186964.562577,4.0,0.0,-5.0,-0.0016357528511434,-0.0027189154643565,0.0057664173655211,-0.0661397874355316,-0.0869730040431022,-9.821371078491213,0.005758953011846,0.0136133607872925,-1.7684876537062648,2.803869654203776,2.2016889834856386,0.4377904851711594,4.36,0.19,0.098,0.073,0
117,1745186974.6290164,3.0,0.0,-5.0,-0.0005624444456771,0.0031419550068676,0.0006351347547024,0.0118593759834766,-0.0205692276358604,-9.770391464233398,0.0060065760342459,0.0138278337155807,-1.7679992471982309,3.0748329093644853,2.05238213960352,0.4192520874151204,4.36,0.19,0.098,0.073,0
117,1745186984.705463,2.0,0.0,-5.0,-0.0013861032202839,0.0013448923127725,0.0014945544535294,-0.0292967353016138,-0.0612210929393768,-9.82496166229248,0.0056803778947893,0.0140019634139256,-1.76750411905991,2.894803740616107,1.851337929585038,0.4466976501291918,4.36,0.19,0.098,0.073,0
117,1745186995.6667566,1.0,0.0,-5.0,-0.0016165691195055,-0.0006366049055941,0.0018042153678834,-0.0175820682197809,0.0265556499361991,-9.777508735656738,0.0055638433544873,0.0136869703199023,-1.7667639193410014,2.627755979519298,2.123751283294726,0.46702461580207,4.36,0.19,0.098,0.073,0
117,1745187005.7319536,0.0,0.0,-5.0,0.0035572915803641,-0.0021503751631826,-0.0074447691440582,-0.0184195004403591,0.0093822516500949,-9.737460136413574,0.0058073292328777,0.0136015200306943,-1.766304391076849,3.209666161910909,2.4058152584146058,0.5227282174690759,4.36,0.19,0.098,0.073,0
118,1745187026.138217,0.0,0.0,-5.0,-0.0031811979133635,-0.0058995122089982,0.005387695506215,0.0004117093048989,-0.0169845297932624,-9.780622482299805,0.0055362934080594,0.0135013751038764,-1.7655001575869502,3.2749563595994324,2.352376655809702,0.5781315352789802,8.39,0.05,0.067,0.054,0
118,1745187036.2072215,1.0,0.0,-5.0,-0.0030505978502333,0.0017264825291931,0.0013205476570874,-0.0012494698166847,0.027052978053689,-9.744705200195312,0.0058779536324249,0.0136071510665156,-1.7646853940417584,3.317248007420919,1.8811251208336677,0.4285807045832343,8.39,0.05,0.067,0.054,0
118,1745187046.2758043,2.0,0.0,-5.0,-0.0006924255867488,-0.0022948193363845,-0.0004709917411673,-0.0203067138791084,-0.0027550491504371,-9.812212944030762,0.0058166772751915,0.0139282831425953,-1.7638427914235204,3.053195424698661,1.659841703758505,0.5971055723804566,8.39,0.05,0.067,0.054,0
118,1745187057.2483308,3.0,0.0,-5.0,-0.0030658077448606,-3.976674634031952e-05,-0.0025750370696187,-0.0044709620997309,0.0444212667644023,-9.822571754455566,0.0058029111290778,0.0135400682135217,-1.7639571690510316,2.932462100608996,1.8491873541481667,0.5234475534307137,8.39,0.05,0.067,0.054,0
118,1745187067.3157814,4.0,0.0,-5.0,0.0003872825764119,-0.0011993509251624,-0.0011989652412012,0.0018815922085195,-0.0504616163671016,-9.830965042114258,0.0057224195721475,0.0136554794453417,-1.7636854148174148,2.695048035319715,1.716015386327984,0.4174290245903838,8.39,0.05,0.067,0.054,0
118,1745187077.3841152,5.0,0.0,-5.0,2.7314828912494704e-05,-0.0001930983562488,0.0026637045666575,-0.0264636781066656,-0.0396902672946453,-9.808295249938965,0.0055521015453156,0.0135870231851662,-1.763258360690921,3.2302550167031123,2.462985879197842,0.4603412978327859,8.39,0.05,0.067,0.054,0
118,1745187088.2879837,6.0,0.0,-5.0,-0.0059466804377734,-0.0005759545019827,-0.0006224279059097,0.032494232058525,-0.072417989373207,-9.87173843383789,0.0057937820166113,0.0135670164550703,-1.7621344542075716,3.077217758006624,1.6658816373900986,0.5776658272259554,8.39,0.05,0.067,0.054,0
118,1745187098.3602836,7.0,0.0,-5.0,-2.4176777515094727e-05,0.0023835506290197,0.0046126581728458,-0.0041338047012686,0.0600969903171062,-9.868363380432127,0.0059987276721341,0.0133521314958391,-1.7619895466247284,3.0372342174643743,2.2032648236657857,0.4584353152762568,8.39,0.05,0.067,0.054,0
118,1745187108.4399607,8.0,0.0,-5.0,-0.0002306911046616,-0.0042243120260536,0.0004755303671117,-0.0248804632574319,-0.0051182126626372,-9.764960289001465,0.0056722114318283,0.0135750952734525,-1.7610068248862534,3.4379136629752205,2.089705866622453,0.5486154372345386,8.39,0.05,0.067,0.054,0
118,1745187118.472928,9.0,0.0,-5.0,0.0032630925998091,0.0010310928337275,-0.0030552805401384,0.0063032433390617,-0.0067019774578511,-9.815688133239746,0.0060178626919456,0.0135804315905417,-1.76026979084023,2.66948472623344,1.7690755374231484,0.4177372004331573,8.39,0.05,0.067,0.054,0
118,1745187128.5477026,10.0,0.0,-5.0,-0.0012312564067542,-0.0024001558776944,0.0011655972339212,0.0527551285922527,-0.0488179735839366,-9.75462532043457,0.0056462521528803,0.013523555834188,-1.759822393304555,3.131325519050768,2.0404774915617407,0.4705146717103909,8.39,0.05,0.067,0.054,0
118,1745187138.6235886,13.839334921634164,1.4080035942836566,-5.0,0.000593458127696,0.0007919193012639,0.0029515165369957,0.016750456765294,-0.0051389886066317,-9.680652618408203,0.0058519898176084,0.013846836963776,-1.759106469292632,3.2776873336877728,2.1078017103969984,0.4963581706841817,8.39,0.05,0.067,0.054,0
118,1745187149.5966184,11.746259247010856,2.1787798523525206,-5.0,-0.0016675626393407,0.000285225600237,0.0051849456503987,0.0737334042787551,-0.0606478564441204,-9.800419807434082,0.0058102398069773,0.0140176393279295,-1.758385839670933,3.445788514853032,2.414268425082552,0.493506573684025,8.39,0.05,0.067,0.054,0
118,1745187159.6700995,9.658509615744492,1.869668499811294,-5.0,-0.0007145723211579,-0.0022101744543761,0.0015519297448918,0.0243499185889959,-0.0120269544422626,-9.818044662475586,0.0055549939079169,0.0135826241878493,-1.7578685137732433,2.5820584990335536,1.8653354057299532,0.4475041571650047,8.39,0.05,0.067,0.054,0
118,1745187169.7456963,10.28557752588002,2.1993630602872543,-5.0,0.0034282687120139,0.0012876479886472,-0.000807863951195,0.0402404181659221,-0.0180652178823947,-9.830215454101562,0.0057288410700067,0.0137608860814567,-1.7573058114345192,3.382176773763528,2.156327637707503,0.4032145985213714,8.39,0.05,0.067,0.054,0
118,1745187180.7050948,5.0,0.0,-5.0,-0.0022615399211645,0.0045035262592136,-0.0011927224695682,0.0600704625248909,0.0205159932374954,-9.76432991027832,0.0058946842621493,0.0133377285655854,-1.7567398524446989,2.980996635359784,1.6383639178275269,0.4684286728119206,8.39,0.05,0.067,0.054,0
118,1745187190.7840617,4.0,0.0,-5.0,0.0005732745630666,-0.0019079732010141,0.0028506042435765,0.0707202702760696,-0.0428881719708442,-9.816376686096191,0.0055192022248241,0.0136827987190412,-1.755400472057821,3.487818768112786,2.397678212248048,0.499949119634744,8.39,0.05,0.067,0.054,0
118,1745187200.864733,3.0,0.0,-5.0,0.000434372894233,-0.0025294229853898,0.0015218247426673,0.0177347231656312,-0.0523692741990089,-9.744352340698242,0.0055015004717326,0.0134710136195822,-1.754747394758183,3.271022653919913,2.113977459728765,0.5784369107725225,8.39,0.05,0.067,0.054,0
118,1745187211.8671408,2.0,0.0,-5.0,0.0034852931275963,0.0016479766927659,-0.0005329057457856,0.0015267035923898,-0.0135302487760782,-9.879672050476074,0.005862541955066,0.0137131977157552,-1.7546223252386957,2.9466542519545627,1.5580038339641116,0.5508533187021127,8.39,0.05,0.067,0.054,0
118,1745187221.9446917,1.0,0.0,-5.0,0.0009673205786384,-0.0003036693378817,-0.0003139860345982,-0.0274599194526672,-0.0760232955217361,-9.83628749847412,0.0056353901668222,0.0138138297310662,-1.7539083811950225,2.8038110830834624,1.6326752713374426,0.5993471162303465,8.39,0.05,0.067,0.054,0
118,1745187232.0176668,0.0,0.0,-5.0,0.0024647710379213,-0.0020842782687395,0.0019792737439274,0.0075704040937125,-0.0173650439828634,-9.738633155822754,0.0056812214737699,0.0136308211748153,-1.753344010735952,3.3474013003861125,1.7922613001259853,0.5673992053753353,8.39,0.05,0.067,0.054,0
119,1745187257.0178092,0.0,0.0,-5.0,-0.0029723700135946,0.0003296894428785,-0.0106218429282307,0.0647903829813003,-0.0131485601887106,-9.807753562927246,0.0058901184277446,0.0135351858569542,-1.7521080513770089,2.962248571375908,1.976803336855692,0.5285945069012038,6.15,0.0,0.113,0.086,0
119,1745187267.936648,1.0,0.0,-5.0,-0.0040142377838492,-0.0040915226563811,-0.0023413456510752,0.0194504167884588,-0.0020741913467645,-9.716686248779297,0.0056762681527468,0.0135832007777782,-1.7513216710902604,3.4618020840502863,1.6865628859803374,0.5885553380397078,6.15,0.0,0.113,0.086,0
119,1745187277.9621308,2.0,0.0,-5.0,0.0014503637794405,-0.0017709668027237,-0.0030512877274304,0.0328738689422607,-0.0349460765719413,-9.749005317687988,0.0055980209867369,0.0136168597687867,-1.750716564278563,2.995291730067368,1.6103263922675697,0.5988016569587141,6.15,0.0,0.113,0.086,0
