mission_id,step,time,target_x,target_y,target_z,real_x,real_y,real_z,vx,vy,vz,ax,ay,az,roll,pitch,yaw,wind_x,wind_y,wind_z,erreur_m,is_attack,velocity,erreur_cumulee_m,battery_level,rain,fog,snow
1,0,1744980222.6432066,0.0,0.0,-5.0,-0.028263738378882408,0.0028429205995053053,-2.04144287109375,-0.02626940980553627,-0.0023814677260816097,-0.004833192564547062,-0.12021682411432266,0.027634048834443092,-9.778274536132812,0.009896235866352021,-0.0010511658169111528,-2.999765297270211,2.7883189550291814,1.7650825241005341,0.4825354055916176,2.9586934964789235,0,7.13,2.9586934964789235,100,0.17,0.009,0.232
1,1,1744980222.9490478,0.3333333333333333,0.0,-5.0,-0.03539590537548065,0.004150725901126862,-2.0436477661132812,-0.02196842059493065,-0.008061995729804039,-0.0030262507498264313,-0.08773647993803024,-0.005021704360842705,-9.782200813293457,0.011132341150338503,-0.0011958062771602609,-2.9998747237992167,3.435472755718693,1.9931270216397885,0.4899586810858285,2.9792611518313197,0,7.13,5.937954648310243,100,0.17,0.009,0.232
1,2,1744980223.2574313,0.6666666666666666,0.0,-5.0,-0.043390389531850815,0.0038836325984448195,-2.0457687377929688,-0.02720046043395996,-0.011283758096396923,-0.0021148049272596836,-0.04051129147410393,-0.03669961541891098,-9.817913055419922,0.012414645255546254,-0.0018351739208473609,-3.0007473200774943,2.5207371755025765,2.4827938546003216,0.5235058700657563,3.0383677289394733,0,7.13,8.976322377249716,100,0.17,0.009,0.232
1,3,1744980223.5636964,1.0,0.0,-5.0,-0.05165735259652138,0.0022260101977735758,-2.047607421875,-0.015945004299283028,-0.012396951206028461,0.0035910385195165873,-0.10368920862674713,-0.08590430021286011,-9.778905868530273,0.012896543197733253,-0.0019094575015903186,-3.0009847601627686,3.470494963977231,2.3727154772817474,0.5698635492722648,3.134104350170764,0,7.13,12.11042672742048,100,0.17,0.009,0.232
1,4,1744980223.8702338,1.3333333333333333,0.0,-5.0,-0.0585249662399292,-0.0005109761259518564,-2.0482101440429688,-0.015397339127957821,-0.012101028114557266,0.00429547019302845,-0.028555363416671753,-0.022381028160452843,-9.893062591552734,0.013858522559817763,-0.0020635269790319137,-3.0005349003441943,2.79973429261188,2.2656614638833545,0.458534727726007,3.2634848154876415,0,7.13,15.373911542908122,100,0.17,0.009,0.232
1,5,1744980224.1752274,1.6666666666666665,0.0,-5.0,-0.0631512850522995,-0.0046865870244801044,-2.0478744506835938,-0.0026791642885655165,-0.010263621807098389,0.00852319784462452,-0.04351075738668442,-0.045145176351070404,-9.856820106506348,0.013458510735718536,-0.0026415013367423953,-3.0003596201343323,3.394979174386561,2.4713661676108982,0.579547216822474,3.421598656931264,0,7.13,18.795510199839384,100,0.17,0.009,0.232
1,6,1744980224.4797628,2.0,0.0,-5.0,-0.06341065466403961,-0.009729896672070026,-2.0478515625,0.006426892708986998,-0.00939010176807642,0.00816939678043127,-0.1152220368385315,0.018361633643507957,-9.797775268554688,0.012228740306942924,-0.0034758016283557187,-3.000440019268655,3.312913000484032,2.180109836618922,0.5333632748061929,3.6017965791676825,0,7.13,22.397306779007067,100,0.17,0.009,0.232
1,7,1744980224.7841806,2.3333333333333335,0.0,-5.0,-0.062495745718479156,-0.01591629348695278,-2.0482940673828125,0.005053706467151642,-0.008701581507921219,0.00781243247911334,-0.1043054610490799,0.0171110387891531,-9.903178215026855,0.01242799346594704,-0.004662869105039964,-3.000228759290146,2.6344557753760744,2.2639506758312713,0.5982420091227364,3.801686233380672,0,7.13,26.19899301238774,100,0.17,0.009,0.232
1,8,1744980225.09051,2.6666666666666665,0.0,-5.0,-0.061635423451662064,-0.02231488935649395,-2.0498428344726562,0.00527025293558836,-0.009041224606335163,0.0018414570949971676,-0.05289614200592041,-0.018314113840460777,-9.86547565460205,0.013128569986548863,-0.005766331020893733,-3.0004118640001654,2.7647004196773217,1.751246779776348,0.4118399984617602,4.018402362947663,0,7.13,30.2173953753354,100,0.17,0.009,0.232
1,9,1744980225.3949199,3.0,0.0,-5.0,-0.05936410278081894,-0.028277888894081116,-2.0520095825195312,0.007100652903318405,-0.003401777008548379,0.0035618061665445566,-0.12008574604988098,-0.08473218977451324,-9.746625900268555,0.012364099528510291,-0.006108265774147476,-3.0006622258423157,2.688346573172278,2.456874620302286,0.4913540776033117,4.248665184965845,0,7.13,34.466060560301244,100,0.17,0.009,0.232
1,10,1744980225.7006152,3.333333333333333,0.0,-5.0,-0.05613720789551735,-0.03392453119158745,-2.0526046752929688,0.007469797506928444,-0.00040885788621380925,0.008548503741621971,-0.06332013756036758,-0.03728076070547104,-9.863544464111328,0.012207614103020062,-0.00705552613771833,-3.0008288731363586,2.720847549515697,1.52212030618545,0.5615445396182392,4.49185937266291,0,7.13,38.95791993296415,100,0.17,0.009,0.232
1,11,1744980226.0066087,3.6666666666666665,0.0,-5.0,-0.05318891629576683,-0.03679073229432106,-2.0536422729492188,0.004639638587832451,0.008600943721830845,0.006009609438478947,-0.08107928186655045,-0.021817995235323906,-9.690837860107422,0.011932798489896687,-0.006469345996838586,-3.0008155150173796,2.5451969592633814,2.2651799604948875,0.4209717069421992,4.745492911366678,0,7.13,43.70341284433083,100,0.17,0.009,0.232
1,12,1744980226.3118477,4.0,0.0,-5.0,-0.04977690055966377,-0.03613182529807091,-2.0548553466796875,0.005686750635504723,0.016804171726107597,0.007627657614648342,-0.1521402895450592,-0.03643162548542023,-9.794055938720703,0.011262458723852786,-0.00524600762584285,-3.000745150306812,2.899244881372529,2.1747235486080823,0.5242707923985538,5.0075817998398415,0,7.13,48.71099464417067,100,0.17,0.009,0.232
1,13,1744980226.6150355,4.333333333333334,0.0,-5.0,-0.04615476727485657,-0.03479773923754692,-2.0553741455078125,0.00272914906963706,0.020891061052680016,0.01214643195271492,-0.11504971981048584,-0.024890080094337463,-9.854736328125,0.010760538745328676,-0.004607642312197376,-3.0004161341622444,2.6030161266852643,2.3238905757488437,0.5248541047401843,5.277494512452725,0,7.13,53.988489156623395,100,0.17,0.009,0.232
1,14,1744980226.920913,4.666666666666667,0.0,-5.0,-0.042201243340969086,-0.03293665871024132,-2.0549087524414062,0.004916728474199772,0.01884038932621479,0.014735879376530647,-0.10648330301046371,-0.016430886462330818,-9.788196563720703,0.010021448935689691,-0.0048913540276436076,-3.00002203070312,3.360681774263797,1.6615078690840828,0.5952120701488095,5.554105173097905,0,7.13,59.5425943297213,100,0.17,0.009,0.232
1,15,1744980227.2244494,5.0,0.0,-5.0,-0.03725016489624977,-0.029882391914725304,-2.0544662475585938,0.0065964022651314735,0.020684324204921722,0.015611127950251102,-0.17238658666610718,-0.0653751939535141,-9.886347770690918,0.008566008671962163,-0.004505873210986693,-2.9999612343247,3.4273132821173657,1.6603840005302608,0.5962012511155439,5.835319294423004,0,7.13,65.3779136241443,100,0.17,0.009,0.232
1,16,1744980227.5302987,5.333333333333333,0.0,-5.0,-0.03378025069832802,-0.024809475988149643,-2.0545120239257812,-0.0009285680716857314,0.019624432548880577,0.013441912829875946,0.017338842153549194,0.0054555619135499,-9.757636070251465,0.008951870526504374,-0.003683421966443888,-2.999683232701406,2.5391763224086783,1.5295983587672115,0.5496893799632452,6.122289045054455,0,7.13,71.50020266919876,100,0.17,0.009,0.232
1,17,1744980227.8357644,5.666666666666667,0.0,-5.0,-0.03246908634901047,-0.02010723017156124,-2.0547561645507812,-0.009192334488034248,0.016657313331961632,0.011507702060043812,-0.05830404907464981,0.034845780581235886,-9.819416999816895,0.009910860814653031,-0.00342343499108241,-2.999565001187723,2.5647497179066776,1.8133593335631488,0.5282085945112593,6.415217368278207,0,7.13,77.91542003747696,100,0.17,0.009,0.232
1,18,1744980228.1416373,6.0,0.0,-5.0,-0.032519735395908356,-0.016643593087792397,-2.0554962158203125,-0.011249219998717308,0.009357585571706295,0.007280610501766205,-0.02841329388320446,0.058577388525009155,-9.77320671081543,0.01028910705481385,-0.0036233998405742368,-2.999967454920249,2.7838563598995334,1.505221928417314,0.4795262401386756,6.712799259785778,0,7.13,84.62821929726275,100,0.17,0.009,0.232
1,19,1744980228.445042,6.333333333333333,0.0,-5.0,-0.034083493053913116,-0.013887119479477406,-2.0558624267578125,-0.014817502349615097,0.009796801954507828,0.008029037155210972,-0.02119436115026474,-0.0227641798555851,-9.796820640563965,0.011259449948813595,-0.002867266573371049,-3.0001376685179997,2.518964268620168,2.406591953214266,0.47911960337894827,7.015136202756384,0,7.13,91.64335550001913,100,0.17,0.009,0.232
1,20,1744980228.7518632,6.666666666666666,0.0,-5.0,-0.03735058754682541,-0.011078815907239914,-2.0552520751953125,-0.016124503687024117,0.006629306357353926,0.010717922821640968,-0.04737734794616699,0.020619697868824005,-9.704827308654785,0.011753656761851417,-0.0028135422067829025,-2.999935251210533,2.6510875068665616,1.8604224140222327,0.5626172332565595,7.322261291813863,0,7.13,98.96561679183299,100,0.17,0.009,0.232
1,21,1744980229.0577118,7.0,0.0,-5.0,-0.04190952330827713,-0.008203301578760147,-2.0535430908203125,-0.012312248349189758,0.007883738726377487,0.011967416852712631,-0.04729275405406952,0.0224284827709198,-9.744490623474121,0.01203770486521562,-0.002335964739062092,-3.0000018245972746,2.963118746317738,2.4703349774464893,0.5570797754604381,7.633489722680532,0,7.13,106.59910651451352,100,0.17,0.009,0.232
1,22,1744980229.3629189,7.333333333333334,0.0,-5.0,-0.04670576751232147,-0.004642668180167675,-2.0507049560546875,-0.010661240667104721,0.004130745306611061,0.011200147680938244,-0.056956592947244644,-0.013526467606425285,-9.767047882080078,0.012371185265134196,-0.0018676186226352527,-3.000379464679336,2.7423912536626807,1.7540648061293767,0.5438801543677607,7.947536721564674,0,7.13,114.5466432360782,100,0.17,0.009,0.232
1,23,1744980229.6703732,7.666666666666666,0.0,-5.0,-0.05147555097937584,-0.002329060109332204,-2.0484848022460938,-0.004998037125915289,0.00027648641844280064,0.005609818734228611,-0.06934583932161331,-0.012445134110748768,-9.77100658416748,0.012451203271488473,-0.0019681446695277807,-3.000441432914575,3.0466325337476046,1.7125941928643886,0.4729240881373295,8.263241898849593,0,7.13,122.80988513492778,100,0.17,0.009,0.232
1,24,1744980229.9751778,8.0,0.0,-5.0,-0.0558248870074749,-0.0015044809551909566,-2.047149658203125,-0.0010325323091819882,0.000476145331049338,0.0033623722847551107,-0.06725238263607025,0.004571773111820221,-9.83304500579834,0.012526452273566618,-0.001713691504603808,-3.000534175725478,3.096661636005388,2.4082159623575157,0.4376988462304793,8.57995582824538,0,7.13,131.38984096317316,100,0.17,0.009,0.232
1,25,1744980230.279798,8.333333333333332,0.0,-5.0,-0.05956321582198143,-0.001646962482482195,-2.0452651977539062,0.00046214734902605414,-0.004769195802509785,0.0027997009456157684,-0.07188387960195541,-0.03226131200790405,-9.822932243347168,0.013089208086366846,-0.002409485509276131,-3.000795982014851,2.7965696096307293,1.903939971170203,0.49308568234503664,8.897818437623508,0,7.13,140.28765940079666,100,0.17,0.009,0.232
1,26,1744980230.5850487,8.666666666666666,0.0,-5.0,-0.06160152330994606,-0.0023039563093334436,-2.0444259643554688,0.0043457429856061935,-0.002215018030256033,-0.0003630401333793998,-0.04750658571720123,-0.04548431560397148,-9.779052734375,0.013269508186095744,-0.002518563782040472,-3.000682440774256,2.7881919715242542,2.494342415278336,0.45308600971302887,9.215101127201393,0,7.13,149.50276052799805,100,0.17,0.009,0.232
1,27,1744980230.8889573,9.0,0.0,-5.0,-0.061403483152389526,-0.0031244694255292416,-2.0441055297851562,0.007168486714363098,-0.0075562940910458565,-0.0009198136976920068,-0.12985675036907196,-0.001289653591811657,-9.763566970825195,0.01269553228678915,-0.0030598384540520746,-3.000289065901703,2.557987921917432,1.7227021027216878,0.4650701326219611,9.531335424054813,0,7.13,159.03409595205287,100,0.17,0.009,0.232
1,28,1744980231.19506,9.333333333333334,0.0,-5.0,-0.06065387278795242,-0.004799536429345608,-2.0434799194335938,0.011737203225493431,-0.005616321694105864,-0.0008521509589627385,-0.017132408916950226,-0.026662159711122513,-9.881097793579102,0.012275826758459122,-0.003748503337169037,-3.000263294707214,3.1683380445389506,1.9615703994413791,0.4644916005460701,9.84825008065457,0,7.13,168.88234603270743,100,0.17,0.009,0.232
1,29,1744980231.5002685,9.666666666666668,0.0,-5.0,-0.05907922238111496,-0.006821314338594675,-2.0424652099609375,0.01770949922502041,-0.005469238385558128,0.0015906923217698932,-0.04584115371108055,-0.05657446011900902,-9.957977294921875,0.010942724354951,-0.0035087942451686896,-3.000039024046544,3.4696176901834797,1.8634616409769236,0.5613916763464063,10.165490232298222,0,7.13,179.04783626500566,100,0.17,0.009,0.232
1,30,1744980231.8065846,10.0,0.0,-5.0,-0.05701691284775734,-0.009706821292638779,-2.041717529296875,0.016289878636598587,-0.006137091666460037,-0.00124297384172678,-0.0030724406242370605,-0.07559457421302795,-9.81755256652832,0.010834937386202859,-0.004295561407369473,-3.0002556895293067,3.1366037477608044,2.0380446159111387,0.4167361583771889,10.483087263976907,0,7.13,189.53092352898256,100,0.17,0.009,0.232
1,31,1744980232.1137488,9.666666666666666,0.0,-5.0,-0.05463951453566551,-0.013837277889251709,-2.04156494140625,0.012718193233013153,-0.008806557394564152,-0.0017119166441261768,-0.026477664709091187,0.04679160565137863,-9.870706558227539,0.011531988158844708,-0.0053317219038720946,-3.0004976964428427,2.788693955429645,1.6545181715488892,0.5122101189673643,10.161511862654034,0,7.13,199.6924353916366,100,0.17,0.009,0.232
1,32,1744980232.4214845,9.333333333333334,0.0,-5.0,-0.050017014145851135,-0.01798582449555397,-2.0410079956054688,0.01527581736445427,-0.0067753479816019535,0.0008351795258931816,-0.1212928295135498,0.03973665088415146,-9.7699556350708,0.010537531345050855,-0.0065297588104975615,-3.0002094334896445,2.9862633531855964,1.5424432529743217,0.5947917413405599,9.838862785682668,0,7.13,209.53129817731926,100,0.17,0.009,0.232
1,33,1744980232.727575,9.0,0.0,-5.0,-0.043951209634542465,-0.021095242351293564,-2.0401077270507812,0.01602228917181492,-0.004165948834270239,-0.0007996147032827139,-0.04284141585230827,0.02424638345837593,-9.85727310180664,0.009283723593135196,-0.006855550210399493,-3.000246847946102,3.326291251914548,1.6037124979033588,0.4819053639737954,9.51601075866166,0,7.13,219.0473089359809,100,0.17,0.009,0.232
1,34,1744980233.0334404,8.666666666666666,0.0,-5.0,-0.0380067378282547,-0.02099115401506424,-2.040130615234375,0.013579273596405983,0.007458365522325039,0.0009890289511531591,-0.05604920908808708,-0.0218513160943985,-9.794722557067871,0.008093300108806862,-0.005550911179017575,-3.000315303490303,3.4584870504855276,2.4892934056232052,0.5778128463941757,9.194161543193644,0,7.13,228.24147047917455,100,0.17,0.009,0.232
1,35,1744980233.3375437,8.333333333333334,0.0,-5.0,-0.033720556646585464,-0.020199300721287727,-2.0401535034179688,0.0025328726042062044,0.007598529569804668,-0.004128239117562771,-0.11521317064762115,0.01081504113972187,-9.805235862731934,0.008643454288794606,-0.00492972471371584,-3.000128558522974,2.7066315350279577,1.803156248505927,0.40870714085112647,8.875172679610614,0,7.13,237.11664315878517,100,0.17,0.009,0.232
1,36,1744980233.642241,8.0,0.0,-5.0,-0.031730569899082184,-0.01902204565703869,-2.0407943725585938,-0.004681399092078209,0.0069489674642682076,-0.0014765734085813165,-0.040852706879377365,-0.05071458965539932,-9.8074312210083,0.009573548664088057,-0.005001206401308891,-3.000363435508611,2.585446437206387,2.0448243585333223,0.4962659598326187,8.55955347732306,0,7.13,245.67619663610822,100,0.17,0.009,0.232
1,37,1744980233.9467564,7.666666666666666,0.0,-5.0,-0.03170104697346687,-0.016494818031787872,-2.041839599609375,-0.012075859121978283,0.009235451929271221,-0.000980955664999783,-0.006560716778039932,-0.0021575111895799637,-9.882575035095215,0.010500448693192421,-0.0039465017213329645,-3.0004807896262866,2.537221605159174,1.984612170466875,0.5477168347885115,8.24717227223234,0,7.13,253.92336890834056,100,0.17,0.009,0.232
1,38,1744980234.251457,7.333333333333334,0.0,-5.0,-0.031655628234148026,-0.013503237627446651,-2.0438003540039062,-0.0077384477481245995,0.011334804818034172,-0.0019865897484123707,-0.14614014327526093,0.010601824149489403,-9.809382438659668,0.009952682481997344,-0.0032022936371554154,-3.0002694978945135,3.290949762324876,2.2342304274048903,0.4734075468883028,7.936142708421057,0,7.13,261.8595116167616,100,0.17,0.009,0.232
1,39,1744980234.5584946,7.0,0.0,-5.0,-0.030173901468515396,-0.008996889926493168,-2.0466842651367188,-0.00416847737506032,0.014066344127058983,-0.002006005961447954,-0.0414685495197773,-0.08348003029823303,-9.793742179870605,0.008454135014995064,-0.0023335312297532835,-3.0001152565392872,3.456383141218024,2.4503259587947794,0.5256210634806481,7.625319656165795,0,7.13,269.4848312729274,100,0.17,0.009,0.232
1,40,1744980234.863231,6.666666666666667,0.0,-5.0,-0.030292872339487076,-0.002980731660500169,-2.0494842529296875,-0.004187594633549452,0.012108031660318375,0.0003249895526096225,-0.09462013840675354,0.012987323105335236,-9.810372352600098,0.008261167368704254,-0.0013202009036176704,-3.0000632874506836,3.486405623230574,2.087185153549878,0.4390400654061818,7.318115817992814,0,7.13,276.8029470909202,100,0.17,0.009,0.232
1,41,1744980235.1696165,6.333333333333334,0.0,-5.0,-0.03117826022207737,0.0017723083728924394,-2.0510330200195312,-0.006969280540943146,0.007432924117892981,0.006404139567166567,-0.11189992725849152,-0.030715253204107285,-9.73780632019043,0.008644808959465103,-0.001062312204900579,-3.0002136939716775,3.144399705508484,2.2865906448775757,0.5613578277708274,7.014514752610713,0,7.13,283.8174618435309,100,0.17,0.009,0.232
1,42,1744980237.5133393,6.0,0.0,-5.0,-0.061698779463768005,-0.0076182810589671135,-2.0526275634765625,0.005912806373089552,-0.005478241480886936,0.008926288224756718,-0.062497805804014206,0.0014824159443378448,-9.747617721557617,0.013183765901029133,-0.0032557824918576033,-3.0004306810029022,2.807774314861337,2.4789628024214716,0.5420061514048142,6.740271093267461,0,7.13,290.55773293679835,100,0.17,0.009,0.232
1,43,1744980237.817825,5.666666666666666,0.0,-5.0,-0.06035633012652397,-0.012782749719917774,-2.0520477294921875,0.011775519698858261,-0.005516304634511471,0.009896454401314259,-0.021282978355884552,-0.08049803227186203,-9.758853912353516,0.012118606284269005,-0.004133403453554958,-3.0007570760037274,3.1666919733042893,2.409781219216046,0.5784196219452766,6.441224914073458,0,7.13,296.9989578508718,100,0.17,0.009,0.232
1,44,1744980238.1230097,5.333333333333333,0.0,-5.0,-0.05811664089560509,-0.01858649216592312,-2.0511550903320312,0.0167587548494339,-0.004256122279912233,0.009172283113002777,-0.13866089284420013,-0.032964833080768585,-9.803208351135254,0.011181488970967657,-0.005267390900555924,-3.0011364602473694,3.3528565610887173,1.8235514738313159,0.5751077432290616,6.145222907558272,0,7.13,303.1441807584301,100,0.17,0.009,0.232
1,45,1744980238.4311442,5.0,0.0,-5.0,-0.05592017248272896,-0.022919917479157448,-2.0510025024414062,0.01102853287011385,-0.002969613065943122,0.003867817809805274,-0.08941388875246048,-0.05062083899974823,-9.760213851928711,0.011712488480345552,-0.006046139434315339,-3.000852703137223,2.538333217974135,1.6951073704097244,0.43360302067564466,5.853156443641489,0,7.13,308.99733720207155,100,0.17,0.009,0.232
1,46,1744980238.7367096,4.666666666666667,0.0,-5.0,-0.05291053652763367,-0.0261183250695467,-2.0508956909179688,0.0098462775349617,0.0008239785092882812,0.005670704413205385,-0.05175154283642769,0.05850526690483093,-9.731745719909668,0.011764611680156061,-0.006154742738502983,-3.000492684920565,2.5725683968285518,2.100118015499707,0.4852495676509213,5.5652769355767,0,7.13,314.56261413764827,100,0.17,0.009,0.232
1,47,1744980239.0418463,4.333333333333333,0.0,-5.0,-0.04939098283648491,-0.028107378631830215,-2.0493698120117188,0.009659770876169205,0.007802106905728579,0.008672170341014862,-0.01897946000099182,0.008890276774764061,-9.837143898010254,0.010927599247501968,-0.005606355387879851,-3.0002993076561886,2.801526357793055,2.1974606611863208,0.5896511401199096,5.283491361074371,0,7.13,319.84610549872264,100,0.17,0.009,0.232
1,48,1744980239.3490145,4.0,0.0,-5.0,-0.04629397764801979,-0.02820836752653122,-2.0479812622070312,0.004934246651828289,0.011856893077492714,0.005695498548448086,-0.052520811557769775,-0.03447075933218002,-9.79613208770752,0.010943492222366206,-0.0051917408345271854,-2.9998821149915815,2.6105586126450167,2.151196231033095,0.5057969324071345,5.008762850627882,0,7.13,324.8548683493505,100,0.17,0.009,0.232
1,49,1744980239.653773,3.666666666666667,0.0,-5.0,-0.0438590869307518,-0.02821681648492813,-2.047149658203125,0.005852792412042618,0.009977664798498154,0.0023193098604679108,-0.07840744405984879,-0.008131464011967182,-9.781145095825195,0.010623636087104465,-0.005559505691762538,-3.000016100448196,3.251515403270095,1.738206584965641,0.4500233371893022,4.742164347414813,0,7.13,329.5970326967653,100,0.17,0.009,0.232
1,50,1744980239.9590871,3.3333333333333335,0.0,-5.0,-0.041694868355989456,-0.02739732712507248,-2.046661376953125,0.0017665616469457746,0.013563442043960094,0.001083450042642653,0.009663969278335571,-0.03991059213876724,-9.71498966217041,0.010623233608017603,-0.005066060123617676,-2.9999903392903,2.788061798408285,2.2089275641083796,0.5319831243469775,4.484838346932058,0,7.13,334.0818710436974,100,0.17,0.009,0.232
1,51,1744980240.2644634,3.0,0.0,-5.0,-0.040323592722415924,-0.0245859082788229,-2.0453033447265625,-0.0044187824241817,0.0133237699046731,0.0031228563748300076,-0.07352796196937561,-0.0751730427145958,-9.81773853302002,0.01146335107697069,-0.004528224973249667,-3.000180614256254,2.55006182214015,1.5402515193369433,0.5520198195229129,4.239623136557596,0,7.13,338.321494180255,100,0.17,0.009,0.232
1,52,1744980240.569703,2.6666666666666665,0.0,-5.0,-0.03904351219534874,-0.019505437463521957,-2.044189453125,0.0008757975301705301,0.020703468471765518,-0.0003286041028331965,-0.10337663441896439,0.00539749301970005,-9.832836151123047,0.010092855208709665,-0.002839009651525812,-3.0004350411613836,3.381561062453838,2.4191219758528484,0.40684945824127017,4.007251429983605,0,7.13,342.3287456102386,100,0.17,0.009,0.232
1,53,1744980240.8755016,2.3333333333333335,0.0,-5.0,-0.03759832680225372,-0.013164807111024857,-2.04376220703125,-0.0036168498918414116,0.0150154372677207,-0.0007378205191344023,-0.025661664083600044,-0.06398375332355499,-9.855867385864258,0.010163876567652717,-0.0024388115579368633,-3.000450976550928,2.746470005387234,1.5249000463662545,0.4872200057450529,3.789568859086256,0,7.13,346.1183144693249,100,0.17,0.009,0.232
1,54,1744980241.1788874,2.0,0.0,-5.0,-0.038018304854631424,-0.008385876193642616,-2.0430831909179688,-0.0065294853411614895,0.009994377382099628,-0.0013838070444762707,-0.07659409940242767,0.02407943829894066,-9.811020851135254,0.01081668083759737,-0.0023151524069151912,-3.0004066321337706,2.9021074925047294,1.520619014256126,0.5244025916906712,3.591231815084337,0,7.13,349.7095462844092,100,0.17,0.009,0.232
1,55,1744980241.4839559,1.666666666666667,0.0,-5.0,-0.03862281143665314,-0.004085839726030827,-2.0422515869140625,-0.008038380183279514,0.005336471367627382,-0.00033486439497210085,-0.031381331384181976,-0.0671868845820427,-9.887431144714355,0.011170703398985885,-0.0022566679319112703,-3.000274318204016,2.708676924886723,1.7848361593067068,0.5434481575400745,3.4141330632136384,0,7.13,353.12367934762284,100,0.17,0.009,0.232
1,56,1744980241.7884977,1.3333333333333335,0.0,-5.0,-0.0381360724568367,-0.0010838513262569904,-2.0416793823242188,-0.002025715773925185,0.0005948911421000957,-0.002951676258817315,-0.07659545540809631,-0.02571083977818489,-9.8196382522583,0.01046199331829112,-0.0023917742385280863,-2.999957913302201,3.3137231666154285,1.8947646012184904,0.49318269530149084,3.26076530629203,0,7.13,356.3844446539149,100,0.17,0.009,0.232
1,57,1744980242.0932686,1.0,0.0,-5.0,-0.036983512341976166,0.0004694248200394213,-2.04150390625,-0.004304075613617897,-0.004093731287866831,-0.0034348410554230213,-0.033859021961688995,-0.05305187776684761,-9.844547271728516,0.01033982051310175,-0.00292992185977175,-2.9996947218056778,2.797920052336631,1.5128206754247966,0.48493665050770285,3.1349695631636956,0,7.13,359.5194142170786,100,0.17,0.009,0.232
1,58,1744980242.398516,0.6666666666666661,0.0,-5.0,-0.03624889254570007,0.0008720610057935119,-2.04083251953125,-0.000518423446919769,-0.0037715984508395195,-0.0017036745557561517,-0.14009816944599152,-0.09014959633350372,-9.814689636230469,0.009577541764101307,-0.0027804174917629393,-2.9995680867841656,3.395910261392311,2.083391387341609,0.5112579053781134,3.041506735375906,0,7.13,362.56092095245447,100,0.17,0.009,0.232
1,59,1744980242.7019591,0.33333333333333304,0.0,-5.0,-0.03542637825012207,0.0015591912670060992,-2.0402603149414062,-0.0033689767587929964,-0.00461187120527029,-0.004612282384186983,-0.0859079658985138,0.047333844006061554,-9.75185489654541,0.009447986605521444,-0.00278440881575231,-2.9996868271586075,3.0363708360198234,2.2514447869293006,0.4456740490768504,2.9826238715726903,0,7.13,365.54354482402715,100,0.17,0.009,0.232
2,0,1744980244.1025398,0.0,0.0,-5.0,-0.0361160933971405,-0.0029480350203812122,-2.0391082763671875,-0.008128023706376553,-0.008143274113535881,-0.006157753057777882,-0.07602843642234802,-0.06585896760225296,-9.768266677856445,0.010289784967720669,-0.0034970400617277907,-3.0008460547645375,2.891542802942097,1.7921868382297577,0.45691213180260004,2.961113449733063,0,4.14,2.961113449733063,50,0.35,0.196,0.263
2,1,1744980244.4082744,0.3333333333333333,0.0,-5.0,-0.03795243427157402,-0.0076028271578252316,-2.0391616821289062,-0.0054108756594359875,-0.006236680317670107,-0.004534825682640076,-0.10242550820112228,-0.003591928631067276,-9.848355293273926,0.010333374477011568,-0.004259385579703968,-3.0004576666163603,3.4122706830282774,2.134489706563803,0.4950412612023978,2.9840366064746062,0,4.14,5.94515005620767,50,0.35,0.196,0.263
2,2,1744980244.7123601,0.6666666666666666,0.0,-5.0,-0.04073237627744675,-0.013126370497047901,-2.0387191772460938,-0.007432265672832727,-0.004256600048393011,-0.003636016510426998,-0.07751087844371796,-0.01939576491713524,-9.831762313842773,0.010901040359332117,-0.004981746494502211,-3.0000315804316333,2.813915638023408,2.2289866579840707,0.45887178825040875,3.044629668575593,0,4.14,8.989779724783263,50,0.35,0.196,0.263
2,3,1744980245.0167353,1.0,0.0,-5.0,-0.04538493975996971,-0.01892072893679142,-2.0381698608398438,-0.012157733552157879,-0.0052213892340660095,-0.001230583875440061,-0.049021124839782715,-0.08668872714042664,-9.773430824279785,0.013021365522085101,-0.005566719985956743,-2.9999028360045017,2.5168037804321486,2.150676254138532,0.5878410414512776,3.1409593183449425,0,4.14,12.130739043128205,50,0.35,0.196,0.263
2,4,1744980245.3211322,1.3333333333333333,0.0,-5.0,-0.04943646118044853,-0.023410288617014885,-2.0375747680664062,-0.002131567569449544,0.002616389887407422,-0.0025370733346790075,-0.006459340453147888,-0.09414257109165192,-9.795851707458496,0.012012750566698887,-0.004438669978422818,-3.0000356282436,3.4578831831784864,2.490545318289577,0.5120215289233998,3.26933687481569,0,4.14,15.400075917943894,50,0.35,0.196,0.263
2,5,1744980246.6462426,1.6666666666666665,0.0,-5.0,-0.06433984637260437,-0.027328677475452423,-2.0406341552734375,0.001957328524440527,0.009195143356919289,-0.0028532531578093767,-0.0780424028635025,0.03492237627506256,-9.798334121704102,0.01495755649626832,-0.005416181463233853,-3.0005131742801687,2.7054721823721843,1.6083526365697345,0.5482304438494732,3.428553136197701,0,4.14,18.828629054141594,50,0.35,0.196,0.263
2,6,1744980246.9515922,2.0,0.0,-5.0,-0.06393243372440338,-0.024336591362953186,-2.0413818359375,0.01092513743788004,0.016343751922249794,-0.0025867894291877747,-0.05013347417116165,0.01068156212568283,-9.833847999572754,0.013374923035875334,-0.004136655000373039,-3.0002518649553203,2.9832896826522135,2.363090733671193,0.4315190045043427,3.60746875265459,0,4.14,22.436097806796184,50,0.35,0.196,0.263
2,7,1744980247.2555752,2.3333333333333335,0.0,-5.0,-0.06189592182636261,-0.019201457500457764,-2.0421218872070312,0.0152824018150568,0.01955418847501278,-0.0017214035615324974,-0.04381777346134186,0.024656087160110474,-9.791942596435547,0.012158075773781574,-0.0027053665899109953,-2.9998777720728693,3.0207306636361784,2.3049304349716815,0.5496313746689923,3.806118076319061,0,4.14,26.242215883115243,50,0.35,0.196,0.263
2,8,1744980247.5598698,2.6666666666666665,0.0,-5.0,-0.05832322686910629,-0.013027453795075417,-2.0427017211914062,0.017374372109770775,0.016652986407279968,-0.0008849790319800377,-0.15208393335342407,-0.13656669855117798,-9.77574634552002,0.010916079227019322,-0.002353667482334049,-2.999667524054391,3.180885595733069,2.1272314157588186,0.5476770840535317,4.021362050881362,0,4.14,30.263577933996604,50,0.35,0.196,0.263
2,9,1744980247.8649454,3.0,0.0,-5.0,-0.05305738374590874,-0.005384888034313917,-2.0430221557617188,0.022410934790968895,0.015000552870333195,0.0011984682641923428,-0.13395659625530243,0.02799537405371666,-9.87373161315918,0.009428348391750906,-0.0015926354015065882,-2.9995883593371104,3.482262251092906,2.2410296988111966,0.56327369134503,4.2502830913694005,0,4.14,34.513861025366005,50,0.35,0.196,0.263
2,10,1744980248.1690814,3.333333333333333,0.0,-5.0,-0.04684597626328468,0.0026626507751643658,-2.0440139770507812,0.01975594088435173,0.012329714372754097,-0.0022579138167202473,-0.1529916524887085,-0.06951552629470825,-9.725515365600586,0.008160802560882939,-0.0005098090492672321,-2.999711399419264,3.3403390902168977,2.3999854794712694,0.47060087134475476,4.490375554739866,0,4.14,39.00423658010587,50,0.35,0.196,0.263
2,11,1744980248.4742088,3.6666666666666665,0.0,-5.0,-0.03975195437669754,0.00911862961947918,-2.0447921752929688,0.018762709572911263,0.008196716196835041,0.001091581303626299,-0.056676559150218964,0.010205337777733803,-9.844003677368164,0.007166238712160908,6.530913331445982e-05,-2.999808897762643,3.4926455996588017,2.3382398498093595,0.5347687277773235,4.740345497011035,0,4.14,43.7445820771169,50,0.35,0.196,0.263
2,12,1744980248.778549,4.0,0.0,-5.0,-0.03339236602187157,0.013546864502131939,-2.0452194213867188,0.00614316388964653,-0.0030873301438987255,0.0009458198328502476,-0.03695104271173477,0.08039750158786774,-9.746404647827148,0.0078116808888339115,-0.00025568084186742277,-2.9999927230103927,2.608503373637896,1.6316407614106077,0.4959138122700568,4.999916575661197,0,4.14,48.7444986527781,50,0.35,0.196,0.263
2,13,1744980249.084017,4.333333333333334,0.0,-5.0,-0.028838375583291054,0.014948604628443718,-2.0454788208007812,0.004441284574568272,-0.009366881102323532,0.004534702282398939,-0.1541559398174286,0.007466748356819153,-9.824895858764648,0.0074307468982392905,-0.0012383360773506101,-3.0002456495299246,3.40176499944711,2.0846172428708343,0.541527307612359,5.268582435265644,0,4.14,54.01308108804374,50,0.35,0.196,0.263
2,14,1744980249.389109,4.666666666666667,0.0,-5.0,-0.025290310382843018,0.014492083340883255,-2.0453720092773438,-0.0011146935867145658,-0.0131605826318264,0.004193362779915333,-0.060736022889614105,-7.577240467071533e-05,-9.817850112915039,0.007049823421691329,-0.0017209333739518903,-3.000388469464216,3.261383211256293,2.240322111773863,0.5772268224497968,5.54477202944584,0,4.14,59.55785311748958,50,0.35,0.196,0.263
2,15,1744980249.0880606,5.0,0.0,-5.0,-0.02508414536714554,0.01251117791980505,-2.0454788208007812,-0.007296958938241005,-0.01682838425040245,0.0021424570586532354,-0.15021371841430664,-0.08770515024662018,-9.792866706848145,0.007926301582728747,-0.0023991946109877633,-3.000689100197299,3.3286271298152097,1.7301759668734822,0.576067212388364,5.829307214063258,0,4.14,65.38716033155283,50,0.35,0.196,0.263
2,16,1744980249.3941581,5.333333333333333,0.0,-5.0,-0.026073792949318886,0.008405071683228016,-2.0467071533203125,-0.0072623733431100845,-0.02020549215376377,-0.0012317077489569783,-0.007944241166114807,-0.021215613931417465,-9.794332504272461,0.008388814475317391,-0.0034761829794740925,-3.000407097765119,3.2708270574192686,1.698471040100836,0.4152972800837713,6.11925273450351,0,4.14,71.50641306605634,50,0.35,0.196,0.263
2,17,1744980249.700777,5.666666666666667,0.0,-5.0,-0.027015715837478638,0.0029708934016525745,-2.0480728149414062,-0.01008111983537674,-0.017682336270809174,-0.0010433144634589553,0.0037022531032562256,-0.001962536945939064,-9.851994514465332,0.00869653828563565,-0.00406483597182589,-2.99999390811894,3.1685247669490906,2.210316327387299,0.4244332750377732,6.413415782945438,0,4.14,77.91982884900177,50,0.35,0.196,0.263
2,18,1744980250.0054717,6.0,0.0,-5.0,-0.029559973627328873,-0.004421037621796131,-2.0482406616210938,-0.01117309182882309,-0.017814883962273598,-7.829456444596872e-05,-0.07177473604679108,-0.04778178036212921,-9.77087116241455,0.009774654898831328,-0.005201935531497169,-2.999681355965067,3.3766404913399013,1.7892168234394794,0.4181388360738589,6.713307397464347,0,4.14,84.63313624646612,50,0.35,0.196,0.263
2,19,1744980250.311146,6.333333333333333,0.0,-5.0,-0.03288270905613899,-0.012891453690826893,-2.0479202270507812,-0.0129474475979805,-0.016358301043510437,0.0024058122653514147,-0.08127452433109283,-0.17827652394771576,-9.788644790649414,0.010055185492713177,-0.006276680203289194,-2.999395026025793,3.2333275658280054,1.8250873234481113,0.4907734615421804,7.01738183896325,0,4.14,91.65051808542937,50,0.35,0.196,0.263
2,20,1744980250.614531,6.666666666666666,0.0,-5.0,-0.03897394239902496,-0.02082071267068386,-2.0472869873046875,-0.017795264720916748,-0.01315709762275219,0.0034427966456860304,-0.1268901526927948,-0.008624257519841194,-9.797743797302246,0.01231334805420301,-0.0071847490806239405,-2.9997764636426254,2.772127102700046,1.5220123876436045,0.5030943704008919,7.326975065834961,0,4.14,98.97749315126433,50,0.35,0.196,0.263
2,21,1744980250.919774,7.0,0.0,-5.0,-0.04583204165101051,-0.02576463669538498,-2.04656982421875,-0.018295420333743095,-0.0013121432857587934,0.004586596041917801,-0.06948010623455048,-0.058708399534225464,-9.769646644592285,0.01365378217904855,-0.006364594708933124,-3.000550815005772,2.861919240085756,2.4536770372796286,0.48535697091464036,7.639840494334639,0,4.14,106.61733364559896,50,0.35,0.196,0.263
2,22,1744980251.2232456,7.333333333333334,0.0,-5.0,-0.052593082189559937,-0.027796350419521332,-2.0456085205078125,-0.01614461839199066,0.008143323473632336,0.003920620772987604,-0.033429428935050964,0.01026982069015503,-9.817907333374023,0.014741396124543511,-0.004867831927623523,-3.000829086638353,2.541722882115192,2.4126742534688206,0.5663658357642009,7.954942530698229,0,4.14,114.5722761762972,50,0.35,0.196,0.263
2,23,1744980251.526775,7.666666666666666,0.0,-5.0,-0.05686550959944725,-0.02815079316496849,-2.0449447631835938,-0.0035385838709771633,0.010538949631154537,0.0019661327823996544,-0.10288628190755844,-0.019614486023783684,-9.769959449768066,0.013678702935979751,-0.004966527151030262,-3.0008357768842555,3.3450236594550726,1.8632686313689568,0.47147409558805164,8.269588453944358,0,4.14,122.84186463024156,50,0.35,0.196,0.263
2,24,1744980251.8318634,8.0,0.0,-5.0,-0.05918705463409424,-0.028149625286459923,-2.0446319580078125,0.004200716037303209,0.012534230016171932,0.0009627906256355345,-0.18792316317558289,-0.08447837829589844,-9.791200637817383,0.012734238620992875,-0.00492113674320323,-3.0004681198752152,3.2925602140668166,2.162756014661271,0.540898248383082,8.584025200721062,0,4.14,131.42588983096263,50,0.35,0.196,0.263
2,25,1744980252.1363688,8.333333333333332,0.0,-5.0,-0.05959351733326912,-0.025969209149479866,-2.0447616577148438,0.00988973118364811,0.018182046711444855,-0.0007285730680450797,-0.08501504361629486,-0.04149065911769867,-9.720524787902832,0.012020591825482898,-0.004216199933538269,-3.00011645960392,3.0867994358236017,2.3880767691346376,0.4383288529286363,8.898051987945259,0,4.14,140.32394181890788,50,0.35,0.196,0.263
2,26,1744980252.441438,8.666666666666666,0.0,-5.0,-0.0598653182387352,-0.021408742293715477,-2.0440750122070312,0.006110272835940123,0.0208986084908247,0.002337532350793481,-0.005248427391052246,-0.06815710663795471,-9.846948623657227,0.0123221295205275,-0.0027041632035413395,-2.9998308126937525,2.6520573519827177,2.2640843020973547,0.5507027701773622,9.213593834724996,0,4.14,149.5375356536329,50,0.35,0.196,0.263
2,27,1744980252.745103,9.0,0.0,-5.0,-0.06008844077587128,-0.01569247990846634,-2.043182373046875,0.011183957569301128,0.021971028298139572,0.0011274977587163448,-0.09976264834403992,-0.06793729960918427,-9.809830665588379,0.011587518508250272,-0.0014181175945654682,-2.999507563033819,3.413297151693388,2.445585880544909,0.46460904234346095,9.530384005257446,0,4.14,159.06791965889033,50,0.35,0.196,0.263
2,28,1744980253.0498037,9.333333333333334,0.0,-5.0,-0.05930982902646065,-0.010600456036627293,-2.0429611206054688,0.012301644310355186,0.013355149887502193,-0.002592433011159301,-0.03860136866569519,-0.0800243392586708,-9.776660919189453,0.011417496321908346,-0.002068869991714729,-2.9995752347573865,3.099709481384389,1.578834393463774,0.43868322590394443,9.847128357005571,0,4.14,168.9150480158959,50,0.35,0.196,0.263
2,29,1744980253.3545663,9.666666666666668,0.0,-5.0,-0.05675429105758667,-0.005924140103161335,-2.0436477661132812,0.016051175072789192,0.010325822047889233,-0.004170059692114592,-0.01473449170589447,-0.06865770369768143,-9.7843656539917,0.010540628629453161,-0.0016330369400514913,-2.999878294027257,3.3294238392786832,1.8959747281942785,0.40349585467208804,10.16292127035107,0,4.14,179.07796928624697,50,0.35,0.196,0.263
2,30,1744980254.6756656,10.0,0.0,-5.0,-0.03197687491774559,0.006510427687317133,-2.0416336059570312,0.006132723763585091,-0.005594356916844845,0.00012775303912349045,-0.03890489414334297,-0.04722444713115692,-9.766006469726562,0.007519366179078033,-0.0017962324323989023,-3.0006757949843452,3.3156213397493044,2.408995582379053,0.5025525479984887,10.459088589640873,0,4.14,189.53705787588785,50,0.35,0.196,0.263
2,31,1744980254.9812777,9.666666666666666,0.0,-5.0,-0.027790671214461327,0.005571004468947649,-2.0417861938476562,-0.003011831548064947,-0.011845827102661133,-0.0036455653607845306,-0.09804123640060425,-0.006108494475483894,-9.874003410339355,0.007903098209398992,-0.0029344461231926096,-2.9999085480680323,2.69995112443052,2.1092014234139884,0.40665570608080603,10.135756658237131,0,4.14,199.672814534125,50,0.35,0.196,0.263
2,32,1744980255.2869258,9.333333333333334,0.0,-5.0,-0.026148397475481033,0.003130466677248478,-2.0423126220703125,-0.00839214213192463,-0.010958458296954632,-0.0004799904127139598,-0.016238447278738022,-0.01787189021706581,-9.801451683044434,0.008661846808744983,-0.003018010958422233,-2.9994467373991065,2.9173915641797064,2.4247557902867998,0.5540615171956038,9.815692675238472,0,4.14,209.48850720936346,50,0.35,0.196,0.263
2,33,1744980255.5919173,9.0,0.0,-5.0,-0.026077838614583015,0.00032797077437862754,-2.0422439575195312,-0.017413821071386337,-0.012768537737429142,-0.00314886262640357,-0.0144457146525383,0.012576024979352951,-9.809428215026855,0.009982684513526895,-0.0033739141556750553,-2.999226691307521,2.511762328293292,2.1896148131685083,0.4232937091098845,9.498336805100347,0,4.14,218.9868440144638,50,0.35,0.196,0.263
2,34,1744980255.8960521,8.666666666666666,0.0,-5.0,-0.02718191221356392,-0.002997121773660183,-2.0425186157226562,-0.017985360696911812,-0.0106890257447958,-0.000750370672903955,-0.08282402157783508,-0.07741820067167282,-9.819374084472656,0.010314771020211664,-0.0038202206626114163,-2.9992252664726045,2.8890987171847007,1.9651760477977838,0.5456646140522796,9.183120833005725,0,4.14,228.16996484746952,50,0.35,0.196,0.263
2,35,1744980256.2003968,8.333333333333334,0.0,-5.0,-0.031121917068958282,-0.00626548333093524,-2.0421905517578125,-0.021313274279236794,-0.01152950432151556,0.0007365121273323894,-0.09938216954469681,-0.011903339065611362,-9.792693138122559,0.011559288928553155,-0.004148911890529329,-3.000138392207955,2.5594636880867383,1.5123727685652721,0.5382911954603484,8.872022747061383,0,4.14,237.0419875945309,50,0.35,0.196,0.263
2,36,1744980256.505236,8.0,0.0,-5.0,-0.03675190731883049,-0.009420228190720081,-2.0419540405273438,-0.020227722823619843,-0.008460159413516521,-0.0006513759726658463,-0.058435916900634766,-0.009858233854174614,-9.789149284362793,0.01246998666258464,-0.0041724550710608,-3.000861062434518,2.9103448277213304,2.235878795531583,0.4973152563906642,8.563848776037824,0,4.14,245.6058363705687,50,0.35,0.196,0.263
2,37,1744980256.8094745,7.666666666666666,0.0,-5.0,-0.042704008519649506,-0.012321705929934978,-2.0424118041992188,-0.012608478777110577,-0.005779355298727751,-0.002623633248731494,-0.10474658012390137,0.04485293850302696,-9.81813907623291,0.012057228081291083,-0.0043212326309792735,-3.0011931902090896,3.4195052874515137,1.9865952020226838,0.44056490186901887,8.25723173756192,0,4.14,253.86306810813062,50,0.35,0.196,0.263
2,38,1744980258.130374,7.333333333333334,0.0,-5.0,-0.062479548156261444,-0.01590198278427124,-2.0421981811523438,0.0044351257383823395,0.007021800149232149,0.002408811589702964,-0.1168787032365799,-0.06801208853721619,-9.812432289123535,0.013381700465011796,-0.003061555612068385,-2.999729288778742,3.1288642488133744,2.2011568765567686,0.5533365243843821,7.965355776777482,0,4.14,261.8284238849081,50,0.35,0.196,0.263
2,39,1744980258.4362183,7.0,0.0,-5.0,-0.06153875216841698,-0.01605561375617981,-2.0425186157226562,0.012932462617754936,0.006104666274040937,-0.0002960823767352849,-0.09570810943841934,0.0014004409313201904,-9.89719009399414,0.012055418831164628,-0.0031680349656182556,-2.999943839956494,3.059410750705629,2.17583480879947,0.4813810235222938,7.655865951638416,0,4.14,269.4842898365465,50,0.35,0.196,0.263
2,40,1744980258.741712,6.666666666666667,0.0,-5.0,-0.06004256382584572,-0.01597229763865471,-2.0433883666992188,0.009463264606893063,0.0077009922824800014,-0.0009817562531679869,-0.01961144059896469,-0.07585632801055908,-9.749653816223145,0.012174922489097892,-0.003301657136134019,-3.0003670659646904,2.673102022149281,2.250275776787289,0.5696527249875161,7.347817671666503,0,4.14,276.832107508213,50,0.35,0.196,0.263
2,41,1744980259.04722,6.333333333333334,0.0,-5.0,-0.058153972029685974,-0.013295034877955914,-2.0439529418945312,0.01422911137342453,0.00838090293109417,0.0010487936669960618,-0.12017305940389633,-0.04513855651021004,-9.891159057617188,0.01134329038844472,-0.002497887607070852,-3.0004257225509474,3.3839142038088426,2.1775301570223387,0.5174472362306832,7.041981322206346,0,4.14,283.8740888304194,50,0.35,0.196,0.263
2,42,1744980259.3524637,6.0,0.0,-5.0,-0.054486796259880066,-0.010916301049292088,-2.0449905395507812,0.017271434888243675,0.006197370123118162,-0.0008637641440145671,-0.09125809371471405,-0.03787201642990112,-9.828720092773438,0.01017798761752826,-0.0029150572388595493,-3.000179647607518,3.201569628069695,2.0238438561940657,0.46311210672401915,6.737136665012682,0,4.14,290.61122549543205,50,0.35,0.196,0.263
2,43,1744980259.657791,5.666666666666666,0.0,-5.0,-0.04907736927270889,-0.008229918777942657,-2.045623779296875,0.017813118174672127,0.0031004277989268303,0.004109666217118502,-0.12920311093330383,-0.09782417118549347,-9.84264087677002,0.009066604249621153,-0.0029262817667576276,-3.0002957253772955,3.118918587434249,1.8895038128866921,0.5774144804560931,6.434138362624456,0,4.14,297.04536385805653,50,0.35,0.196,0.263
2,44,1744980259.9612358,5.333333333333333,0.0,-5.0,-0.04374914988875389,-0.005897316616028547,-2.0451889038085938,0.01075591892004013,0.004002430941909552,0.0058871908113360405,0.010196845978498459,-0.00539073720574379,-9.865657806396484,0.009094729689436388,-0.002701023649771484,-3.0002540272117972,2.771274222560016,2.4897415408039696,0.594548916199947,6.1354673354108025,0,4.14,303.1808311934673,50,0.35,0.196,0.263
2,45,1744980260.2676885,5.0,0.0,-5.0,-0.038773003965616226,-0.004040918312966824,-2.0461578369140625,0.011350108310580254,0.0010346109047532082,0.004007498733699322,-0.16371944546699524,0.038668930530548096,-9.843646049499512,0.008075833269627696,-0.0025907367187974276,-3.0002044106513046,3.480667617571816,1.9414977412400753,0.5557049396580119,5.840756221495441,0,4.14,309.02158741496277,50,0.35,0.196,0.263
2,46,1744980260.57424,4.666666666666667,0.0,-5.0,-0.03560817241668701,-0.003662430914118886,-2.047760009765625,-5.3845185902900994e-05,-0.0023053218610584736,0.0015439605340361595,-0.06435902416706085,-0.0587039589881897,-9.821550369262695,0.009110316231251518,-0.002735938376719215,-3.0003410305373532,2.7778198674800496,2.2574635818943847,0.5097019591632871,5.552217848357145,0,4.14,314.5738052633199,50,0.35,0.196,0.263
2,47,1744980260.8810456,4.333333333333333,0.0,-5.0,-0.03455854579806328,-0.004289930686354637,-2.0501785278320312,-0.005148416385054588,-0.007948249578475952,0.0005024425336159766,-0.023446526378393173,0.009103268384933472,-9.838126182556152,0.010134261871104708,-0.003956009122647947,-3.000371312565481,2.645321893976713,1.5542790997293003,0.4589993208630162,5.270668324695692,0,4.14,319.8444735880156,50,0.35,0.196,0.263
2,48,1744980261.1871085,4.0,0.0,-5.0,-0.03340219333767891,-0.0035494950134307146,-2.0518569946289062,-0.00714829470962286,-0.004497435875236988,0.0027401030529290438,-0.14264121651649475,-0.022419122979044914,-9.828200340270996,0.00992961262242521,-0.003251548514033081,-3.0003791607366646,3.0673711661611254,2.1787964131937105,0.5240676154803865,4.995987693365002,0,4.14,324.8404612813806,50,0.35,0.196,0.263
2,49,1744980261.4940207,3.666666666666667,0.0,-5.0,-0.032788779586553574,-0.0021995699498802423,-2.0530929565429688,-0.01000204123556614,-0.00645144097507,0.004940110724419355,-0.0368976816534996,-0.011714971624314785,-9.843527793884277,0.01029007648579352,-0.003218041332386421,-3.000258087086957,2.778002355595819,1.5501073952059896,0.4482282743779825,4.729718444019395,0,4.14,329.5701797254,50,0.35,0.196,0.263
2,50,1744980261.801301,3.3333333333333335,0.0,-5.0,-0.03239516168832779,-0.0010759630240499973,-2.054229736328125,-0.008977755904197693,-0.0053108767606318,0.005859266966581345,-0.05547071248292923,-0.06891874223947525,-9.783885955810547,0.010226145957871283,-0.002900915212297118,-3.000169359830249,2.844287102816591,2.1421654817847298,0.4485720162063531,4.472772284191391,0,4.14,334.0429520095914,50,0.35,0.196,0.263
2,51,1744980262.111384,3.0,0.0,-5.0,-0.03257199004292488,0.00018376405932940543,-2.0551834106445312,-0.012844886630773544,-0.005728566087782383,0.008008240722119808,-0.05410740524530411,0.00749988853931427,-9.782414436340332,0.010372716790779633,-0.002653546315320511,-3.000175108181368,2.5861510576627675,2.2555983760873204,0.44300946698864,4.227107480713651,0,4.14,338.270059490305,50,0.35,0.196,0.263
2,52,1744980262.4178421,2.6666666666666665,0.0,-5.0,-0.035039033740758896,0.0011998602421954274,-2.0554122924804688,-0.00996190495789051,-0.003460151143372059,0.010842641815543175,-0.06213132292032242,0.014003444463014603,-9.75502872467041,0.010464451503975857,-0.0022440214145825533,-3.0001169616263135,3.2018257845849036,2.400549551307631,0.47080702609262165,3.9962247057133444,0,4.14,342.2662841960184,50,0.35,0.196,0.263
2,53,1744980262.7221897,2.3333333333333335,0.0,-5.0,-0.038229912519454956,0.0015763898845762014,-2.0555496215820312,-0.015658428892493248,-0.005682626273483038,0.009716709144413471,-0.1143239364027977,0.027299799025058746,-9.747369766235352,0.01159847357538367,-0.0022230353480911886,-3.0002034717384314,2.523151554709227,2.182094133290994,0.4476136411053193,3.7807542561042764,0,4.14,346.04703845212265,50,0.35,0.196,0.263
2,54,1744980263.027299,2.0,0.0,-5.0,-0.041920214891433716,0.0005674803396686912,-2.0556869506835938,-0.009237593039870262,-0.00791082065552473,0.011316929943859577,-0.07485752552747726,-0.06652802228927612,-9.783635139465332,0.01166538615014168,-0.0026105747874755683,-3.0004047094506,3.2862870522621828,1.7966036776768766,0.5274865846279571,3.5830737947174756,0,4.14,349.6301122468401,50,0.35,0.196,0.263
2,55,1744980263.3372183,1.666666666666667,0.0,-5.0,-0.04540523886680603,-0.000762527750339359,-2.0559768676757812,-0.006970941089093685,-0.008543448522686958,0.008974974043667316,-0.08516529202461243,-0.05978549271821976,-9.849950790405273,0.01174313057100583,-0.0028180270399156848,-3.0003999756659825,2.924309570415303,2.1468952483738235,0.42650526702438446,3.4056516255814673,0,4.14,353.03576387242157,50,0.35,0.196,0.263
2,56,1744980263.6430883,1.3333333333333335,0.0,-5.0,-0.04947683587670326,-0.00333739398047328,-2.0562210083007812,-0.00841604731976986,-0.006873289123177528,0.009971270337700844,-0.07593253999948502,-0.08897125720977783,-9.725970268249512,0.01265182702326328,-0.0029284913333197013,-3.000427868118248,2.627902327021501,2.4080450743035886,0.5452140599035384,3.252385256121873,0,4.14,356.28814912854347,50,0.35,0.196,0.263
2,57,1744980263.9520082,1.0,0.0,-5.0,-0.053143396973609924,-0.00660089822486043,-2.0554428100585938,-0.004937733989208937,-0.009518641047179699,0.012621782720088959,-0.02035340666770935,0.013598669320344925,-9.818171501159668,0.013165254652448118,-0.003682584556300826,-3.0003501160816084,2.9434608319820876,1.9034421092907903,0.543301413434438,3.12723066486662,0,4.14,359.41537979341007,50,0.35,0.196,0.263
2,58,1744980264.2575893,0.6666666666666661,0.0,-5.0,-0.05509946122765541,-0.010336985811591148,-2.0540924072265625,0.0016403637127950788,-0.0058203269727528095,0.010704884305596352,-0.10620854049921036,-0.08880963176488876,-9.805712699890137,0.012815735203515624,-0.004236267684153548,-3.0004562029391093,3.0967758864780395,2.4694707022182287,0.47754668699749875,3.0330553476340354,0,4.14,362.4484351410441,50,0.35,0.196,0.263
2,59,1744980264.562471,0.33333333333333304,0.0,-5.0,-0.05561024323105812,-0.013735579326748848,-2.0524826049804688,0.0035862985532730818,-0.007084511686116457,0.006689848378300667,-0.0395883210003376,0.0035073794424533844,-9.808621406555176,0.012489800076423191,-0.004813288701817292,-3.0006302489493333,2.6928348745017394,1.760774705525872,0.4121644998631591,2.9731001607468364,0,4.14,365.4215353017909,50,0.35,0.196,0.263
3,0,1744980291.7665021,0.0,0.0,-5.0,-0.06273677200078964,-0.003110828110948205,-4.8268585205078125,0.042489226907491684,-0.00016400263120885938,-0.5814182758331299,-0.028008103370666504,0.03346777334809303,-8.601715087890625,0.017125915507730113,-0.0037042748268981316,-2.999609608660513,2.9418725683457296,2.433334855726493,0.5084466276058417,0.18418347301904836,0,8.2,0.18418347301904836,100,0.26,0.114,0.241
3,1,1744980292.072417,0.3333333333333333,0.0,-5.0,-0.052656445652246475,-0.0033900951966643333,-5.023590087890625,0.051264986395835876,-0.0002783230156637728,-0.2884645164012909,-0.07044798135757446,-0.03751157969236374,-8.802196502685547,0.014046529760829266,-0.0035591412046651174,-2.9996240844344415,3.431727210580626,1.9804910209933926,0.4470043206401417,0.38672483043304395,0,8.2,0.5709083034520923,100,0.26,0.114,0.241
3,2,1744980293.4729826,0.6666666666666666,0.0,-5.0,0.339915931224823,0.01952727884054184,-5.1170806884765625,0.5282046794891357,0.005439262371510267,0.22105708718299866,-0.09759928286075592,-0.06382471323013306,-9.869869232177734,0.004267606677354886,-0.0001658193915723059,-2.9947697133271287,3.037017300529447,1.9855891959835565,0.4176834830099804,0.34764241016430636,0,8.2,0.9185507136163986,100,0.26,0.114,0.241
3,3,1744980294.1289814,1.0,0.0,-5.0,0.7107694149017334,0.039618346840143204,-5.000938415527344,0.5645712614059448,-0.009764723479747772,0.13415025174617767,-0.04829222708940506,-0.020260673016309738,-9.980978012084961,-0.014031477226708437,-0.0014615228429349487,-2.989213113573636,3.4196983597757287,1.8549457463993884,0.5513396448162582,0.2919329124753382,0,8.2,1.2104836260917369,100,0.26,0.114,0.241
3,4,1744980295.4545343,1.3333333333333333,0.0,-5.0,1.2956606149673462,0.02264198288321495,-4.709953308105469,0.19296272099018097,-0.05565282329916954,0.5766345858573914,-0.02748142182826996,-0.04324432834982872,-9.234917640686035,0.001150412642655629,0.0005351570248214034,-2.982637285676989,2.5207866380925528,2.2487489937721445,0.5295449418059999,0.29335810296790493,0,8.2,1.5038417290596418,100,0.26,0.114,0.241
3,5,1744980295.763951,1.6666666666666665,0.0,-5.0,1.363028883934021,-0.00015066517516970634,-4.538856506347656,0.16916218400001526,-0.07492583245038986,0.692340075969696,-0.04293281212449074,0.01005537062883377,-9.524615287780762,0.00010605795347864256,0.00017272254123746188,-2.9813507742271685,2.9711709692109314,1.700607029079602,0.5763510634361821,0.5521315491263666,0,8.2,2.0559732781860083,100,0.26,0.114,0.241
3,6,1744980296.071018,2.0,0.0,-5.0,1.4060593843460083,-0.029723944142460823,-4.339698791503906,0.13039369881153107,-0.09622619301080704,0.7563812136650085,-0.12863999605178833,-0.050621550530195236,-9.677709579467773,-5.465224040089767e-06,0.0001509055549418291,-2.9808748729355137,2.806361557780234,1.506507834692993,0.5556356991052712,0.8886206466880165,0,8.2,2.9445939248740247,100,0.26,0.114,0.241
3,7,1744980296.3758216,2.3333333333333335,0.0,-5.0,1.431010127067566,-0.06639423221349716,-4.1112060546875,0.08761830627918243,-0.11449746787548065,0.7915046811103821,0.0075728073716163635,0.08112792670726776,-9.782148361206055,-0.00010368824699015722,0.00026275833776208976,-2.9807115804887503,2.6850044076820714,1.992173739390339,0.43980453323261803,1.2682862610077876,0,8.2,4.212880185881812,100,0.26,0.114,0.241
3,8,1744980296.679516,2.6666666666666665,0.0,-5.0,1.4397504329681396,-0.10803981870412827,-3.8758392333984375,0.04572172090411186,-0.13560496270656586,0.796714186668396,-0.015267487615346909,-0.008412113413214684,-9.791644096374512,-5.210103517035798e-05,5.677433498173853e-05,-2.9803153375233817,2.6977297773770683,1.6311651480586045,0.48274893231255234,1.6675531404140653,0,8.2,5.8804333262958774,100,0.26,0.114,0.241
3,9,1744980296.9840348,3.0,0.0,-5.0,1.43526029586792,-0.1560848355293274,-3.634307861328125,0.004847029224038124,-0.15679699182510376,0.7889196872711182,-0.04769723862409592,-0.08698181807994843,-9.97657299041748,-0.00015094479977594507,0.000115874102654096,-2.980004691759907,3.053632097111482,1.6296082761380353,0.416986344357126,2.082759668132578,0,8.2,7.963192994428455,100,0.26,0.114,0.241
3,10,1744980297.288645,3.333333333333333,0.0,-5.0,1.4193381071090698,-0.21139965951442719,-3.3842926025390625,-0.032988641411066055,-0.177681103348732,0.7745385766029358,-0.12045878916978836,0.01802699826657772,-9.8622465133667,-0.00011368860893589201,-3.927453635064136e-06,-2.9797905700992087,2.9516940745081826,1.5526755434513637,0.48638510532945434,2.513678168792115,0,8.2,10.47687116322057,100,0.26,0.114,0.241
3,11,1744980297.5931754,3.6666666666666665,0.0,-5.0,1.3962044715881348,-0.26300284266471863,-3.1719512939453125,-0.07053583115339279,-0.19328485429286957,0.7612218856811523,-0.06449519842863083,-0.05485326051712036,-9.897171020507812,-8.769691177370863e-05,1.6190220193100796e-05,-2.979679016795153,2.564581328314078,1.5721083062759962,0.4546189720086352,2.9267612041707065,0,8.2,13.403632367391277,100,0.26,0.114,0.241
3,12,1744980297.8982656,4.0,0.0,-5.0,1.3593910932540894,-0.32596760988235474,-2.9338531494140625,-0.10632386803627014,-0.20668891072273254,0.7451286911964417,-0.09244586527347565,-0.0039009861648082733,-9.901559829711914,-0.00019100417653746565,8.234951964486297e-05,-2.979526679800541,3.010735649649138,2.380893827079653,0.586113252745941,3.3686841777264362,0,8.2,16.77231654511771,100,0.26,0.114,0.241
3,13,1744980298.202516,4.333333333333334,0.0,-5.0,1.310367226600647,-0.39603564143180847,-2.6943740844726562,-0.1447325497865677,-0.2256912887096405,0.7256454229354858,-0.05126034468412399,-0.027358606457710266,-9.882210731506348,-0.00014926945642928502,-4.356925654290549e-06,-2.979235568604598,2.7352330811727916,1.785231486724229,0.44632446698300426,3.8224441361634294,0,8.2,20.59476068128114,100,0.26,0.114,0.241
3,14,1744980298.5083072,4.666666666666667,0.0,-5.0,1.2516459226608276,-0.4695717692375183,-2.467315673828125,-0.1805078238248825,-0.242216095328331,0.7134166359901428,-0.05895746871829033,0.05754201114177704,-9.862629890441895,-0.00013689006170707218,2.6660459767066445e-05,-2.979015010792755,3.0722823217764383,2.0625579113127923,0.5873876726401495,4.277540674791034,0,8.2,24.872301356072175,100,0.26,0.114,0.241
3,15,1744980298.812667,5.0,0.0,-5.0,1.1828422546386719,-0.5476465225219727,-2.2445755004882812,-0.2176576405763626,-0.2599013149738312,0.7038812041282654,-0.0671023577451706,-0.024260137230157852,-9.940797805786133,-0.00010562595069900297,5.589136426618829e-05,-2.9788099719018764,2.665325128666302,1.8619838855524535,0.5800694676770638,4.7395120148715515,0,8.2,29.611813370943725,100,0.26,0.114,0.241
3,16,1744980299.1186972,5.333333333333333,0.0,-5.0,1.101300835609436,-0.6329256892204285,-2.0198822021484375,-0.25728413462638855,-0.2772789001464844,0.6927807927131653,-0.046263422816991806,-0.005288935266435146,-9.897906303405762,-0.0001349075319801016,3.65630036100333e-05,-2.9786578570106417,2.584264450315779,1.8037836061507004,0.41715546312939045,5.21457534981881,0,8.2,34.82638872076254,100,0.26,0.114,0.241
3,17,1744980299.4248097,5.666666666666667,0.0,-5.0,1.014572262763977,-0.719380259513855,-1.806396484375,-0.28036537766456604,-0.28986871242523193,0.6863082051277161,-0.1460937261581421,0.0017973817884922028,-9.842220306396484,-8.208660590081563e-05,4.7229300003434385e-05,-2.978450653906689,3.433354817946707,2.41366705387402,0.595495143050113,5.688461454173115,0,8.2,40.51485017493565,100,0.26,0.114,0.241
3,18,1744980299.7328906,6.0,0.0,-5.0,0.9218260049819946,-0.8101680874824524,-1.5955276489257812,-0.30578047037124634,-0.30643439292907715,0.6838803887367249,-0.0058763399720191956,0.02509237453341484,-9.79970645904541,-9.826137572907683e-05,3.564793763609289e-05,-2.978267058226168,3.2808382014478212,1.9171438884144716,0.4671502676962947,6.167224289976887,0,8.2,46.68207446491254,100,0.26,0.114,0.241
3,19,1744980300.0379753,6.333333333333333,0.0,-5.0,0.8174092769622803,-0.9085583090782166,-1.3810195922851562,-0.3395026624202728,-0.3228421211242676,0.6814276576042175,-0.05315480753779411,0.06919164955615997,-9.750401496887207,-5.758833585673568e-05,6.378204766059541e-05,-2.9781400323671328,2.724410166461193,1.6275244992875895,0.41986294600229485,6.659423067208739,0,8.2,53.34149753212128,100,0.26,0.114,0.241
3,20,1744980300.3446853,6.666666666666666,0.0,-5.0,0.708267331123352,-1.0070343017578125,-1.1745147705078125,-0.3688579201698303,-0.3339900076389313,0.6810562610626221,-0.10295609384775162,-0.035505957901477814,-9.803899765014648,3.380481878365497e-06,-4.505479414604368e-05,-2.977925672967975,2.8640490301035766,2.28654176166741,0.4502466147488735,7.151991189017416,0,8.2,60.4934887211387,100,0.26,0.114,0.241
3,21,1744980300.6494608,7.0,0.0,-5.0,0.5945199728012085,-1.1089513301849365,-0.9689865112304688,-0.3855884075164795,-0.3460216820240021,0.6832757592201233,-0.13813474774360657,0.012989826500415802,-9.790096282958984,-6.0078642055658046e-05,6.093345487312277e-06,-2.9776732130483023,3.4627923281181845,1.9259895082775969,0.5538157172504837,7.649118719055384,0,8.2,68.14260744019408,100,0.26,0.114,0.241
3,22,1744980300.9549415,7.333333333333334,0.0,-5.0,0.4721323847770691,-1.218290090560913,-0.7587509155273438,-0.410053551197052,-0.3626110255718231,0.682941198348999,-0.060151051729917526,-0.019309144467115402,-9.818330764770508,1.8370947520824485e-05,-4.403276750428635e-05,-2.9774521541276937,2.89538018087181,1.805317389404686,0.4617785794259406,8.157726582680278,0,8.2,76.30033402287437,100,0.26,0.114,0.241
