mission_id,time,real_x,real_y,real_z,vx,vy,vz,ax,ay,az,roll,pitch,yaw,wind_x,wind_y,wind_z,velocity,rain,fog,snow,is_attack,ligne_id
0,1.0,1744992589.0601318,0.0,0.0,-5.0,0.0024213138967752,-0.0038590342737734,0.0009638049523346,-0.0579900853335857,-0.0568407177925109,-9.735323905944824,0.0004676469958691,0.0026312812664675,-2.6632646130708557,3.029774510095694,2.3595225265516437,0.4207363547667251,17.65,0.36,0.046,0.144,1.0,0
1,1.0,1744992589.563954,2.0,0.0,-5.0,0.0024253474548459,-0.0002020984975388,0.0014848909340798,-0.0368406400084495,-0.0367648862302303,-9.7839994430542,0.0004366711468712,0.002528812237873,-2.663252660371651,2.633299647755139,2.143973029217728,0.5087611418736864,17.65,0.36,0.046,0.144,1.0,1
2,1.0,1744992591.0668466,4.0,0.0,-5.0,-0.0029047881253063,-0.0006944598862901,0.0015947212232276,-0.0493976213037967,0.0118948798626661,-9.831541061401367,0.0003950278967933,0.0025224312982626,-2.663085726641803,2.6002199477525445,1.9745603415823576,0.5191336415027802,17.65,0.36,0.046,0.144,1.0,2
3,1.0,1744992591.5742683,6.0,0.0,-5.0,0.0003226711123716,-0.003064383752644,-0.0005487648304551,-0.0628687068819999,-0.0972465872764587,-9.798310279846191,0.0004411947558407,0.002522945205105,-2.663127188072527,3.271523494327413,2.2297697324565613,0.4649023677122196,17.65,0.36,0.046,0.144,1.0,3
4,1.0,1744992592.078044,8.0,0.0,-5.0,0.001479611499235,-0.0002644148480612,0.0010387585498392,0.0861744359135627,0.0995806753635406,-9.823530197143556,0.0004537240664656,0.0025272705811875,-2.6631658409330004,3.2154489867267,2.419700010862304,0.4137180939465537,17.65,0.36,0.046,0.144,1.0,4
5,1.0,1744992592.5835197,10.0,0.0,-5.0,-0.001757622230798,0.0007205365691334,0.0015511441743001,0.0677400156855583,0.0168598406016826,-9.885490417480469,0.0003820336059556,0.0024108288399639,-2.6630880610071963,3.3772982616626748,1.93602116832527,0.5807094312116935,17.65,0.36,0.046,0.144,1.0,5
6,1.0,1744992593.088567,12.0,0.0,-5.0,0.0011677894508466,0.0012859366834163,0.0048916176892817,0.0553457699716091,-0.0107456101104617,-9.823891639709473,0.0004902176541949,0.0024281418188315,-2.6630489431216,2.693949869028674,2.3922638788077766,0.5624878765380426,17.65,0.36,0.046,0.144,1.0,6
7,1.0,1744992593.5943274,14.0,0.0,-5.0,0.0008396071498282,-0.0012761891121044,0.0030226467642933,-0.0258689876645803,0.0041181105189025,-9.783088684082031,0.0005367827445956,0.0024453677360171,-2.663002069441841,2.714314045510906,1.7083733040424272,0.4921290594286215,17.65,0.36,0.046,0.144,1.0,7
8,1.0,1744992594.0979605,16.0,0.0,-5.0,0.0030007704626768,-0.0011300867190584,0.0003333188360556,-0.0359167903661727,0.0670890882611274,-9.775635719299316,0.0006252524919141,0.0023953577740322,-2.662969775329677,3.493718523913292,1.5671066584100783,0.5817991891518153,17.65,0.36,0.046,0.144,1.0,8
9,1.0,1744992594.6046028,18.0,0.0,-5.0,0.0042627737857401,-0.0010740767465904,0.0013258785475045,-0.0276166666299104,-0.0047168293967843,-9.835748672485352,0.0006089863806796,0.0024126731791956,-2.662874296558434,3.391680132104775,1.84391015806808,0.5745534910211291,17.65,0.36,0.046,0.144,1.0,9
10,1.0,1744992595.1099148,20.0,0.0,-5.0,0.0035616969689726,-0.0005289583350531,0.0026358431205153,-0.0610406138002872,0.0001121431050705,-9.820630073547363,0.0005920184535385,0.0024119506590379,-2.6628875892967705,2.99618997193583,1.7206202272993338,0.5424243272522702,17.65,0.36,0.046,0.144,1.0,10
11,1.0,1744992595.6133022,18.0,0.0,-5.0,0.0029856024775654,0.0017493019113317,0.0044600614346563,0.0170672759413719,0.0869107618927955,-9.7992582321167,0.0005833956214729,0.0023968124424866,-2.6628232646223906,2.694843226020453,1.860833364081913,0.480494245763796,17.65,0.36,0.046,0.144,1.0,11
12,1.0,1744992596.119412,16.0,0.0,-5.0,0.0006367453024722,0.0014670125674456,0.0046077398583292,-0.0391246676445007,-0.0081676077097654,-9.799386978149414,0.0006474348688533,0.0024199370176083,-2.662796155843002,2.8803647722080297,2.462158599772737,0.4818204574383398,17.65,0.36,0.046,0.144,1.0,12
13,1.0,1744992596.6231568,14.0,0.0,-5.0,0.0015078041469678,0.0022117309272289,0.0035292038228362,-0.0297258216887712,-0.0415158420801162,-9.882543563842772,0.0005662789540011,0.0025089106806113,-2.662697051730789,2.907825713760741,1.661375271393143,0.4645841751691104,17.65,0.36,0.046,0.144,1.0,13
14,1.0,1744992597.128822,12.0,0.0,-5.0,-0.0027758199721574,0.0032225595787167,-0.0003768182941712,0.0467750802636146,-0.0050877085886895,-9.870847702026367,0.0005364570052009,0.002573223103809,-2.662638369675815,3.38281073488913,2.1805959847855605,0.5791330642693772,17.65,0.36,0.046,0.144,1.0,14
15,1.0,1744992597.632254,10.0,0.0,-5.0,-0.0022206981666386,0.0024896883405745,-0.0012334346538409,-0.0616137199103832,-0.0175689328461885,-9.793972969055176,0.0005123429085923,0.0025675847078592,-2.6625095086360755,2.789222273419078,2.158165907477237,0.4737494092047916,17.65,0.36,0.046,0.144,1.0,15
16,1.0,1744992598.1368797,8.0,0.0,-5.0,-0.0007971178274601,0.0009331858600489,0.0004863943322561,-0.0242520980536937,0.0496102459728717,-9.774616241455078,0.0004793825111627,0.0026339926728743,-2.6624344278535195,3.006659793064214,1.5476596360479575,0.5604227545238053,17.65,0.36,0.046,0.144,1.0,16
17,1.0,1744992598.6405752,6.0,0.0,-5.0,-0.0019433689303696,-0.0004724938480649,-0.0007442123605869,0.0697154030203819,-0.0529468953609466,-9.81993293762207,0.0004060119080883,0.0025819806935612,-2.662397966599041,3.0430932358316127,2.113823277113139,0.5405999085509817,17.65,0.36,0.046,0.144,1.0,17
18,1.0,1744992599.1450152,4.0,0.0,-5.0,-0.0021702239755541,-0.0038172549102455,-0.0022257154341787,-0.016587421298027,-0.1009100303053855,-9.78110694885254,0.0004205411007283,0.0026341902754675,-2.662349010255209,3.217747903184925,2.0967706606107983,0.4884804355108589,17.65,0.36,0.046,0.144,1.0,18
19,1.0,1744992599.6501503,2.0,0.0,-5.0,-0.002605106215924,-0.0051271505653858,-0.0032285591587424,0.0045020361430943,-0.0861663967370987,-9.796605110168455,0.000361601771083,0.002558065630209,-2.662344205260569,3.1737076293190145,2.0428241970806544,0.5400201496038982,17.65,0.36,0.046,0.144,1.0,19
20,1.0,1744992600.1561632,0.0,0.0,-5.0,-0.0038970748428255,-0.0040112962014973,-0.0028683303389698,0.0727058053016662,-0.0124071920290589,-9.851924896240234,0.0004228735453568,0.0024639717281876,-2.6622534918545653,2.7144485401298226,1.5935926844459547,0.4085843206867627,17.65,0.36,0.046,0.144,1.0,20
21,2.0,1744992602.1073766,0.0,0.0,-5.0,-0.0020293353591114,0.0003651956212706,-0.0024329819716513,0.0297986213117837,0.0283183082938194,-9.80071258544922,0.00051351035498,0.0023113446311893,-2.662241468740577,3.2988469249160475,2.211576751671127,0.4222602459621146,13.02,0.09,0.118,0.398,1.0,0
22,2.0,1744992602.612288,2.0,0.0,-5.0,-0.0013440594775602,0.0010726479813456,-0.0040647163987159,-0.0522161535918712,-0.0168848261237144,-9.800041198730469,0.0004722467606658,0.0022199542769573,-2.6622347464279645,3.335883840976005,1.9024836931370044,0.5175751461282161,13.02,0.09,0.118,0.398,1.0,1
23,2.0,1744992603.1178856,4.0,0.0,-5.0,-0.0003980072797276,0.0018968512304127,-0.0045303478837013,0.0199362952262163,0.0291263982653617,-9.779898643493652,0.0005524734686286,0.0022844082294595,-2.662266575547485,2.7591152837522754,1.7438390043213812,0.4294386569725997,13.02,0.09,0.118,0.398,1.0,2
24,2.0,1744992603.6252823,6.0,0.0,-5.0,0.0032162265852093,0.0038075593765825,-0.0044273966923356,-0.0154953254386782,-0.0051312162540853,-9.743806838989258,0.0005344719231834,0.0023053412713668,-2.6622898246052595,2.7306793443205186,2.130823987790959,0.4202468922038159,13.02,0.09,0.118,0.398,1.0,3
25,2.0,1744992604.1303897,8.0,0.0,-5.0,0.0006759454263374,0.0041762245818972,-0.0026105425786226,0.0442013628780841,0.0951632037758827,-9.810276985168455,0.0004591895809209,0.002298296562097,-2.662284408358911,3.4798577162312383,2.300632545183289,0.4252794449589568,13.02,0.09,0.118,0.398,1.0,4
26,2.0,1744992604.633943,10.0,0.0,-5.0,-0.001064020791091,0.004016597289592,-0.0001326750498265,0.0334805063903331,-0.0314325094223022,-9.875929832458496,0.0004584312965598,0.0023563678607607,-2.662311706113308,2.598640346880539,2.44272903935438,0.4212982170915997,13.02,0.09,0.118,0.398,1.0,5
27,2.0,1744992605.1391437,12.0,0.0,-5.0,-0.0027384753338992,0.0028816652484238,-0.0005741887725889,0.0004049265407957,-0.0110665392130613,-9.838129043579102,0.0003953971281777,0.0024263422284102,-2.6623467469419317,3.147683295081055,1.699985789500817,0.4240589667228349,13.02,0.09,0.118,0.398,1.0,6
28,2.0,1744992605.6425114,14.0,0.0,-5.0,-0.0033290712162852,0.002092785667628,0.0004817440640181,-0.0879737436771392,-0.0305592492222785,-9.830955505371094,0.0004701686517535,0.0024450752762284,-2.6623187646923494,2.9541454449376143,1.5051343307651837,0.4327202389683959,13.02,0.09,0.118,0.398,1.0,7
29,2.0,1744992606.1459212,16.0,0.0,-5.0,-0.0045992201194167,0.0024875048547983,0.0030772583559155,0.0231942608952522,0.0211702175438404,-9.815174102783203,0.0004993047512932,0.0024667147402686,-2.66235117228732,2.644523078563032,1.9475299089089768,0.5659210057206113,13.02,0.09,0.118,0.398,1.0,8
30,2.0,1744992606.6515856,18.0,0.0,-5.0,0.0005475655198097,0.0023120318073779,0.0026315429713577,-0.0189258884638547,0.0242269355803728,-9.79250717163086,0.0005329291425082,0.0025627855699957,-2.662348748073585,2.855440109500586,2.282873975981732,0.5186810451438235,13.02,0.09,0.118,0.398,1.0,9
31,2.0,1744992607.156062,20.0,0.0,-5.0,0.0014765361556783,0.0007608262822031,0.0025831148959696,-0.0212439000606536,-0.0745782777667045,-9.80391788482666,0.0005464230795184,0.002536630580089,-2.6622853200152305,3.010426958556065,1.779291988166522,0.4882037228063607,13.02,0.09,0.118,0.398,1.0,10
32,2.0,1744992607.6596649,18.0,0.0,-5.0,0.0017651586094871,-0.000645330408588,0.0028517690952867,0.0120316678658127,-0.038608893752098,-9.794760704040527,0.0005262414410978,0.0025750920573243,-2.662305409966856,3.376397932068423,2.3902161439164824,0.5085846911710649,13.02,0.09,0.118,0.398,1.0,11
33,2.0,1744992608.165365,16.0,0.0,-5.0,-4.654557051253505e-05,-0.0027469438500702,0.0003554530558176,0.0097279679030179,0.0448982752859592,-9.786046981811523,0.0005118752892022,0.0025825116682044,-2.662333890204316,2.915337570061704,1.8324035390363844,0.4926383373969632,13.02,0.09,0.118,0.398,1.0,12
34,2.0,1744992608.6702032,14.0,0.0,-5.0,-0.0017013627802953,-0.0017609327333047,-0.0014120744308456,-0.0459265485405921,0.0344229713082313,-9.775815963745115,0.0005255081572596,0.0025863915586103,-2.662261957714009,3.076878991480668,2.4494750212919065,0.5216351767568186,13.02,0.09,0.118,0.398,1.0,13
35,2.0,1744992609.1746442,12.0,0.0,-5.0,-0.0020170013885945,0.0003378053952474,-0.0020743440836668,-0.0178937744349241,0.0493809059262275,-9.799718856811523,0.000544215354707,0.0025500619518941,-2.6621809848571414,2.739095178598534,1.7728981417175644,0.5420592172166159,13.02,0.09,0.118,0.398,1.0,14
36,2.0,1744992609.6803658,10.0,0.0,-5.0,-0.0010381963802501,0.0009800577536225,-0.0031963337678462,0.0517279207706451,0.0073872492648661,-9.78714656829834,0.0004409748319814,0.0025361349283348,-2.662091961223899,3.1492876945923385,2.311629238742249,0.5604650066211223,13.02,0.09,0.118,0.398,1.0,15
37,2.0,1744992611.1852474,8.0,0.0,-5.0,-0.0012158170575276,-0.0014410776784643,-0.004108783788979,-0.0282063726335763,0.0267090015113353,-9.832372665405272,0.0004784540337098,0.0024307958821133,-2.662091291770221,3.4546033747170566,1.9624398337278863,0.5855982526199393,13.02,0.09,0.118,0.398,1.0,16
38,2.0,1744992611.6914315,6.0,0.0,-5.0,-1.0002248018281534e-05,0.0025029338430613,-0.002591683762148,0.0692753419280052,0.0704866126179695,-9.809369087219238,0.0004620878814371,0.0024321855203607,-2.6618903341560523,3.0266010674839365,1.8084167213250684,0.4825898040905957,13.02,0.09,0.118,0.398,1.0,17
39,2.0,1744992612.1972926,4.0,0.0,-5.0,-0.0008643342880532,0.0005903615383431,-0.0030235713347792,-0.0281343441456556,0.0016136668855324,-9.765912055969238,0.0004691193071422,0.0024228705264974,-2.6619244156820465,2.736091037055746,1.7164838730178062,0.592873541567206,13.02,0.09,0.118,0.398,1.0,18
40,2.0,1744992612.7051358,2.0,0.0,-5.0,-0.0013342398451641,0.0012481088051572,-0.002188968937844,-0.0473590269684791,-0.0229171104729175,-9.84917449951172,0.0004815947203651,0.0025096248608163,-2.662009044820403,3.3116659803782795,2.2739596097933275,0.4260807574034967,13.02,0.09,0.118,0.398,1.0,19
41,2.0,1744992613.2117429,0.0,0.0,-5.0,0.0013379780575633,0.0023585420567542,-0.0018862886354327,0.0043087848462164,-0.0051558236591517,-9.771368980407717,0.0004781455089492,0.002488964930271,-2.6619381871684165,2.6452171779707383,1.6634462432004544,0.4756015670357756,13.02,0.09,0.118,0.398,1.0,20
42,3.0,1744993190.9442298,0.0523413233458995,0.0021000255364924,-4.904167175292969,0.0138233182951807,0.0257830079644918,-0.3822417855262756,-0.0711119994521141,-0.084031157195568,-8.899982452392578,-0.0123927020381132,0.0065509747432009,-3.0206714652657083,3.3903252754476787,2.0010608560666063,0.5564786261310973,5.2,0.1,0.205,0.25,1.0,0
43,3.0,1744993193.2126732,2.112267255783081,-0.0927932932972908,-4.952857971191406,0.7081243991851807,0.0463022552430629,0.0774520859122276,-0.0888396129012107,0.0164379775524139,-10.079087257385254,-0.122887949671707,-0.0099200423832495,-3.1249643859545126,3.035359080290618,2.015414217338066,0.5830211991700814,5.2,0.1,0.205,0.25,1.0,1
44,3.0,1744993197.0611184,4.265334129333496,0.139399766921997,-4.2310333251953125,0.0310991425067186,0.0694871991872787,0.7867644429206848,-0.0394100733101367,0.0212585218250751,-9.700505256652832,-0.0006834769105119,0.0001406477018395,-3.1312784266105718,2.681832626345418,2.413421719815931,0.5281427991277902,5.2,0.1,0.205,0.25,1.0,2
45,3.0,1744993197.566537,4.215015411376953,0.1666625738143921,-3.835494995117188,0.0003406024770811,0.0946360751986503,0.8026763200759888,-0.1891327500343322,0.0011627450585365,-9.826152801513672,-0.000319405053349,-7.151300630073769e-05,-3.130463033676067,3.345157727085697,2.496470055685598,0.5392763745341091,5.2,0.1,0.205,0.25,1.0,3
46,3.0,1744993198.0701537,4.169126987457275,0.2128706872463226,-3.43304443359375,-0.0214689411222934,0.1256760060787201,0.7798634171485901,-0.0839691460132598,-0.0300054177641868,-9.91495132446289,-0.0002603881353385,-4.9931889689486735e-05,-3.1301909983541707,2.635492319928156,2.1669428181233346,0.4726248395070671,5.2,0.1,0.205,0.25,1.0,4
47,3.0,1744993199.572913,10.0,0.0,-5.0,-0.0143554480746388,0.2227528244256973,0.705543577671051,-0.0029576644301414,0.0213281884789466,-9.84225368499756,-6.84762231392115e-06,-1.1100243942701177e-05,-3.129428535335023,2.854690313651828,2.071064844516925,0.5627935534008031,5.2,0.1,0.205,0.25,1.0,5
48,3.0,1744993200.0768244,12.0,0.0,-5.0,-9.776375372894108e-05,0.2641322612762451,0.690199077129364,-0.1269621849060058,-0.0187071412801742,-9.904522895812988,4.180380922569629e-05,-8.163472102082863e-05,-3.1291114388734265,2.6194458143890484,2.373430863770759,0.4943952630181399,5.2,0.1,0.205,0.25,1.0,6
49,3.0,1744993200.579811,14.0,0.0,-5.0,0.0189762841910123,0.3067734241485595,0.6824639439582825,0.0730923265218734,-0.0672010779380798,-9.830082893371582,8.901907204095128e-05,-5.166471690122536e-06,-3.129046591269272,2.777978024818359,2.3924118124107743,0.4830267747038998,5.2,0.1,0.205,0.25,1.0,7
50,3.0,1744993201.0835643,16.0,0.0,-5.0,0.0417985469102859,0.3354508280754089,0.679439902305603,-0.0382968857884407,-0.0235981084406375,-9.844231605529783,6.068657666503326e-05,-1.904316206882751e-05,-3.1291128690351027,3.231712844906528,1.788179506405296,0.4283349475416946,5.2,0.1,0.205,0.25,1.0,8
51,3.0,1744993201.5883622,18.0,0.0,-5.0,0.0590464957058429,0.3674889802932739,0.6824109554290771,0.0210320279002189,0.0633924528956413,-9.818398475646973,0.0001109466817429,4.354044892308095e-05,-3.1289574223285537,2.6064668658354724,1.858403990051468,0.4389407173817604,5.2,0.1,0.205,0.25,1.0,9
52,3.0,1744993202.091844,20.0,0.0,-5.0,0.0845198631286621,0.4018278419971466,0.6878544688224792,-0.0702347159385681,0.0034677404910326,-9.863990783691406,0.0001204705864571,-5.586496804098807e-06,-3.12891164464199,2.9766379559811287,2.0009366250049747,0.5657253069430763,5.2,0.1,0.205,0.25,1.0,10
53,3.0,1744993202.5963683,18.0,0.0,-5.0,0.1100399643182754,0.4296269714832306,0.6927252411842346,-0.018981147557497,-0.0086901634931564,-9.81135082244873,8.61346207468577e-06,-9.90014153311498e-05,-3.128881605661075,3.0512709579254302,1.7332431367237773,0.5304829274018471,5.2,0.1,0.205,0.25,1.0,11
54,3.0,1744993203.099359,16.0,0.0,-5.0,0.1292827725410461,0.4563031494617462,0.6941268444061279,0.0015374273061752,-0.0144986314699053,-9.835137367248535,6.284838212115017e-05,-2.271540853149198e-05,-3.128788858702272,2.8844653111832006,1.5043858023607115,0.4627814895228423,5.2,0.1,0.205,0.25,1.0,12
55,3.0,1744993203.6041968,14.0,0.0,-5.0,0.1555547565221786,0.4909274578094482,0.6934369802474976,-0.1185322478413581,0.0044242125004529,-9.705642700195312,8.582743160681994e-05,3.808037384858701e-06,-3.12872353053582,3.2165859338338167,2.355496166727882,0.4369489896074958,5.2,0.1,0.205,0.25,1.0,13
56,3.0,1744993204.1078272,12.0,0.0,-5.0,0.1770985722541809,0.5174697041511536,0.6947884559631348,-0.0928546786308288,0.0253713093698024,-9.698118209838867,2.8234182702950545e-05,1.0626883910235125e-06,-3.128625064346203,3.154211492569506,1.7846132950833722,0.4462840357320516,5.2,0.1,0.205,0.25,1.0,14
57,3.0,1744993204.6117227,10.0,0.0,-5.0,0.1961914598941803,0.5446857810020447,0.6966480612754822,-0.0583605878055095,-0.0112234419211745,-9.768156051635742,8.461347878251469e-05,3.168337124603534e-05,-3.128504184101488,3.14136136773808,1.9091269180678785,0.4291729047193254,5.2,0.1,0.205,0.25,1.0,15
58,3.0,1744993205.1154046,8.0,0.0,-5.0,0.2152183949947357,0.5688684582710266,0.6984977126121521,-0.110852263867855,-0.0209460072219371,-9.767084121704102,4.633563918019758e-05,-1.152680210620564e-05,-3.1282702988226867,3.340779147835217,1.669919717171318,0.4931748482661284,5.2,0.1,0.205,0.25,1.0,16
59,3.0,1744993205.62044,6.0,0.0,-5.0,0.236314594745636,0.591948926448822,0.6976588368415833,0.0538606457412242,-0.0619289763271808,-9.891234397888184,2.342634044487373e-05,-7.056352380197773e-05,-3.1280104219960543,3.313419661495791,1.5260209657886752,0.4612387449977589,5.2,0.1,0.205,0.25,1.0,17
60,3.0,1744993206.1241615,4.0,0.0,-5.0,0.2483462691307068,0.6264999508857727,0.696191132068634,-0.0571607425808906,-0.0418236926198005,-9.831304550170898,5.452857581215717e-05,2.28663350524093e-06,-3.128003027045351,2.901504715067497,2.2653692857464645,0.4749466470917907,5.2,0.1,0.205,0.25,1.0,18
61,3.0,1744993206.6285732,2.0,0.0,-5.0,0.2640223205089569,0.6506090760231018,0.6970115900039673,-0.1019333899021148,-0.0242691598832607,-9.888774871826172,8.635888411824057e-06,-1.9587957679630423e-05,-3.127926263792824,3.293233226434256,1.7938792950151177,0.5333445783886209,5.2,0.1,0.205,0.25,1.0,19
62,3.0,1744993207.132191,0.0,0.0,-5.0,0.2755849659442901,0.6790175437927246,0.695234477519989,0.0169462747871875,0.073557823896408,-9.866329193115234,-1.435082189589419e-05,1.7683303349594718e-05,-3.12782063846135,2.9033993548805084,1.8506061481264489,0.5443893657736526,5.2,0.1,0.205,0.25,1.0,20
63,5.0,1744993233.110213,0.1989499777555465,0.8241667747497559,-4.655891418457031,0.6885781288146973,0.933006763458252,-0.143214538693428,-0.0434254072606563,-0.0690343752503395,-10.75374984741211,-0.1104641799748694,0.1942663458565137,-3.0301090524359835,2.7524271127991398,2.470786788392426,0.4432339655907306,6.6,0.2,0.275,0.456,1.0,0
64,5.0,1744993242.4392238,0.984332799911499,-1.5298056602478027,-3.8258056640625,-1.030045747756958,-1.9982244968414309,0.5502035617828369,-0.1639342606067657,-0.1035195440053939,-10.040596961975098,-0.0049531717451159,0.0062816145036271,-3.0053909902547704,2.9773436925381755,1.977462806709981,0.5994856109870692,6.6,0.2,0.275,0.456,1.0,1
65,5.0,1744993242.9442806,4.0,0.0,-5.0,-1.168626070022583,-2.3074841499328613,0.5237483978271484,-0.1635848730802536,-0.157982051372528,-9.890464782714844,-0.0013713913817411,0.0020910123308742,-3.0080436109540685,2.6081978681560303,2.3975070631444746,0.5885010859760142,6.6,0.2,0.275,0.456,1.0,2
66,5.0,1744993243.4485404,6.0,0.0,-5.0,-1.2237392663955688,-2.520638227462769,0.5265442132949829,-0.150357961654663,-0.0488701276481151,-9.841959953308104,-0.0008566531873679,0.0014209705283456,-3.010025639350281,2.7607992094417457,1.541506044591187,0.426809221746525,6.6,0.2,0.275,0.456,1.0,3
67,5.0,1744993243.9555616,8.0,0.0,-5.0,-1.2175408601760864,-2.621329069137573,0.5514559745788574,-0.1089706122875213,-0.1025957018136978,-9.733112335205078,-0.0003158877920273,0.0007189997837891,-3.011689302543319,3.08285284153677,2.2274513067192534,0.5867720818688931,6.6,0.2,0.275,0.456,1.0,4
68,5.0,1744993244.4617243,10.0,0.0,-5.0,-1.1793750524520874,-2.648698091506958,0.5889278054237366,-0.1051310151815414,-0.120753489434719,-9.73474407196045,4.620929653430042e-06,-0.0026956165210616,-3.012912887765377,2.7391679363582435,2.2970177621822323,0.4454742590929012,6.6,0.2,0.275,0.456,1.0,5
69,5.0,1744993244.9658844,12.0,0.0,-5.0,-1.0980520248413086,-2.643790006637573,0.6243621706962585,-0.1651131063699722,-0.0471436418592929,-9.753090858459473,0.0002132988302929,0.0007501819648903,-3.013978589614541,3.485362364777532,1.5126848630502567,0.5570580445557523,6.6,0.2,0.275,0.456,1.0,6
70,5.0,1744993245.4697251,14.0,0.0,-5.0,-1.033522367477417,-2.6052145957946777,0.6496845483779907,-0.1650518029928207,-0.0621611401438713,-9.704155921936035,0.0003253774496735,3.303735178693963e-05,-3.0146798120484064,2.7451159543478925,1.79152035975427,0.4900665932424341,6.6,0.2,0.275,0.456,1.0,7
71,5.0,1744993245.9786265,16.0,0.0,-5.0,-0.947050392627716,-2.537160873413086,0.6708917617797852,-0.1312408745288849,-0.1030288487672805,-9.770203590393066,0.000427608819084,-6.120416229279862e-05,-3.015347367069062,3.3193509540691046,2.339179133543185,0.5990837591786004,6.6,0.2,0.275,0.456,1.0,8
72,5.0,1744993246.482036,18.0,0.0,-5.0,-0.8787571787834167,-2.458266496658325,0.6795457005500793,-0.0755251720547676,-0.1034203767776489,-9.781600952148438,0.0004681939624061,-0.000214551330891,-3.0157338791684363,2.694448711278812,2.4378961543161606,0.4124338831332794,6.6,0.2,0.275,0.456,1.0,9
73,5.0,1744993246.9881892,20.0,0.0,-5.0,-0.7981407046318054,-2.3837294578552246,0.6880149841308594,-0.1454085111618042,-0.0397985056042671,-9.819266319274902,0.000363880002035,-0.0003047016453586,-3.016015894461088,3.2541338493244094,2.2737549720204937,0.5035178820249959,6.6,0.2,0.275,0.456,1.0,10
74,5.0,1744993247.4922235,18.0,0.0,-5.0,-0.732142984867096,-2.313622236251831,0.6923214197158813,-0.0567204654216766,-0.1540840715169906,-9.786142349243164,0.0003298970160773,-0.0003044948583265,-3.0162214125499607,2.962554950352308,2.3875188188525343,0.563325153411902,6.6,0.2,0.275,0.456,1.0,11
75,5.0,1744993247.9977052,16.0,0.0,-5.0,-0.6629186272621155,-2.2485218048095703,0.6940934062004089,-0.0892639532685279,-0.1479750424623489,-9.919715881347656,0.0002499371546922,-0.0002567838855145,-3.0162929557666724,3.2701032050175174,2.23317288574183,0.5991525189526405,6.6,0.2,0.275,0.456,1.0,12
76,5.0,1744993248.501937,14.0,0.0,-5.0,-0.5989828109741211,-2.193007469177246,0.6945358514785767,-0.1137522906064987,-0.1392298191785812,-9.786822319030762,0.0002110892795837,-0.0002152834094725,-3.0161923333041023,3.4963345249984745,2.158835514615346,0.5538279706670987,6.6,0.2,0.275,0.456,1.0,13
77,5.0,1744993249.006735,12.0,0.0,-5.0,-0.5612062811851501,-2.158492088317871,0.6943156719207764,-0.0278242006897926,-0.1441839188337326,-9.77379322052002,0.0001482488942535,-0.000261039736072,-3.0162991470488283,2.891601494979936,1.8135562850142783,0.4999793331938891,6.6,0.2,0.275,0.456,1.0,14
78,5.0,1744993249.5118124,10.0,0.0,-5.0,-0.5339499711990356,-2.113055229187012,0.6959515810012817,-0.087193988263607,-0.1400410532951355,-9.873927116394045,0.0001279147214021,-0.000231966057617,-3.016481065942133,2.5145699475076277,2.453168423001659,0.5758211648549936,6.6,0.2,0.275,0.456,1.0,15
79,5.0,1744993250.0152788,8.0,0.0,-5.0,-0.4959961473941803,-2.096063137054444,0.6941011548042297,-0.106400154531002,-0.0422660484910011,-9.81562614440918,3.5659846510788534e-05,-9.462280912080672e-05,-3.0166860866589738,3.080275159222236,1.6305815145856726,0.4681327321806519,6.6,0.2,0.275,0.456,1.0,16
80,5.0,1744993250.5206606,6.0,0.0,-5.0,-0.4649063944816589,-2.0846376419067383,0.693842351436615,-0.0929341092705726,-0.1245305836200714,-9.852045059204102,7.033676567442337e-05,-7.025255711162112e-05,-3.0167020547294072,3.171957837278559,1.6014042348974296,0.4774592252124337,6.6,0.2,0.275,0.456,1.0,17
81,5.0,1744993251.026456,4.0,0.0,-5.0,-0.4442850351333618,-2.0662841796875,0.6961650848388672,-0.0778273493051529,-0.0414988547563552,-9.844497680664062,-1.4034460112319618e-05,-4.211336908861664e-05,-3.01669347781505,2.802210108247577,2.057199250980238,0.5163870178072265,6.6,0.2,0.275,0.456,1.0,18
82,5.0,1744993251.5302742,2.0,0.0,-5.0,-0.4301914572715759,-2.0461630821228027,0.6957918405532837,-0.0849872380495071,-0.1149904280900955,-9.802884101867676,-3.6539999585195926e-06,5.04429607147743e-05,-3.016751186632236,2.622712381995158,2.218991969775216,0.5832015559233601,6.6,0.2,0.275,0.456,1.0,19
83,5.0,1744993252.0345936,0.0,0.0,-5.0,-0.4107320308685303,-2.0491621494293213,0.6981992721557617,-0.1279474198818206,-0.1123374104499816,-9.86093521118164,1.8184156837562832e-05,-5.857796535694561e-05,-3.0167497482448518,3.044464853345943,1.508756433306096,0.5441257934591667,6.6,0.2,0.275,0.456,1.0,20
84,7.0,1744993275.1859937,-0.066921442747116,2.092857599258423,-5.013519287109375,0.1783578842878341,1.8628696203231807,0.3744831383228302,-0.1223550587892532,0.0321081653237342,-12.430852890014648,-0.1155841118626195,0.645302232795677,-3.0561956197563958,3.141889157806129,2.233741208651295,0.4516150222614247,10.13,0.36,0.181,0.347,1.0,0
85,7.0,1744993290.1455655,2.0933678150177,-1.2271597385406494,-5.008049011230469,-0.6000128388404846,-0.8293851613998413,-0.0945375487208366,-0.126320868730545,-0.0658419281244278,-10.084425926208496,0.0968079111571387,-0.264819798275699,-2.9565941000833096,3.4432363305070326,1.9854786696415387,0.4800660207255676,10.13,0.36,0.181,0.347,1.0,1
86,7.0,1744993292.857126,4.3622822761535645,0.3646756112575531,-4.980491638183594,0.726606011390686,0.7864623665809631,0.022329743951559,-0.0225946679711341,0.0386680997908115,-10.110069274902344,-0.1949371144825306,0.1396951136934223,-2.9607148850769858,3.172631352302372,2.0353708557732677,0.483971993463098,10.13,0.36,0.181,0.347,1.0,2
87,7.0,1744993295.023919,6.090193748474121,-0.026462672278285,-4.976318359375,0.1885862499475479,-0.6868502497673035,-0.0403644256293773,-0.1064218431711196,0.059315450489521,-9.862065315246582,-0.0455845753237867,-0.0885558789140711,-2.9553557475069527,3.3121257047982064,1.9622602474595083,0.5861188403400674,10.13,0.36,0.181,0.347,1.0,3
88,7.0,1744993297.7609067,8.216639518737793,-0.0981116890907287,-5.014274597167969,0.3788196742534637,0.5423427224159241,0.0203819125890731,-0.0577430836856365,-0.0106546720489859,-9.90065860748291,-0.1116594539912542,0.0355155051661484,-2.9528950444453947,2.684080762528257,1.8248590216170308,0.4305569136451196,10.13,0.36,0.181,0.347,1.0,4
89,7.0,1744993300.0905664,10.049528121948242,0.1631015390157699,-4.9896392822265625,0.4842458963394165,-0.3601427674293518,0.0036758757196366,-0.0361992493271827,-0.0700996592640876,-9.87444305419922,-0.0845362596363632,-0.0266846099478041,-2.9638005626468,2.760482224248352,2.329018284616135,0.589297143183583,10.13,0.36,0.181,0.347,1.0,5
90,7.0,1744993302.3391168,12.063518524169922,-0.2641976177692413,-4.992805480957031,0.5215724110603333,0.2518807053565979,6.122342892922461e-05,-0.101824939250946,0.0432944595813751,-9.825641632080078,-0.0951011661402446,-0.0275799412064419,-2.9590455517613683,3.319278910154841,2.379047834562704,0.5280226898620498,10.13,0.36,0.181,0.347,1.0,6
91,7.0,1744993304.4592762,13.957330703735352,0.1964181214570999,-4.996177673339844,0.5781399607658386,-0.0660739466547966,0.0046049212105572,-0.0604333654046058,-0.0163606368005275,-9.85305118560791,-0.0921702664004534,0.0118572091132196,-2.962436772185374,3.116952257573266,2.082928759664798,0.4811431636581895,10.13,0.36,0.181,0.347,1.0,7
92,7.0,1744993306.5459435,15.971678733825684,-0.1051193475723266,-4.999153137207031,0.6172773241996765,-0.0577153898775577,0.0098453434184193,-0.0537244714796543,-0.032465822994709,-9.816736221313477,-0.0915158679214704,-0.0413778751460672,-2.9612160735330093,3.1728783436772434,2.003390531142093,0.4583785286562574,10.13,0.36,0.181,0.347,1.0,8
93,7.0,1744993308.62822,17.95623207092285,-0.0027994199190288,-4.995040893554688,0.5876588225364685,0.1067127287387847,0.0055260765366256,-0.0331325680017471,-0.0379184819757938,-9.882863998413086,-0.093459361223419,-0.0021536638450495,-2.9630041985789672,2.874723883785281,2.393769010421772,0.480681194626921,10.13,0.36,0.181,0.347,1.0,9
94,7.0,1744993310.731299,19.968355178833008,0.0520327724516391,-4.990699768066406,0.6114974617958069,-0.0751473605632782,0.0017758894246071,-0.0762738585472107,0.0091864727437496,-9.86540985107422,-0.0954409850822424,-0.0160471762937787,-2.963827209500736,2.888555852039924,1.804879295511911,0.5048245246139242,10.13,0.36,0.181,0.347,1.0,10
95,7.0,1744993313.0680006,17.651132583618164,-0.1129457801580429,-4.9660186767578125,-0.9550233483314514,0.0821182653307914,-0.0690162777900695,-0.1946353018283844,-0.0331423282623291,-9.973610877990724,0.1661239839641721,0.0236845490343358,-2.957629781504992,3.2154179338989857,1.7505685929810144,0.4268823889194268,10.13,0.36,0.181,0.347,1.0,11
96,7.0,1744993314.417517,16.027307510375977,0.0207162294536829,-5.0106048583984375,-0.6766461133956909,0.0722654536366462,-0.0236213095486164,-0.0826452523469924,-0.0695460364222526,-9.740352630615234,0.0850832178091351,0.0303725543912804,-2.957435220292554,2.9815409383327967,1.5637225556190384,0.4365517119960897,10.13,0.36,0.181,0.347,1.0,12
97,7.0,1744993316.6069813,14.070467948913574,0.0363535061478614,-5.008056640625,-0.6052943468093872,-0.0573758222162723,-0.0052049388177692,-0.2170007675886154,-0.0256140045821666,-9.871183395385742,0.0701993807923188,0.0179253100791109,-2.9563482938779844,3.472671405511972,1.8028666555181747,0.455453653845016,10.13,0.36,0.181,0.347,1.0,13
98,7.0,1744993318.7480488,12.00412654876709,-0.0658556148409843,-5.002967834472656,-0.6536176204681396,0.0469046980142593,-0.0083896266296505,-0.0990800410509109,-0.0154185201972723,-9.881465911865234,0.0914750619781344,0.0146106887104962,-2.958494974875318,2.556332025433096,2.4943729604980134,0.4304033481703493,10.13,0.36,0.181,0.347,1.0,14
99,7.0,1744993320.798046,10.038884162902832,0.0200572051107883,-5.001091003417969,-0.625219464302063,0.0135917952284216,-0.0112729929387569,-0.0035298392176628,-0.0603541582822799,-9.88709545135498,0.084236436151934,0.0233082450683552,-2.959338054363258,2.537608811464631,1.756868368695891,0.554117108777655,10.13,0.36,0.181,0.347,1.0,15
100,7.0,1744993322.9005954,8.03743839263916,-0.003655248787254,-4.99810791015625,-0.5998433232307434,-0.0151561116799712,-0.016401182860136,-0.1875338554382324,-0.0143855698406696,-9.832564353942873,0.0823342128040656,0.0154270909846395,-2.9601314729772144,3.277415992170254,2.287751324577292,0.5635259119936693,10.13,0.36,0.181,0.347,1.0,16
101,7.0,1744993325.0003884,6.052047729492188,-0.0311155635863542,-5.004684448242188,-0.6424762606620789,0.0236840695142745,-0.0109470505267381,-0.1353330165147781,-0.0476740449666976,-9.874343872070312,0.088616611263093,0.0165544252457697,-2.9611276252290346,2.7537042383745325,1.8173652162571383,0.5484873325798416,10.13,0.36,0.181,0.347,1.0,17
102,7.0,1744993327.0582,4.058266639709473,-0.0018058673013001,-5.0040130615234375,-0.6190484762191772,0.0097538465633988,-0.0099161826074123,-0.0285091176629066,-0.005143545102328,-9.842574119567873,0.0829680769254779,0.0184737194188234,-2.96224802231917,3.119833371223341,1.6275570694836246,0.4603166301107466,10.13,0.36,0.181,0.347,1.0,18
103,7.0,1744993329.1207235,2.0379419326782227,0.005554755218327,-4.999244689941406,-0.630769670009613,-0.0017109354957938,-0.0167327392846345,-0.0272830948233604,0.0504007413983345,-9.839034080505373,0.0884767482183579,0.0196382362511448,-2.962371451102229,2.624000158374153,2.342501886291772,0.5961650495406342,10.13,0.36,0.181,0.347,1.0,19
104,7.0,1744993333.201327,-0.2865324020385742,0.0037927599623799,-4.2772064208984375,0.0556693486869335,0.0319054126739501,0.8052986264228821,-0.1340984851121902,0.0005544926971197,-9.713019371032717,0.001546980393964,-0.0012203359638507,-2.9616336112909427,3.083651105970109,2.23301787346072,0.447599694283317,10.13,0.36,0.181,0.347,1.0,20
105,8.0,1744993334.8914788,0.0868755504488945,0.0926411375403404,-2.9048614501953125,0.2211053371429443,0.0729479566216468,0.7471278309822083,-0.0637610405683517,-0.010292649269104,-9.871179580688477,0.0001159324771398,-1.3771707925239122e-06,-2.960865385410954,3.300483404623747,1.9052660193066384,0.5987727821697651,14.28,0.04,0.052,0.175,1.0,0
106,8.0,1744993335.3951857,0.2053713798522949,0.1347795575857162,-2.5231170654296875,0.2445538789033889,0.0827333852648735,0.7177313566207886,-0.0246454179286956,-0.0775435119867324,-9.853267669677734,-6.838804165313185e-05,0.0006783809635907,-2.960590003313821,3.2728233043764026,2.2511972403227887,0.4816564632505318,14.28,0.04,0.052,0.175,1.0,1
107,8.0,1744993335.8987963,0.3255520761013031,0.1863643229007721,-2.1475830078125,0.2528933882713318,0.1043730452656745,0.6995511651039124,-0.0913509503006935,-0.0559909343719482,-9.791219711303713,-0.0001319634798717,-0.0004855052602074,-2.960528039950958,3.1110427055345533,2.244426143411018,0.4271421467567181,14.28,0.04,0.052,0.175,1.0,2
108,8.0,1744993336.4046197,6.0,0.0,-5.0,0.2587009370326996,0.1171231344342231,0.6902157664299011,-0.0788154602050781,-0.0163118988275527,-9.773366928100586,8.883822745794326e-06,-0.0002021945811465,-2.960362782981048,2.967507775245989,1.709594402420639,0.5012272522684689,14.28,0.04,0.052,0.175,1.0,3
109,8.0,1744993336.909593,8.0,0.0,-5.0,0.2636218667030334,0.1314156651496887,0.6850364804267883,-0.0428751781582832,-0.0286192167550325,-9.75692367553711,-0.0001077295591647,-0.000179419495393,-2.960167566904889,3.063671072681703,2.2713529249497544,0.510822565321751,14.28,0.04,0.052,0.175,1.0,4
110,8.0,1744993337.4147997,10.0,0.0,-5.0,0.2575323581695556,0.1460637897253036,0.68378084897995,-0.0678368285298347,-0.0213425755500793,-9.821438789367676,-0.000126434985538,-0.0001194485129423,-2.959922443434162,2.6452412071287084,2.032985068267284,0.4356713387134605,14.28,0.04,0.052,0.175,1.0,5
111,8.0,1744993337.9187186,12.0,0.0,-5.0,0.2580527365207672,0.162685677409172,0.6864377856254578,-0.0375280678272247,-0.0298552885651588,-9.802264213562012,-0.0001192359403146,-6.0916578666239984e-05,-2.959580071490242,2.946131175596042,2.4341963632214823,0.5895547824284744,14.28,0.04,0.052,0.175,1.0,6
112,8.0,1744993338.423894,14.0,0.0,-5.0,0.2577140927314758,0.1749643087387085,0.6884999871253967,-0.1203948184847831,-0.0703030526638031,-9.758535385131836,-0.0001743309107518,-0.0001064197575359,-2.959316143129017,3.10557835112249,1.5645932658848136,0.468680613573155,14.28,0.04,0.052,0.175,1.0,7
113,8.0,1744993338.9272408,16.0,0.0,-5.0,0.2598171830177307,0.1937566548585891,0.6888564825057983,-0.1032005548477172,0.0690075904130935,-9.865647315979004,-0.0001265100389551,-8.701086374287924e-05,-2.9594181665360506,2.9004033929160107,2.4379187437487038,0.407694423284999,14.28,0.04,0.052,0.175,1.0,8
114,8.0,1744993339.4325008,18.0,0.0,-5.0,0.2685052752494812,0.2077490836381912,0.6922811269760132,-0.041423961520195,0.008077697828412,-9.815653800964355,-0.0001124250123523,-1.764302927016581e-05,-2.9592226690308694,3.341620915806038,2.320673121473413,0.4725137438648449,14.28,0.04,0.052,0.175,1.0,9
115,8.0,1744993339.935999,20.0,0.0,-5.0,0.23732291162014,0.2015674710273742,0.6796891689300537,-0.0853163823485374,-0.013847523368895,-9.743571281433104,-0.0006207669019629,0.0001237852290802,-2.959268639664073,2.889035913951099,2.244772679442903,0.4947216163687374,14.28,0.04,0.052,0.175,1.0,10
116,8.0,1744993340.4394238,18.0,0.0,-5.0,0.1128002777695655,0.1126496568322181,0.542561948299408,-0.0740367397665977,-0.013163617812097,-9.810604095458984,-0.0045850609226352,0.0024570422452416,-2.959672807760941,3.487919681045161,1.7560690222430595,0.4809835114380483,14.28,0.04,0.052,0.175,1.0,11
117,8.0,1744993340.9449134,16.0,0.0,-5.0,0.001813766430132,0.0237369127571582,0.3916713297367096,0.112037107348442,-0.0254473816603422,-9.86396312713623,-0.0068167498934205,0.0040138863524087,-2.959898324678893,3.3767577003275075,1.7407435462782137,0.5259930351696421,14.28,0.04,0.052,0.175,1.0,12
118,8.0,1744993341.4500234,14.0,0.0,-5.0,-0.0682555213570594,-0.0350558161735534,0.2546984553337097,0.0884108990430831,0.0215900801122188,-9.859759330749512,-0.0071750188966955,0.0045887066458326,-2.960047555576089,2.9694407072189763,1.8626563546807728,0.4864441964920563,14.28,0.04,0.052,0.175,1.0,13
119,8.0,1744993341.9563477,12.0,0.0,-5.0,-0.0990256145596504,-0.0641394257545471,0.1588080823421478,-0.1045161262154579,-0.0096697928383946,-9.71282958984375,-0.0065291623993629,0.0046577328436969,-2.960067558183144,2.969437929855713,2.387501848916316,0.5143143811763207,14.28,0.04,0.052,0.175,1.0,14
120,8.0,1744993342.4599724,10.0,0.0,-5.0,-0.1044095084071159,-0.0732756704092025,0.0892599746584892,0.0260917302221059,0.0252378955483436,-9.719199180603027,-0.0053847484178635,0.0043767020097024,-2.960267631276137,2.8714890669675706,2.268611560030772,0.5277309858588686,14.28,0.04,0.052,0.175,1.0,15
121,8.0,1744993342.963989,8.0,0.0,-5.0,-0.0979921147227287,-0.0729062333703041,0.0391714535653591,0.034700084477663,0.0059459069743752,-9.794943809509276,-0.0040235341441663,0.0039443271497518,-2.96020496198294,2.5596578927364595,1.5905684018369994,0.5748581532653098,14.28,0.04,0.052,0.175,1.0,16
122,8.0,1744993343.471079,6.0,0.0,-5.0,-0.0842437967658042,-0.0665519833564758,0.0024444689042866,-0.0161699783056974,-0.0088525218889117,-9.85339069366455,-0.002589334171744,0.0035391422753942,-2.960142484498899,3.4975316604149747,1.915551367598838,0.5206610624288154,14.28,0.04,0.052,0.175,1.0,17
123,8.0,1744993343.9748056,4.0,0.0,-5.0,-0.0662916675209999,-0.0550343692302703,-0.020359618589282,0.0108414525166153,0.0432242304086685,-9.744428634643556,-0.0013728968550737,0.0030858909579199,-2.959779622084541,2.9272560060227013,1.793409237081669,0.4437708175617544,14.28,0.04,0.052,0.175,1.0,18
124,8.0,1744993344.4807203,2.0,0.0,-5.0,-0.0499119609594345,-0.0439928136765956,-0.0340920127928257,-0.0101564517244696,0.0204514414072036,-9.70479965209961,-0.0002320382322709,0.0026470662886923,-2.95973909456455,2.667362906997449,2.291623619225136,0.5857783506356391,14.28,0.04,0.052,0.175,1.0,19
125,8.0,1744993344.9854808,0.0,0.0,-5.0,-0.0336477868258953,-0.0330663844943046,-0.0423725470900535,-0.003418201347813,0.0591177605092525,-9.81563949584961,0.0007521339017547,0.0023864216399561,-2.9595123445577043,3.057928122482697,2.4442301734349656,0.5561068391126163,14.28,0.04,0.052,0.175,1.0,20
126,9.0,1744993549.870553,0.0213712751865386,0.0252858214080333,-1.9225387573242188,0.0064205238595604,0.0015573638956993,-0.0018929532961919,-0.0516173988580703,0.0121969357132911,-9.76262664794922,-0.0034234669268484,0.0062987626068027,-3.0134909878528355,2.8780822658372163,2.201339547253757,0.5346063437873002,7.13,0.31,0.432,0.196,1.0,0
127,9.0,1744993550.3743055,0.0265644211322069,0.0243909787386655,-1.9227066040039065,0.0045024985447525,-0.0012565220240503,-0.0039408700540661,-0.0390483513474464,0.0199810769408941,-9.740436553955078,-0.0045321802509214,0.0046547169315971,-3.0144125047629013,2.834371553544882,1.833321740672651,0.5539509254554886,7.13,0.31,0.432,0.196,1.0,1
128,9.0,1744993550.8784678,4.0,0.0,-5.0,-0.0068206959404051,-0.0003763995191548,-0.004711618181318,-0.0867968723177909,-0.0104440320283174,-9.781556129455566,-0.0031119302183398,0.0052077138651468,-3.0139256718640275,2.5129088623314657,1.8354687542405057,0.5298919083612914,7.13,0.31,0.432,0.196,1.0,2
129,9.0,1744993552.3812363,6.0,0.0,-5.0,-0.0027818591333925,0.0008139403653331,-0.0015895647229626,-0.0541947446763515,0.001464907079935,-9.823185920715332,-0.0042150891538943,0.0055495581478316,-3.0132726267637984,3.1257906976407237,2.016522793685797,0.566804950693071,7.13,0.31,0.432,0.196,1.0,3
130,9.0,1744993552.8869936,8.0,0.0,-5.0,0.0010144179686903,-0.0001581271935719,-0.0018783871782943,-0.0906698703765869,-0.0187950432300567,-9.770289421081545,-0.0044365650969545,0.0056196371281797,-3.013491967945217,3.357801049384402,2.0943372120284165,0.5742285783147016,7.13,0.31,0.432,0.196,1.0,4
131,9.0,1744993553.3909078,10.0,0.0,-5.0,-0.0012990235118195,0.0020366308744996,-0.0013625572901219,-0.0900611653923988,0.0164141058921813,-9.820064544677734,-0.0028514298491267,0.0058562817218188,-3.0136269240090963,2.937953685429016,2.1989193943961345,0.5649020318526308,7.13,0.31,0.432,0.196,1.0,5
132,9.0,1744993553.8940682,12.0,0.0,-5.0,0.0044270073994994,0.0014470253372564,-0.0085956966504454,-0.0351290367543697,-0.0287603698670864,-9.85748291015625,-0.002955617261828,0.0058844553684816,-3.0134263943653408,3.315644136986875,2.10944190712307,0.4545417937400417,7.13,0.31,0.432,0.196,1.0,6
133,9.0,1744993554.3981462,14.0,0.0,-5.0,0.0056767798960208,0.0018214433221146,-0.0072526200674474,-0.020543523132801,0.0503387972712516,-9.813822746276855,-0.0027669114324199,0.0064874684640258,-3.013290767614371,3.1742220863989994,2.431281059779673,0.4930568872113542,7.13,0.31,0.432,0.196,1.0,7
134,9.0,1744993554.9043112,16.0,0.0,-5.0,0.0029125865548849,-0.0006696754717268,-0.0050350972451269,-0.0795767307281494,-0.0140954591333866,-9.838802337646484,-0.0019269814842164,0.0063017702332801,-3.013563039871277,2.515934512165722,2.176410975998567,0.5493675093214453,7.13,0.31,0.432,0.196,1.0,8
135,9.0,1744993555.4084997,18.0,0.0,-5.0,0.0121806133538484,-0.0056205005384981,-0.0038359109312295,-0.0041985027492046,0.0167511869221925,-9.85952377319336,-0.0031482725664236,0.0056123029525189,-3.013624796959181,3.194042424909466,1.798205835629596,0.5013717472272675,7.13,0.31,0.432,0.196,1.0,9
136,9.0,1744993555.913723,20.0,0.0,-5.0,0.0088903158903121,-0.0073478152044117,-0.0031612375751137,-0.0418013110756874,-0.0156281758099794,-9.815126419067385,-0.0032665941969757,0.0048201549036921,-3.0128916493754336,2.8094746903341195,1.6086443308542058,0.5552268169727673,7.13,0.31,0.432,0.196,1.0,10
137,9.0,1744993556.4186106,18.0,0.0,-5.0,0.0059172506444156,-0.0069913011975586,-0.0041687977500259,-0.10319834202528,-0.0080550592392683,-9.803333282470703,-0.0037499590816982,0.0049557226617008,-3.012852079763817,2.824190835030296,1.7319626476538192,0.5319761447911369,7.13,0.31,0.432,0.196,1.0,11
138,9.0,1744993556.92314,16.0,0.0,-5.0,0.0082233343273401,-0.0085817845538258,-0.0073228273540735,-0.047847993671894,-0.0425251722335815,-9.849203109741213,-0.0053199102695637,0.0037760151071881,-3.0130744876611524,3.1855608946005662,1.5982699704434138,0.4227516875895734,7.13,0.31,0.432,0.196,1.0,12
139,9.0,1744993557.4284742,14.0,0.0,-5.0,0.0003165511297993,-0.0046591702848672,-0.0071535729803144,-0.0658492147922515,-0.0357681177556514,-9.836623191833496,-0.0049549744858056,0.0036125235435903,-3.013513001702112,2.821103169346044,1.5655623826940706,0.450109664044175,7.13,0.31,0.432,0.196,1.0,13
140,9.0,1744993557.9364662,12.0,0.0,-5.0,-0.0061324345879256,0.0031062867492437,-0.0028397666756063,0.0124668553471565,0.0117606669664382,-9.709080696105955,-0.0051101135171009,0.0038950078817151,-3.013501537340429,3.0732895209938893,2.167824525620837,0.4899732961700794,7.13,0.31,0.432,0.196,1.0,14
141,9.0,1744993558.445452,10.0,0.0,-5.0,-0.0135978031903505,0.0048070158809423,0.0016622913535684,-0.1017049551010131,-0.0704120546579361,-9.826865196228027,-0.0037203469083248,0.0044099095502518,-3.013589251425897,2.694842313818767,1.949104224382325,0.5505942006824104,7.13,0.31,0.432,0.196,1.0,15
142,9.0,1744993558.952958,8.0,0.0,-5.0,-0.0111448345705866,0.0066681178286671,-0.0001307316706515,-0.076444074511528,0.0031187422573566,-9.763833999633787,-0.0043054188826511,0.0049604434214875,-3.0136834391666096,2.983161673169672,2.10028727030443,0.4339136179970082,7.13,0.31,0.432,0.196,1.0,16
143,9.0,1744993559.4570942,6.0,0.0,-5.0,-0.0060657314024865,0.0050197597593069,-0.0002887174196075,-0.0932505428791046,0.0185812041163444,-9.841789245605469,-0.0050234588729602,0.0038599196250416,-3.012996297228772,3.3646399212814613,1.7663090906315912,0.4144211976164561,7.13,0.31,0.432,0.196,1.0,17
144,9.0,1744993559.968724,4.0,0.0,-5.0,-0.0128374379128217,0.0114800278097391,0.0035614618100225,-0.0920415148139,-0.0816978365182876,-9.836766242980955,-0.0035387572325454,0.0068236846718675,-3.0132645317204827,2.8058252261933263,2.3797958768447858,0.5273741270346748,7.13,0.31,0.432,0.196,1.0,18
145,9.0,1744993560.476297,0.0213314164429903,0.0260525662451982,-1.930946350097656,-0.0103742759674787,0.0084540741518139,0.0044136350043118,-0.0548567399382591,0.0229826457798481,-9.813907623291016,-0.0027631047483376,0.0074321111963622,-3.01353249936614,2.914068696246258,2.382588720630014,0.5308520317264002,7.13,0.31,0.432,0.196,1.0,19
146,9.0,1744993560.9818327,0.0184279736131429,0.0302873533219099,-1.9307403564453125,-0.0041814479045569,0.0002476146037224,0.0032758747693151,-0.0281919501721858,-0.0365639254450798,-9.795979499816896,-0.0032168903969776,0.0070055137289625,-3.0133417641922446,3.131781886705164,2.1233075425839303,0.519498033890748,7.13,0.31,0.432,0.196,1.0,20
147,10.0,1744993562.5371966,0.0161523111164569,0.0358355045318603,-1.9198455810546875,0.0080796377733349,-0.0087348753586411,0.0004853813152294,-0.1560976505279541,-0.0165891163051128,-9.80322265625,-0.0046272625235495,0.0066571181235377,-3.0131033455525986,3.487816369715855,2.3262162154539485,0.5693273021102133,13.87,0.1,0.488,0.026,1.0,0
148,10.0,1744993563.0411336,0.0159022621810436,0.0321366377174854,-1.9171295166015625,0.0054860557429492,-0.0120317107066512,-0.0072492556646466,-0.0678399950265884,-0.0290249083191156,-9.767105102539062,-0.0040431601260456,0.006161374895273,-3.014275419453914,3.288771797859452,2.18286728936166,0.50502267761027,13.87,0.1,0.488,0.026,1.0,1
149,10.0,1744993563.5444407,4.0,0.0,-5.0,0.0046002301387488,-0.0089649660512804,-0.0106097040697932,-0.0185723565518856,-0.0729547441005706,-9.820887565612791,-0.0036670679280366,0.0059737405037341,-3.014192930308469,3.33242410434348,2.37743396316123,0.4887084992967078,13.87,0.1,0.488,0.026,1.0,2
150,10.0,1744993564.0502176,6.0,0.0,-5.0,0.0068603651598095,-0.0029572146013379,-0.0101513573899865,-0.0066689513623714,-0.0364898964762687,-9.836522102355955,-0.0041551454617069,0.0057735424895223,-3.013206593748472,3.1536198467107304,2.408578958543425,0.4916243125784422,13.87,0.1,0.488,0.026,1.0,3
151,10.0,1744993564.55505,8.0,0.0,-5.0,0.0003119540633633,-0.0013856010045856,-0.009524549357593,-0.08374984562397,-0.0239645708352327,-9.856446266174316,-0.0038158546596562,0.0054504863775808,-3.0130127663681465,2.6141774594234564,2.4738002313147494,0.4459258416565086,13.87,0.1,0.488,0.026,1.0,4
152,10.0,1744993565.0598962,10.0,0.0,-5.0,-0.0069402884691953,0.0013563354732468,-0.007094994187355,-0.0252985451370477,0.0149769745767116,-9.80650520324707,-0.0030091807043786,0.0049699830478162,-3.013214459102953,2.536425269908261,2.489559376825665,0.5958236837853453,13.87,0.1,0.488,0.026,1.0,5
153,10.0,1744993565.5672936,12.0,0.0,-5.0,-0.006333015859127,0.004100170917809,-0.0083527378737926,-0.0071346461772918,-0.0113924797624349,-9.873808860778809,-0.0032551924004798,0.00445498355404,-3.013714667067529,2.8578473104384043,2.2000973460766424,0.4583572240509546,13.87,0.1,0.488,0.026,1.0,6
154,10.0,1744993566.0741124,14.0,0.0,-5.0,0.0004193043278064,0.0070390128530561,-0.0115852560847997,-0.1261463463306427,-0.0493141748011112,-9.803385734558104,-0.0050847564653217,0.0045840156047304,-3.0136168923978834,3.1655385436788683,2.190019083908549,0.4657068273714861,13.87,0.1,0.488,0.026,1.0,7
155,10.0,1744993566.579038,16.0,0.0,-5.0,-0.0083197820931673,0.010417828336358,-0.0061272522434592,-0.0399923361837863,0.0157375670969486,-9.751615524291992,-0.0037471760167569,0.0047555474422066,-3.0129841415682925,2.807305324761062,2.381162800452336,0.5241517402130358,13.87,0.1,0.488,0.026,1.0,8
156,10.0,1744993567.08263,18.0,0.0,-5.0,-0.0124287959188222,0.0120430504903197,0.0022380186710506,-0.0520336776971817,-0.0209433827549219,-9.732880592346191,-0.0024595879396521,0.0053514897930526,-3.0131377110503688,2.718751109978337,2.3604677054070327,0.5855127009322303,13.87,0.1,0.488,0.026,1.0,9
157,10.0,1744993567.5868423,20.0,0.0,-5.0,0.0012002963339909,0.0069681284949183,0.0003998138417955,-0.1072304397821426,0.0039337314665317,-9.813718795776367,-0.0042482310241084,0.0057603453640255,-3.0137835520437117,3.486817810138964,1.6711347966158028,0.5791273598556625,13.87,0.1,0.488,0.026,1.0,10
158,10.0,1744993568.090756,18.0,0.0,-5.0,-0.0003440211585257,0.0072285425849258,0.0003707600699272,-0.1198009252548217,-0.0803605616092681,-9.862117767333984,-0.0030987837413051,0.0074605970576179,-3.013356574881778,3.074742389852916,2.159291526050802,0.5325935385435537,13.87,0.1,0.488,0.026,1.0,11
159,10.0,1744993568.5960295,16.0,0.0,-5.0,0.0061440216377377,-0.0007672743522562,0.0009531131363473,-0.0412249863147735,-0.0052126869559288,-9.814697265625,-0.0042651821073601,0.0077075699397717,-3.01265657829279,3.235367825770464,1.8821330435938544,0.5584210075747872,13.87,0.1,0.488,0.026,1.0,12
160,10.0,1744993569.0998485,14.0,0.0,-5.0,0.0045413905754685,-0.0052728331647813,-0.0018502324819564,-0.0596491917967796,-0.0816801935434341,-9.835965156555176,-0.0037427272663883,0.008033700992418,-3.013295519192503,3.2165769093709926,2.4358675677177906,0.5868711619518271,13.87,0.1,0.488,0.026,1.0,13
161,10.0,1744993569.6032546,12.0,0.0,-5.0,-0.0006822098512202,-0.0179882440716028,-0.0075072557665407,-0.1627175360918045,-0.0522826872766017,-9.830100059509276,-0.0018532144108304,0.005970195898157,-3.0138129158286544,2.54541695305344,1.7058982668847933,0.5485862819262216,13.87,0.1,0.488,0.026,1.0,14
162,10.0,1744993570.1063805,10.0,0.0,-5.0,0.0016792551614344,-0.015173359774053,-0.0147067736834287,-0.1000746712088584,-0.0816601067781448,-9.85660171508789,-0.0012084442688679,0.0061027025052914,-3.0133150874421157,2.738699911781364,2.1091065766506003,0.4120922522970335,13.87,0.1,0.488,0.026,1.0,15
163,10.0,1744993570.609758,8.0,0.0,-5.0,0.0068537844344973,-0.0163529552519321,-0.0124908229336142,0.0328060090541839,0.0804199650883674,-9.799583435058594,-0.0013103934285893,0.0044551195398372,-3.013589969154255,2.799639125612305,1.6234719828390571,0.4401353520518831,13.87,0.1,0.488,0.026,1.0,16
164,10.0,1744993571.113111,6.0,0.0,-5.0,0.0159764494746923,-0.0139875756576657,-0.008482432924211,-0.0247889943420887,-0.0728103891015052,-9.912967681884766,-0.0029336065217623,0.0024016830705437,-3.014100910148147,3.4791085103490094,1.5703813331546757,0.5082030035652817,13.87,0.1,0.488,0.026,1.0,17
165,10.0,1744993571.6179805,4.0,0.0,-5.0,0.0190410949289798,-0.0003357598034199,-0.0106493970379233,-2.770870923995972e-05,-0.0174684580415487,-9.732806205749512,-0.0036346062183089,0.0024686619385176,-3.0148032972096126,3.461817723020848,2.3553291684431565,0.4432913568667017,13.87,0.1,0.488,0.026,1.0,18
166,10.0,1744993572.1225498,0.0200862549245357,-0.007041351404041,-1.9193267822265625,0.0233564469963312,0.0086855739355087,-0.0035762980114668,-0.146266371011734,0.0570215135812759,-9.826848030090332,-0.0063459793439398,0.0014638801969971,-3.0157414591958545,3.4614023212381904,1.7419548904285538,0.5760896322647797,13.87,0.1,0.488,0.026,1.0,19
167,10.0,1744993572.6275694,0.0338818170130252,-0.0083282636478543,-1.920372009277344,0.008803054690361,0.0148318335413932,-0.0081451209262013,-0.0554589219391346,0.0073960162699222,-9.820547103881836,-0.0065163137271837,0.0018779385194741,-3.0161672749215698,2.801213310477288,1.6947751274859453,0.4479103491018577,13.87,0.1,0.488,0.026,1.0,20
168,11.0,1744993598.0577867,-0.0656773075461387,-0.0163020733743906,-4.96588134765625,0.0230579506605863,0.0118261016905307,-0.4001007378101349,0.0452249273657798,-0.0650032684206962,-8.625965118408203,0.0057151154418421,0.0026244512578006,-3.0127405079061926,2.914030025314833,1.811294693173343,0.4579573177745862,9.63,0.18,0.492,0.228,1.0,0
169,11.0,1744993599.529291,2.390627145767212,0.0297736339271068,-4.8842315673828125,1.0457401275634766,0.0430877059698104,-0.0674495622515678,-0.0370974540710449,0.0222298838198184,-10.379156112670898,-0.2585183967884764,-0.0266006522059939,-2.9941028507618337,3.2788551659311995,1.7262151341468757,0.49969788826295,9.63,0.18,0.492,0.228,1.0,1
170,11.0,1744993600.9144645,3.72105073928833,0.0396639853715896,-5.017021179199219,0.2857927978038788,-0.0544634237885475,-0.0878853350877761,-0.0997774824500083,0.033215194940567,-9.718520164489746,-0.06269763062931,-0.0049817969832109,-2.977571849006261,2.63563096692812,1.945533669287422,0.4478124503557646,9.63,0.18,0.492,0.228,1.0,2
171,11.0,1744993603.6236663,5.990694999694824,-0.0296679325401783,-5.016609191894531,0.5328841805458069,0.0470394752919673,0.0327864848077297,-0.0773475021123886,-0.0277544185519218,-9.85293197631836,-0.1108393341797557,-0.0142126508652381,-2.966005441375418,3.2393539353599405,2.1725214131841435,0.5381889708191515,9.63,0.18,0.492,0.228,1.0,3
172,11.0,1744993605.8289857,7.876947402954102,0.0321106985211372,-4.996070861816406,0.510851263999939,-0.0234681628644466,-0.0018268885323777,-0.02763032913208,-0.0139713967218995,-9.898910522460938,-0.0814630867516353,-0.0080120055071085,-2.966912634285221,3.179011377253486,1.8524594314772624,0.4554203465862543,9.63,0.18,0.492,0.228,1.0,4
173,11.0,1744993608.0574863,9.965880393981934,-0.0075168060138821,-5.00347900390625,0.6020181775093079,-0.003117972286418,0.0104613611474633,0.069461278617382,-0.0065049226395785,-9.81463623046875,-0.0991861701378973,-0.0147013584950054,-2.970252895856682,2.8193230146452377,1.7379432568469673,0.4674397471146959,9.63,0.18,0.492,0.228,1.0,5
174,11.0,1744993609.5912986,12.200522422790527,0.007360144983977,-4.918617248535156,0.7001312375068665,0.0267044100910425,-0.1079715341329574,-0.0194798521697521,-0.0440857596695423,-9.945210456848145,-0.1858198824250961,-0.0212937166687266,-2.9919117889992086,3.447706288283356,1.8834010915020265,0.4545270584776141,9.63,0.18,0.492,0.228,1.0,6
175,11.0,1744993611.6370804,13.698175430297852,0.0028944520745426,-5.048774719238281,0.3036368489265442,-0.0152533315122127,0.0097509827464818,-0.0316585525870323,0.027261696755886,-9.80713176727295,-0.042368394820964,-0.0043711841791806,-2.965777473426108,3.0282169861939647,1.9065202074443437,0.4233793579699819,9.63,0.18,0.492,0.228,1.0,7
176,11.0,1744993614.0942,16.054903030395508,0.0181012153625488,-5.000938415527344,0.5825225710868835,0.0054392055608332,0.0238742101937532,-0.0372003838419914,-0.0232602655887603,-9.884276390075684,-0.1207117009701783,-0.0136401176894644,-2.957019903282976,3.159177612889679,2.3892883669461886,0.5344821442995693,9.63,0.18,0.492,0.228,1.0,8
177,11.0,1744993615.2698743,18.809579849243164,0.079563669860363,-4.761909484863281,1.453513264656067,0.0492261052131652,-0.1465146243572235,-0.0068615525960922,-0.0343927182257175,-10.992488861083984,-0.4253221703053169,-0.0519939893105304,-2.954874600014729,3.172385532129705,2.155908388939898,0.4193821192629938,9.63,0.18,0.492,0.228,1.0,9
178,11.0,1744993616.2590663,19.887680053710938,0.1243927851319313,-4.940353393554688,0.0886646881699562,-0.0838243961334228,-0.2176045626401901,-0.1118301525712013,-0.0335403718054294,-9.712642669677734,-0.1240259778446165,-0.0053243140130203,-2.9454685070198425,3.102440888246045,2.4586500886926754,0.5835324224491338,9.63,0.18,0.492,0.228,1.0,10
179,11.0,1744993617.9406652,17.48189926147461,-0.1354696154594421,-5.088623046875,-1.2840909957885742,-0.0342010036110878,-0.0194902271032333,-0.1518874764442443,-0.0879582017660141,-9.93783473968506,0.1708988573869784,0.020444200492244,-2.910586026131235,3.3755316298015,1.9906797914921208,0.4023434912648475,9.63,0.18,0.492,0.228,1.0,11
180,11.0,1744993618.9904788,15.665305137634276,-0.1416184902191162,-5.076950073242188,-0.991605579853058,0.1156000941991806,0.0172520633786916,-0.1421896666288375,-0.0403509773313999,-9.864519119262695,0.1322005664387261,0.0290437092955295,-2.906483696244917,3.4925274461038,1.8990786241570836,0.4668172771777701,9.63,0.18,0.492,0.228,1.0,12
181,11.0,1744993620.4621935,14.042421340942385,0.0707750096917152,-5.035690307617188,-0.8262568116188049,0.0413273721933364,0.0149429785087704,-0.0563621781766414,0.0441434755921363,-9.903478622436523,0.0702227013005842,0.0418568964942871,-2.900048391963649,3.030389799370622,1.5560380644610616,0.5865499449785887,9.63,0.18,0.492,0.228,1.0,13
182,11.0,1744993622.439898,11.982773780822754,0.0112746749073266,-5.001091003417969,-0.7996506094932556,-0.0884519219398498,-0.0271197464317083,-0.1263067126274109,0.0138349588960409,-9.840877532958984,0.0961385584167131,0.0216031142222717,-2.895716029592465,2.8313345096881943,2.3136708029873403,0.5537358121241949,9.63,0.18,0.492,0.228,1.0,14
183,11.0,1744993624.3334832,9.98578643798828,-0.0995552763342857,-5.008125305175781,-0.715370774269104,0.0655524805188179,-0.0115259299054741,-0.0506114773452281,-0.013138473033905,-9.81696319580078,0.0944199547008067,0.0174344523534384,-2.8985847840155765,2.544840292908427,1.936798263085937,0.5533154225723615,9.63,0.18,0.492,0.228,1.0,15
184,11.0,1744993626.3078864,8.015220642089844,0.0318190157413482,-5.005889892578125,-0.6755086779594421,0.0190743152052164,-0.0138322412967681,-0.1836336851119995,0.027936341241002,-9.812663078308104,0.0861183634355698,0.0360091159855359,-2.899548635151461,2.725145754038455,1.8791430453752085,0.5633815101063051,9.63,0.18,0.492,0.228,1.0,16
185,11.0,1744993628.304,6.03005313873291,-0.0154319554567337,-5.005439758300781,-0.667080819606781,-0.0272209718823432,-0.0122878747060894,-0.1383249461650848,0.0007648165337741,-9.903353691101074,0.0944520288466441,0.022061145869194,-2.9014169108916423,2.6875286254018667,1.689190626622855,0.522611423156448,9.63,0.18,0.492,0.228,1.0,17
186,11.0,1744993630.3417792,4.036271572113037,-0.0417819023132324,-5.003273010253906,-0.628698468208313,0.0408425480127334,-0.0129346502944827,-0.0732899531722068,-0.0093965325504541,-9.79637622833252,0.0909645285496729,0.0236020833664979,-2.903909740847934,3.342989912672196,1.7497643107069505,0.5319237850174291,9.63,0.18,0.492,0.228,1.0,18
187,11.0,1744993632.4012394,2.041583299636841,0.0176293645054101,-5.001319885253906,-0.6248003244400024,0.0078587373718619,-0.0178442597389221,-0.0777929350733757,-0.0315776839852333,-9.815848350524902,0.0867269142193973,0.0271719657595658,-2.905454212512779,3.3081842820162146,2.2363805291854364,0.5206823833870587,9.63,0.18,0.492,0.228,1.0,19
188,11.0,1744993634.4613652,0.0174732487648725,-0.0072768311947584,-5.002677917480469,-0.6210929751396179,-0.0144814392551779,-0.0129495626315474,-0.1338368654251098,-0.0657268017530441,-9.911885261535645,0.0958754077770228,0.0242241331575577,-2.9077590423467985,2.6227113661545447,1.747169700015732,0.5880779299476331,9.63,0.18,0.492,0.228,1.0,20
189,12.0,1744993640.0322688,-0.2830236852169037,0.0452913790941238,-5.028854370117188,-0.0843657180666923,-0.0211221575736999,-0.4008670747280121,-0.0668970793485641,-0.070412665605545,-8.579194068908691,0.0599323799001314,0.0215509645685385,-2.908250491429443,2.676022087966711,2.415436808358882,0.4410659728781408,14.36,0.22,0.271,0.307,1.0,0
190,12.0,1744993642.301187,2.2218868732452397,-0.002173313871026,-4.9764251708984375,0.7877323627471924,-0.0043668807484209,0.1258809268474578,-0.0250019580125808,0.0027398262172937,-10.14423656463623,-0.1480777052982099,-0.0318549105147026,-2.914181847433806,3.444814132892557,2.1040769449224506,0.5482778252464544,14.36,0.22,0.271,0.307,1.0,1
