mission_id,time,real_x,real_y,real_z,vx,vy,vz,ax,ay,az,roll,pitch,yaw,wind_x,wind_y,wind_z,erreur_ok,velocity,rain,fog,snow,is_attack
1,1743260915.07267,0.9268924593925476,0.8797540068626404,-2.0900955200195312,0.0684108510613441,0.1061896011233329,0.0178058147430419,0.0517268404364585,0.0254737958312034,-9.819439888000488,-0.0221020554657462,0.0246538127129938,-1.2531452845289104,2.725510062921024,1.6904910335899568,0.5949675027880178,False,7.75,0.05,0.06,0.06,1
1,1743260915.5783305,0.935569703578949,0.9305500388145448,-2.0837478637695312,0.0932588726282119,0.0925996974110603,0.0110858492553234,0.0167552661150693,0.0620754435658454,-9.787614822387695,-0.0282471851607749,0.0191777324736149,-1.2529411055861663,2.9613514570443917,1.6376880234361717,0.5847045504455632,False,7.75,0.05,0.06,0.06,1
1,1743260916.0834253,10.0,0.0,-5.0,0.1059835776686668,0.0634618997573852,0.0007239245460368,0.0418086200952529,0.111641377210617,-9.868204116821287,-0.0305878337229533,0.0109453029286444,-1.2528788852268935,2.7044132807053542,2.439324563746373,0.4635390148816634,False,7.75,0.05,0.06,0.06,1
1,1743260917.5466435,1.123713135719299,0.9802207350730896,-2.076690673828125,0.0337175205349922,-0.0416888035833835,-0.0014476252254098,-0.0382629819214344,0.2367403656244278,-9.772483825683594,-0.0140318897040677,-0.0048722536758145,-1.252283551302804,3.403327087764968,2.3298679794320902,0.5587010251494127,False,7.75,0.05,0.06,0.06,1
1,1743260918.0496309,1.1479105949401855,0.9233248829841614,-2.077217102050781,-0.0253962613642215,-0.0413427352905273,-0.0060049793682992,0.0516238026320934,0.0688990205526351,-9.848167419433594,-0.0059586674310026,0.0004442418762612,-1.2516842812797513,2.976647175220891,2.285455091035569,0.4985014799835728,False,7.75,0.05,0.06,0.06,1
2,1743260919.8826842,0.952582061290741,0.7856147289276123,-2.0922164916992188,-0.0524672046303749,0.1272653490304947,-0.0007651264895685,-0.0125847673043608,0.1218371987342834,-9.8969144821167,-0.0131997842841505,0.0348045631380486,-1.251576281649767,2.807889219658522,2.481010756612832,0.5622357625058069,False,4.08,0.12,0.23,0.08,1
2,1743260920.3855083,0.8805989623069763,0.8360546827316284,-2.095062255859375,0.0143021112307906,0.1563336253166198,0.000554240134079,0.0136913266032934,0.1517696380615234,-9.860931396484377,-0.0268615829451971,0.0347195890407393,-1.25167883795439,3.4885799560575306,1.9443777075859745,0.4882289835725712,False,4.08,0.12,0.23,0.08,1
2,1743260920.8884249,10.0,0.0,-5.0,0.0823548436164856,0.1437442898750305,0.0019822721369564,-0.0165055319666862,0.0812156200408935,-9.843792915344238,-0.0385435848824582,0.0295995421265794,-1.251318470791872,2.798288497163825,2.220916214805862,0.415957406096887,False,4.08,0.12,0.23,0.08,1
2,1743260921.3912094,0.8594486713409424,1.026871681213379,-2.0977096557617188,0.1389962583780288,0.0893802940845489,0.0044416198506951,-0.0464657023549079,0.0615399703383445,-9.828292846679688,-0.0458499134900173,0.0175823386946064,-1.2515016148270597,3.0018267387777446,1.6386411578525062,0.4894211672429598,False,4.08,0.12,0.23,0.08,1
2,1743260921.895214,0.9338197112083436,1.1033326387405396,-2.0976333618164062,0.1706461757421493,0.0059402557089924,0.0095831248909235,-0.0386569164693355,0.1631982326507568,-9.720969200134276,-0.0439627570210377,0.0008707514139605,-1.2511154396028592,3.4204997689552714,1.941962513182757,0.422242656483848,False,4.08,0.12,0.23,0.08,1
3,1743260965.1611931,0.7789425849914551,0.216414213180542,-4.870529174804688,0.3294878005981445,-0.2644299566745758,0.5624245405197144,0.0745541006326675,-0.0191719308495521,-9.27116870880127,0.002366987031529,0.0033033443779018,0.8534493460099357,2.90666890683836,1.847479096607036,0.4341172954945636,True,6.21,0.35,0.03,0.15,1
3,1743260965.6660235,0.9974797964096068,0.0336972922086715,-4.550148010253906,0.3917095065116882,-0.4415634870529175,0.7500438690185547,0.0540034770965576,-0.058567825704813,-9.648966789245604,0.0001772174808669,-1.722458468017326e-05,0.851992648951336,2.995158873964368,1.7228828461456054,0.4278597490028061,False,6.21,0.35,0.03,0.15,1
3,1743260966.1690474,10.0,0.0,-5.0,0.4028156697750091,-0.6131810545921326,0.8058193922042847,0.1222348734736442,-0.037011332809925,-9.819284439086914,0.0003172657934515,0.0001464881356857,0.8505137089470963,2.7506133618336164,2.309448810854475,0.518086603071726,False,6.21,0.35,0.03,0.15,1
3,1743260966.6721132,1.2945449352264404,-0.6547582745552063,-3.7045745849609375,0.42527636885643,-0.8108624219894409,0.8006376624107361,0.1618118733167648,-0.0292956344783306,-9.848430633544922,0.0004943146372759,-9.226142044660442e-06,0.8501265012606957,2.8039111877074983,2.1186427358590127,0.4895171767646862,False,6.21,0.35,0.03,0.15,1
3,1743260967.1750734,1.4748356342315674,-1.1709637641906738,-3.2742996215820312,0.4630327820777893,-1.025264859199524,0.7727185487747192,0.1135806143283844,0.0183396227657794,-9.919397354125977,0.0004008246352568,0.0001453024896839,0.8498227094805412,2.528179265717706,1.8150950833074988,0.4432108443063436,False,6.21,0.35,0.03,0.15,1
4,1743260968.7152166,2.362661361694336,-3.645640373229981,-1.984901428222656,0.6712826490402222,-1.723381757736206,0.6962961554527283,0.0438721217215061,0.0006666425615549,-9.853999137878418,4.416501547050302e-05,-0.0001755944689199,0.8493018619095426,2.5189109322849537,1.732974173274264,0.4751017273336527,False,9.4,0.37,0.21,0.06,1
4,1743260969.2199702,2.7472362518310547,-4.654835224151611,-1.60858154296875,0.7617455124855042,-1.924467921257019,0.6887921094894409,-0.0127517506480216,0.023594407364726,-9.843517303466797,0.0005457074921836,-0.0002824788165159,0.8491974594214392,2.869083811220854,2.07494370767565,0.4057880946705903,False,9.4,0.37,0.21,0.06,1
4,1743260969.7236743,10.0,0.0,-5.0,0.872551441192627,-2.1300292015075684,0.6882184147834778,0.1016357466578483,0.026068452745676,-9.746124267578123,0.0003201876855521,-0.0003393106320707,0.8488886166707491,3.3130981354170617,1.965344199276842,0.5883939704998573,False,9.4,0.37,0.21,0.06,1
4,1743260970.2269373,5.0,0.0,-5.0,0.9826351404190063,-2.306790351867676,0.6906481981277466,0.2319088280200958,0.0519368723034858,-9.82460117340088,0.0001986599264906,-0.0003064970517694,0.848744758967964,3.39533354263522,2.1830706724538533,0.4758228771899866,False,9.4,0.37,0.21,0.06,1
4,1743260970.7314055,0.0,0.0,-5.0,1.0918269157409668,-2.479178667068481,0.6947709918022156,0.2591035366058349,0.0048817433416843,-9.73265266418457,0.0001390768016678,-0.0001854234439459,0.8486996354390655,3.282715705803313,2.089877215352247,0.5324695717388874,False,9.4,0.37,0.21,0.06,1
5,1743261003.3080869,0.1885862201452255,0.2499701380729675,-4.983329772949219,0.5833175778388977,0.4235959053039551,0.0606853142380714,0.0023015211336314,0.0416980534791946,-9.998533248901367,-0.020416154865608,-0.1788454805660537,-0.9710552298563684,2.546468577301224,1.6744513083970154,0.5733461415498757,True,3.16,0.26,0.03,0.11,1
5,1743261013.0434775,5.190043926239014,0.0590093098580837,-5.008758544921875,-0.5486729145050049,0.2212273180484771,0.0009223179076798,0.0248206686228513,0.1057252660393714,-9.897698402404783,-0.0485363765072907,0.0305682872169374,-1.1562772649144553,3.006437186425199,2.3764204837197376,0.4260323120837391,True,3.16,0.26,0.03,0.11,1
5,1743261015.9675505,10.98732089996338,0.1864774823188781,-4.945976257324219,1.0678142309188845,-0.3213170766830444,0.0431686788797378,0.1018651574850082,0.0829196870326995,-10.328076362609863,0.1434656500353175,-0.2653166372649345,-1.1290487093828054,3.4830506787211477,1.6022595126857873,0.4746903497678614,True,3.16,0.26,0.03,0.11,1
5,1743261021.2899046,5.776056289672852,0.1548538357019424,-4.9549407958984375,0.9734653234481812,-0.3807044327259063,0.0283112749457359,0.0361710302531719,0.0304273124784231,-10.28167724609375,0.1376280389851663,-0.1825160050015566,-1.0543196675823374,3.422912958013204,1.7395828272147629,0.532676766059086,True,3.16,0.26,0.03,0.11,1
5,1743261024.4548523,-1.1307415962219238,0.2854028642177582,-4.997848510742188,-1.3963186740875244,0.0015816265949979,-0.1137577444314956,0.0174590554088354,0.2453513145446777,-10.345049858093262,-0.2363984038958067,0.3089309653845507,-1.0505477772477978,2.588532071161125,2.423037205385678,0.5178436973406392,True,3.16,0.26,0.03,0.11,1
6,1743261042.6067438,0.5125676989555359,2.338630437850952,-5.1038970947265625,0.4713519215583801,2.107588291168213,0.3233106732368469,0.0313025042414665,0.0730976238846778,-12.323835372924805,-0.5493690016027662,-0.4282400446183799,-1.0797791391616596,3.108617572678659,1.9292424190167683,0.5994821138022771,False,8.81,0.22,0.01,0.01,1
6,1743261054.9514058,5.55744743347168,-0.040651474148035,-4.999198913574219,0.0528487153351306,-0.6411258578300476,0.0054488712921738,-0.0547699518501758,0.0881900563836097,-9.99936580657959,0.1131987976883886,-0.0264285903632638,-1.006474295444589,2.7493986072941365,2.091032094366569,0.4932438806419958,True,8.81,0.22,0.01,0.01,1
6,1743261057.5200517,10.79550552368164,-0.0618953183293342,-4.980720520019531,0.885936975479126,0.4924940764904022,0.0518525429069995,-0.0183758363127708,-0.0099579840898513,-10.083377838134766,0.1037048504707475,-0.2271899966225271,-0.9553107294437164,2.66896127380037,1.9690557885164708,0.5628906339288856,True,8.81,0.22,0.01,0.01,1
6,1743261059.913049,3.294415235519409,-0.1092476546764373,-4.853309631347656,-1.7586487531661987,-0.2217254191637039,-0.4405624568462372,0.0126822404563426,0.0851152464747428,-10.713622093200684,-0.2644489155958563,0.4145470166356242,-0.952603110155488,3.0487949803621444,1.9253893422436144,0.4921062642503929,False,8.81,0.22,0.01,0.01,1
6,1743261063.178672,0.0403379797935485,0.0452252812683582,-5.149429321289063,-0.6326047778129578,0.1621685475111007,0.081781081855297,0.0734690204262733,0.1041986495256424,-9.757505416870115,-0.1028606870496234,0.0788506986358578,-0.859348453897028,3.001303440382212,2.1883503954010632,0.4501983939013083,True,8.81,0.22,0.01,0.01,1
7,1743261081.463669,0.0,0.0,-5.0,0.2152702510356903,1.6018517017364502,0.4653815627098083,-0.2077953517436981,0.0681330859661102,-9.238277435302734,0.0043263680187452,0.0047558039385903,-0.9656930536157068,3.242450940840256,1.8603954606487545,0.4515736607048185,False,2.85,0.14,0.27,0.06,1
7,1743261081.9670916,5.0,0.0,-5.0,-0.0040482506155967,1.6987669467926023,0.6878350377082825,-0.2009444534778595,0.0492118261754512,-9.412647247314451,0.00203516608887,0.0018739648751494,-0.954939828929508,3.18074644641292,1.919165489123748,0.4299357906538152,False,2.85,0.14,0.27,0.06,1
7,1743261082.4711812,10.0,0.0,-5.0,-2.884106159210205,5.214012145996094,0.8547516465187073,-0.2468171715736389,0.0644969493150711,-9.866347312927246,0.0009748742426957,0.0009766021270331,-0.945980197420588,2.749803788735079,2.0229859341700123,0.4689693203862386,False,2.85,0.14,0.27,0.06,1
7,1743261082.9752257,5.0,0.0,-5.0,-3.0496416091918945,5.60160493850708,0.8396579027175903,-0.2724186182022095,0.1443673074245453,-9.917330741882324,0.0020148491697824,0.0016265238466742,-0.9407825058182931,2.818587462884203,1.5975341075677916,0.4795750625638832,False,2.85,0.14,0.27,0.06,1
7,1743261083.4798784,0.0,0.0,-5.0,-3.2156598567962646,6.116599082946777,0.7869776487350464,-0.2342513054609298,0.1481261402368545,-10.055105209350586,0.0052299599342904,0.0036825984098153,-0.9425775241831142,2.6438501180267853,2.3045661432858062,0.4591882348400865,False,2.85,0.14,0.27,0.06,1
1,1743261364.6688006,0.0529459565877914,0.0538445562124252,-4.910789489746094,-0.0243580974638462,0.0116501078009605,-0.3821787238121032,-0.036870926618576,-0.0065459683537483,-8.84108829498291,-0.0031732972427798,0.00802294918609,-3.0339587833413417,2.9351933685410394,2.453007392272093,0.544885915717471,True,9.52,0.22,0.035,0.047,1
1,1743261368.863873,6.004037380218506,-0.1433754116296768,-4.838020324707031,1.1357944011688232,0.1752276271581649,0.0140233393758535,-0.0346295535564422,-0.0675893276929855,-10.50571632385254,-0.3293390779023733,0.0083563233194885,3.0977204577378155,3.4496469353209176,2.1454133464038048,0.5675166675646816,True,9.52,0.22,0.035,0.047,1
1,1743261373.0899312,9.92741870880127,-0.0800220817327499,-4.260734558105469,-0.3022650480270386,-0.0710108056664466,0.7896267175674438,-0.0640286654233932,-0.01041906978935,-9.77488613128662,-0.0021374511660732,0.0001113783377875,3.1292580014620754,3.017711070991969,1.5080669990137725,0.4303344225484732,True,9.52,0.22,0.035,0.047,1
1,1743261373.5959897,9.657304763793944,-0.1186727210879325,-3.8325042724609375,-0.3740190863609314,-0.0573323927819728,0.7967320680618286,-0.1230934336781501,-0.0624330937862396,-9.783127784729004,-0.0004963159364953,6.640111735821262e-05,3.129180278804936,3.473007154688468,2.3689258689326413,0.4423349894235057,False,9.52,0.22,0.035,0.047,1
1,1743261374.102115,0.0,0.0,-5.0,-0.4330094456672668,-0.0336875282227993,0.7714502215385437,-0.078813150525093,0.0506625548005104,-9.886653900146484,-0.0002535037128969,1.903002784013977e-05,3.1296347038560466,2.612967321204577,2.450917409073213,0.4326292327928088,False,9.52,0.22,0.035,0.047,1
2,1743261375.6326163,0.0,0.0,-5.0,-0.4701716303825378,0.0382594019174575,0.6975182294845581,-0.0558121986687183,0.1178961247205734,-9.839369773864746,0.000115795661654,-0.0001275876347417,3.131536807843944,3.4429023999490687,1.7237064686108845,0.5181984164677236,False,6.45,0.32,0.032,0.062,1
2,1743261376.1388953,8.46142578125,-0.0580294542014598,-1.8823471069335935,-0.4665734767913818,0.0683160126209259,0.6891258955001831,-0.1073734313249588,-0.1562490761280059,-9.817496299743652,0.0001467407554638,-0.0001242451012249,3.132430400317402,2.8547394682853344,2.298114278043701,0.5465734455256765,False,6.45,0.32,0.032,0.062,1
2,1743261376.643363,8.224806785583496,0.007527417037636,-1.4821624755859375,-0.4614529907703399,0.0998305007815361,0.6843545436859131,-0.1470641642808914,-0.0769531577825546,-9.761561393737791,0.0002169035742863,-1.903443862786578e-05,3.1326135055479307,2.549454606031981,2.1338024833510425,0.573412968461758,False,6.45,0.32,0.032,0.062,1
2,1743261377.1478596,8.008051872253418,0.0802298933267593,-1.1140518188476562,-0.4482844769954681,0.1208427995443344,0.6814283132553101,-0.027739405632019,0.024358432739973,-9.851936340332031,0.0001869063363458,-0.0001511393545092,3.133051720962156,2.764220022621351,1.64661876099433,0.5260251551817168,False,6.45,0.32,0.032,0.062,1
2,1743261377.6535954,0.0,0.0,-5.0,-0.4266118109226227,0.1407868415117263,0.6859656572341919,-0.1201367601752281,-0.0054553188383579,-9.695104598999023,0.0001444619106102,3.0208362993329798e-05,3.1336263106302003,3.4082813067197204,2.258303715129069,0.4840569508013179,False,6.45,0.32,0.032,0.062,1
3,1743261404.2467527,-1.3651138544082642,-0.0689413547515869,-5.0700225830078125,-1.5589423179626465,-0.3394390046596527,-0.317067414522171,0.0677389949560165,-0.2783562541007995,-9.813861846923828,0.1133715974222574,-0.399409917733006,1.9363879229094456,3.264752118982401,1.6137224475565024,0.4240683466079806,True,4.96,0.3,0.039,0.061,1
3,1743261406.8538258,6.7732462882995605,0.1040634587407112,-4.707321166992188,1.6896034479141235,0.0977658703923225,-0.1783383339643478,0.0547193959355354,-0.0508857145905494,-11.175086975097656,-0.160564310924719,0.4727708807659853,1.9417675827643908,3.1319931364330778,1.7675356386533192,0.5640037436020578,False,4.96,0.3,0.039,0.061,1
3,1743261408.9123826,9.65009593963623,0.0079154996201395,-4.98297119140625,0.3553577363491058,-0.1600698381662368,-0.0952555760741233,-0.0165105257183313,-0.133295327425003,-9.715819358825684,-0.0248731927424857,0.025736017352006,2.0032415231284126,3.386208201923828,2.152325425682339,0.4413340583509606,True,4.96,0.3,0.039,0.061,1
3,1743261411.164631,3.983318567276001,-0.0425329878926277,-4.920814514160156,-1.4916503429412842,0.1243290528655052,-0.1842682510614395,-0.0420138724148273,-0.1505208313465118,-10.402260780334473,0.1680361363038493,-0.3076533632662614,2.011718174497855,2.8766664809740887,1.5216662020603362,0.5413434112262585,True,4.96,0.3,0.039,0.061,1
3,1743261413.304273,-0.1262960731983184,0.1384060531854629,-5.041519165039063,-0.6626300811767578,-0.1536766737699508,0.0058176382444798,-0.045040737837553,-0.1520846635103225,-9.809144973754885,0.0728162343291623,-0.1042024376005973,2.068709399330095,3.218643206927321,2.472555780410975,0.4128635491983157,True,4.96,0.3,0.039,0.061,1
4,1743261418.5097032,6.1469035148620605,1.0603201389312744,-2.225250244140625,-0.960350751876831,0.0417400151491165,0.676814079284668,0.0766563937067985,-0.1576429009437561,-9.61497974395752,-0.0007790529702429,0.0023073007445032,2.061251887368038,3.1920416458422785,1.592059221790088,0.4214798172276279,False,2.52,0.1,0.063,0.002,1
4,1743261419.0154848,5.302262783050537,1.052203893661499,-1.8252410888671875,-1.1722596883773804,0.0446342937648296,0.7128570675849915,-0.0658396184444427,-0.1611746251583099,-9.816827774047852,0.0005104741247309,0.0025025309830409,2.0601903017684573,2.9495761061125565,2.032009723190745,0.430286084007929,False,2.52,0.1,0.063,0.002,1
4,1743261419.5207224,4.491776466369629,1.0592968463897705,-1.431304931640625,-1.2957788705825806,0.0664673447608947,0.7112138271331787,0.0744373425841331,-0.1522021293640136,-9.859503746032717,-0.0005378420036403,0.0007718450865444,2.059462011231483,3.1686079513481173,2.4229412608691554,0.5771320935505609,False,2.52,0.1,0.063,0.002,1
4,1743261420.0278945,3.628246784210205,1.091523289680481,-1.0109176635742188,-1.3914854526519775,0.0881944671273231,0.696429967880249,0.0235660169273614,-0.1397572457790374,-9.972171783447266,-0.0003147668550656,0.0004213454564082,2.059049432019012,2.869936326065956,2.025297818693084,0.5320008713011329,False,2.52,0.1,0.063,0.002,1
4,1743261420.531066,2.8322579860687256,1.1475179195404053,-0.6245346069335938,-1.435253381729126,0.1213647425174713,0.6846669316291809,0.0119660319760441,-0.12903393805027,-9.86443328857422,-0.000157409924407,0.000195399865102,2.058566051430485,2.9044238540497087,2.440564190847831,0.5682055344967889,False,2.52,0.1,0.063,0.002,1
5,1743261446.8726208,-0.0020920548122376,0.330917477607727,-4.9559478759765625,-0.5713894963264465,-0.0742153227329254,-0.061889074742794,-0.0229285843670368,-0.011546716094017,-9.830443382263184,0.0960887673737502,0.0008304337466851,2.7599270310830875,2.595849954550095,2.0903334985566038,0.4696371725470732,True,9.71,0.19,0.009,0.039,1
5,1743261449.4297886,6.033603191375732,0.1323536485433578,-4.9273529052734375,1.461879849433899,-0.1818459630012512,-0.0083832973614335,0.0104215824976563,0.0375995337963104,-10.396392822265623,-0.3318063845484282,0.1049660716533494,2.802357425256397,2.536652652034432,1.604457214459715,0.4555653382815752,True,9.71,0.19,0.009,0.039,1
5,1743261453.670425,9.441997528076172,0.1028063297271728,-4.206085205078125,-0.5805758833885193,0.0964873954653739,0.7693572044372559,-0.0558191016316413,-0.0806964561343193,-9.716870307922363,-0.0002735369874108,-0.001101511712651,2.8431942922725835,3.1358912599248536,2.403826552053248,0.5437957692259612,True,9.71,0.19,0.009,0.039,1
5,1743261454.178743,8.973954200744629,0.1772191524505615,-3.759429931640625,-0.7684836983680725,0.0356198884546756,0.7680554389953613,-0.0238070413470268,-0.0096902232617139,-9.854910850524902,-0.0007980249692347,0.0001778152277889,2.8425795484122105,2.6123154845217247,1.5072201771002118,0.4420173387957427,False,9.71,0.19,0.009,0.039,1
5,1743261456.5426834,6.299170970916748,0.0059091350995004,-1.8560256958007808,-1.2728151082992554,-0.2661921977996826,0.667932391166687,-0.0282004103064537,-0.0185840614140033,-9.891654014587402,-2.179824224143822e-05,2.2464008195780647e-06,2.846710027283351,2.7294006575475858,1.711842887378913,0.4981138923299654,False,9.71,0.19,0.009,0.039,1
6,1743261458.0707116,4.181283950805664,-0.5580141544342041,-0.7792892456054688,-1.4874638319015503,-0.4804279208183288,0.6678040027618408,-0.145949438214302,-0.1163792461156845,-9.87993621826172,-7.608697681830861e-07,1.9698744961108768e-05,2.8506557981749387,3.270520649117296,1.8185877582750964,0.5101834773817073,False,4.45,0.14,0.007,0.002,1
6,1743261458.5766864,3.426546335220337,-0.8090245127677917,-0.4365310668945312,-1.5563247203826904,-0.5478023886680603,0.6700955629348755,-0.0656629502773284,-0.1592047065496444,-9.70418643951416,-9.074218489364424e-05,3.4437007521404014e-05,2.852279516458108,2.862307786739,1.7662737247270388,0.5879327834463242,False,4.45,0.14,0.007,0.002,1
6,1743261459.080888,10.0,0.0,-5.0,-1.622042179107666,-0.6177797913551331,0.6730114221572876,-0.1926588714122772,-0.125158354640007,-9.796148300170898,-8.65342695794489e-05,2.040502007946416e-06,2.8531735733020924,3.078203426271233,1.5523422751086262,0.5040305613932656,False,4.45,0.14,0.007,0.002,1
6,1743261459.5851617,1.7973747253417969,-1.4151216745376587,0.255035400390625,-1.6929596662521362,-0.6771010160446167,0.6796435117721558,0.0403932780027389,-0.1439456790685653,-9.847808837890623,-0.0002713602252968,6.250764031614714e-05,2.856702074238838,2.854260895835378,2.131277814741885,0.4634866830117569,False,4.45,0.14,0.007,0.002,1
6,1743261460.0882325,0.9287617802619934,-1.7635419368743896,0.6149826049804688,-1.7111518383026123,-0.7219967842102051,0.6833725571632385,-0.1650788336992263,-0.1495556831359863,-9.792688369750977,0.0005232504902595,-0.0008459826779169,2.863421720504903,2.968443064630251,1.587318037304867,0.4523776820762778,False,4.45,0.14,0.007,0.002,1
7,1743261468.5676825,-2.722744464874268,-3.851362943649292,-5.181900024414063,0.4378583133220672,0.610059380531311,0.9434927105903624,-0.026337306946516,0.0310023389756679,-8.835783958435059,0.0017103504100197,-0.0462610088145922,2.936552377390453,2.966187192605489,2.439482255010446,0.5922649941806163,False,5.61,0.37,0.01,0.099,1
7,1743261469.072442,-0.1995478123426437,0.1222736984491348,-5.2759552001953125,1.7854822874069214,2.828266143798828,1.0122674703598022,0.0245447698980569,0.0378003641963005,-8.342668533325195,0.002269004661504,-0.024397379384969,2.9500067868450826,2.875580125675044,1.5387541985773154,0.5515867141269463,False,5.61,0.37,0.01,0.099,1
7,1743261469.5769372,10.0,0.0,-5.0,2.0608878135681152,3.453242301940918,1.3324339389801023,0.0797525197267532,0.0223465785384178,-9.576985359191896,0.0003061500597096,-0.0093100111357844,2.952649384005665,2.6166623104567863,2.397867474847895,0.5683019589108175,False,5.61,0.37,0.01,0.099,1
7,1743261470.080062,2.7248780727386475,4.940073490142822,-4.2362213134765625,2.000164031982422,3.487612009048462,1.3759870529174805,-0.0641126707196235,0.0833838954567909,-10.472037315368652,0.000207443126416,-0.0044733911994302,2.954326941800328,3.397606495069806,2.3322466724046618,0.5700987818426828,False,5.61,0.37,0.01,0.099,1
7,1743261470.5834925,3.7268242835998535,6.736906051635742,-3.3937225341796875,1.8760870695114136,3.4151394367218018,1.1566492319107056,0.0548673607409,0.0071205152198672,-10.492804527282717,0.0002023666755442,-0.0019633488717284,2.956845149258752,2.5946958481692657,1.9381150515738077,0.481668118551372,False,5.61,0.37,0.01,0.099,1
8,1743261472.2506652,0.0,0.0,-5.0,1.4285061359405518,3.0819337368011475,0.724189281463623,-0.1045796871185302,0.0006005691830068,-9.714873313903809,-0.0002118195046347,-0.0005527113545194,2.967506709960506,2.892920998627176,2.3783369787477078,0.4229094609541757,False,3.33,0.34,0.026,0.013,1
8,1743261472.75409,5.0,0.0,-5.0,1.2946641445159912,2.99067497253418,0.7324822545051575,-0.0603686459362506,-0.0281611755490303,-9.79161548614502,-0.0003194165813002,-0.0006427021471191,2.9718544895023937,3.2942808686191114,1.5553521321056896,0.4210064216859048,False,3.33,0.34,0.026,0.013,1
8,1743261473.2566524,10.0,0.0,-5.0,1.1627682447433472,2.9089064598083496,0.7358362078666687,-0.1294065117835998,-0.0122396545484662,-9.804916381835938,-0.0002550182470042,-8.330331695381485e-05,2.9763319744205283,2.6239173223558216,2.453028254270378,0.5503574705706786,False,3.33,0.34,0.026,0.013,1
8,1743261474.675642,5.0,0.0,-5.0,0.8087573647499084,2.646498918533325,0.7056685090065002,-0.0929715856909751,0.0531679131090641,-9.85944652557373,-0.0002080785049247,6.593967881069657e-07,2.988440800386968,2.8524516881157798,2.1279675744032254,0.5306794236932045,False,3.33,0.34,0.026,0.013,1
8,1743261475.1790276,0.0,0.0,-5.0,0.6889901161193848,2.537749767303467,0.6934910416603088,0.0334824174642562,0.0482716187834739,-9.80335521697998,-0.0002259403585379,3.0219682677961663e-05,2.9923766196068065,2.9014189510777246,2.230996062601193,0.4043592791132779,False,3.33,0.34,0.026,0.013,1
9,1743261490.0441668,0.0,0.0,-5.0,-0.4160608351230621,-1.0476070642471311,-0.1171907857060432,-0.0453415960073471,-0.1032961755990982,-9.90397834777832,0.1623102994687391,-0.2311383379899509,3.1071399138170754,2.5076194962582328,1.557461495178626,0.4201645604699334,False,8.63,0.16,0.062,0.006,1
9,1743261496.467263,5.720647811889648,1.024071216583252,-4.8704681396484375,0.6830446124076843,1.0393364429473877,0.1878673881292343,0.0201390907168388,-0.1147114336490631,-11.226630210876465,-0.2775180196474483,0.3784082669457867,3.133922903259302,2.9577491444855397,2.2553741317071028,0.5405559734432136,True,8.63,0.16,0.062,0.006,1
9,1743261504.4779522,8.758233070373535,1.001336932182312,-4.203048706054688,-0.5047701001167297,-0.3852358758449554,0.7440701723098755,-0.0806508958339691,-0.0656760782003402,-9.809378623962402,-0.0001294471154314,0.0010561739947882,-3.088629144023733,2.743169204854828,1.7185521551760785,0.5598229414298357,False,8.63,0.16,0.062,0.006,1
9,1743261504.9820628,8.536247253417969,0.6972395777702332,-3.768028259277344,-0.4983255863189697,-0.5286815166473389,0.7511380910873413,-0.1207488253712654,0.0051846988499164,-9.85976791381836,0.0004076623183602,0.0003572225417244,-3.0869730973366862,3.3371952210196643,2.2910661888824246,0.4668561789001905,False,8.63,0.16,0.062,0.006,1
9,1743261505.4857447,0.0,0.0,-5.0,-0.5004385709762573,-0.6597708463668823,0.7328389883041382,-0.1714275777339935,-0.0557763613760471,-9.941758155822754,0.000246754977976,0.0002580612285036,-3.085630551460361,3.369871017349859,1.9147720072599572,0.5686005837921405,False,8.63,0.16,0.062,0.006,1
10,1743261507.3308885,0.0,0.0,-5.0,-0.6205902695655823,-1.0761052370071411,0.6668000221252441,-0.0442366823554039,0.007924910634756,-9.751812934875488,-3.775980872302175e-05,0.0001548641349148,-3.08218803734172,2.604453209227672,2.0166409415584887,0.4172182253814709,False,5.81,0.25,0.054,0.001,1
10,1743261507.8338938,6.903197765350342,-2.0944221019744877,-1.4705581665039062,-0.6646570563316345,-1.1709613800048828,0.6637411713600159,-0.1034211665391922,-0.0400501266121864,-9.85345458984375,-0.0001187344252332,2.823671052470023e-05,-3.081628464802528,3.0365799073150934,1.9997992721559497,0.442007235832456,False,5.81,0.25,0.054,0.001,1
10,1743261508.3373332,6.550920486450195,-2.710787057876587,-1.1213150024414062,-0.6992361545562744,-1.265375733375549,0.6672710180282593,-0.1847186237573623,-0.0205797124654054,-9.804547309875488,-0.0001043398474288,6.557436611419252e-05,-3.0809611286065697,3.409217304437375,1.8527564357400808,0.4793882117590207,False,5.81,0.25,0.054,0.001,1
10,1743261508.8429763,6.18063497543335,-3.356839895248413,-0.7790145874023438,-0.750934362411499,-1.3417928218841553,0.668906569480896,-0.1765119433403015,-0.0477407649159431,-9.814753532409668,-0.0001443142312673,4.425726598261818e-06,-3.080367705310399,2.829004971429005,2.333851832359474,0.4342254676810941,False,5.81,0.25,0.054,0.001,1
10,1743261509.3478353,0.0,0.0,-5.0,-0.7971590757369995,-1.4340382814407349,0.6713190078735352,-0.0387349389493465,0.0053912512958049,-9.734853744506836,-9.05397638359221e-05,4.644469845314902e-05,-3.079778091945612,2.767659708762664,1.5093584854532254,0.5191847079205182,False,5.81,0.25,0.054,0.001,1
11,1743261526.0206077,-0.2414290457963943,-0.1712690740823745,-4.9359283447265625,-0.5549455881118774,-0.7165705561637878,-0.0959093272686004,-0.0913795754313469,-0.1310220658779144,-10.005539894104004,0.083363354040663,-0.2023554097648937,2.781177752606147,3.4933057960518226,2.392413052054539,0.4773112800000874,True,2.85,0.03,0.003,0.09,1
11,1743261528.8718014,5.958319664001465,0.4316597282886505,-4.902061462402344,1.131368637084961,-0.079180859029293,-0.0237741861492395,-0.0132189048454165,-0.0375082343816757,-10.288395881652832,-0.2685410096959671,0.1369674116217738,2.7955686766163024,2.7772971462484275,2.47010849297288,0.5529482819114852,True,2.85,0.03,0.003,0.09,1
11,1743261531.3781672,10.062490463256836,-0.2273093312978744,-4.980644226074219,0.6753277778625488,-0.0213719308376312,-0.0083714965730905,0.018642034381628,0.0313154980540275,-9.872676849365234,-0.1204823977802515,-0.0216875053890523,2.81817096571076,3.413892192520034,1.9635483073281268,0.5635560728470584,True,2.85,0.03,0.003,0.09,1
11,1743261535.8425615,4.073400497436523,0.1763738691806793,-4.918067932128906,-1.3880831003189087,0.0259635578840971,-0.1664043217897415,0.0119693130254745,-0.1895449757575988,-10.246488571166992,0.3360315222058594,-0.0960945737763675,2.8048145576510253,2.515650154710788,2.419390190117717,0.5425956040471693,True,2.85,0.03,0.003,0.09,1
11,1743261538.126826,-0.1076671257615089,-0.0819770321249961,-5.019477844238281,-0.6786519885063171,-0.0518055781722068,-0.0174670666456222,-0.0712883025407791,-0.1708298027515411,-9.781654357910156,0.132848222833223,-0.0774555252767676,2.827833369120628,3.19028856326846,2.3282247635790165,0.5652774536664129,True,2.85,0.03,0.003,0.09,1
12,1743261551.077849,-0.4671236276626587,-0.3680606484413147,-5.0196533203125,-0.4538944363594055,-0.8430681228637695,0.0668023899197578,-0.0107084177434444,-0.0747838392853736,-10.214937210083008,0.1099787171376576,-0.2699317840150599,2.8359977937507828,3.0551006509518865,2.336358922881592,0.511051200776989,True,3.9,0.26,0.079,0.043,1
12,1743261555.8113754,4.180665969848633,-0.2011036425828933,-4.904144287109375,-1.082677721977234,-0.2517456114292145,-0.2180982232093811,-0.0380443185567855,-0.0889055058360099,-10.09359645843506,0.2389213686677859,-0.1604627441636425,2.8411782112116986,3.061483129444297,1.8289682103236524,0.5439933775289102,True,3.9,0.26,0.079,0.043,1
12,1743261558.7554932,11.302141189575195,-0.0510520972311496,-4.889450073242188,1.568034529685974,0.3208789825439453,-0.0325027629733085,0.0064862305298447,0.0636856257915496,-10.69749641418457,-0.3896423814205833,0.1233277502721162,2.8484147717966306,2.6302586934575727,2.059344831391984,0.4453380242711957,True,3.9,0.26,0.079,0.043,1
12,1743261561.6605194,3.249428033828736,0.0494684018194675,-4.8714752197265625,-1.6713991165161133,-0.2620266675949096,-0.3796232342720032,-0.1148219928145408,-0.1700345873832702,-10.52493381500244,0.4557122138142825,-0.1747483736943745,2.840082420646263,2.740380607508233,1.7275844009538424,0.4789507670782576,False,3.9,0.26,0.079,0.043,1
12,1743261563.5463014,0.160476952791214,-0.1378891319036483,-5.073539733886719,-0.5095937848091125,0.1758262366056442,0.0532977990806102,-0.0464909896254539,-0.0351364724338054,-9.8199462890625,0.0738868118012118,-0.0402356910062424,2.883010153023401,2.8533157949115475,2.037075196947655,0.5867027561482577,True,3.9,0.26,0.079,0.043,1
13,1743261605.806653,0.2514666318893432,0.1772191077470779,-4.990280151367188,0.1541666984558105,0.7077584862709045,-0.0130024524405598,-0.0231075584888458,-0.0375285372138023,-9.971864700317385,0.1630481388634396,-0.0284789062405313,0.8978375625097753,3.4298652907979434,1.6391454753296073,0.4767748152382781,True,7.88,0.04,0.076,0.026,1
13,1743261608.2208536,6.135205268859863,0.0578211545944213,-4.9332122802734375,0.8655932545661926,-0.6513780951499939,-0.0124835632741451,0.0986462086439132,0.0120670516043901,-10.285736083984377,0.1901039023462239,0.2745536186101973,0.8596144535649107,3.204829713106641,1.7519934196794986,0.5669485776926403,True,7.88,0.04,0.076,0.026,1
13,1743261610.9126663,10.142451286315918,-0.0321683995425701,-4.995750427246094,0.5405480265617371,0.4808963239192962,-0.0015532791148871,0.0330499485135078,-0.0463963076472282,-9.845043182373049,0.1497795820021858,0.0480418022815331,0.8327536774407647,2.9891512145235923,2.4631451353045946,0.4136506517824581,True,7.88,0.04,0.076,0.026,1
13,1743261613.297706,3.630312204360962,-0.0350000150501728,-4.895469665527344,-1.3857005834579468,-0.2562037110328674,-0.2447995841503143,0.0963722690939903,0.0087880454957485,-10.45154094696045,-0.269948000905678,-0.2648048253687993,0.8239923339772438,2.933144564703362,1.7710790707457045,0.5564256607741538,True,7.88,0.04,0.076,0.026,1
13,1743261615.3994737,0.0197990350425243,0.0927706062793731,-5.047370910644531,-0.6160820722579956,0.1197347491979599,0.020089142024517,0.1483663916587829,-0.1155656203627586,-9.86038303375244,-0.0244121392606615,-0.0997918922045156,0.7535939735844872,3.168792735146806,2.41390527930572,0.47919224113871,True,7.88,0.04,0.076,0.026,1
14,1743261622.3975525,-1.0479061603546145,-1.5707974433898926,-5.072357177734375,-0.957575261592865,-1.1614290475845337,-0.4742132425308227,0.1641361564397812,0.0293896086513996,-9.606103897094728,-0.4844101873525708,0.0621119976668352,0.8121485326960008,2.7653246326103345,2.191319051728972,0.5640361800957551,False,9.56,0.24,0.06,0.057,1
14,1743261627.317843,3.812542676925659,-0.3027629256248474,-4.853729248046875,-1.212741732597351,-0.7948512434959412,-0.2993493974208832,0.1446385085582733,-0.0386221632361412,-10.409204483032228,-0.3024820215462839,-0.1291529672417047,0.7731794822055597,2.8013178604862885,1.87133472237213,0.4122725906097594,True,9.56,0.24,0.06,0.057,1
14,1743261629.9900672,12.111310958862305,0.0399766787886619,-4.8272705078125,1.4211310148239136,0.6578123569488525,-0.1079824715852737,0.0103475619107484,0.0137248840183019,-11.21936321258545,0.4637910775791023,0.28739334596868,0.7688424625352029,3.223808959925072,1.8479983725611877,0.5556272143659493,False,9.56,0.24,0.06,0.057,1
14,1743261635.0303245,6.302547931671143,0.1089706495404243,-4.8819732666015625,1.4824624061584473,0.2255597114562988,-0.063782699406147,-0.0253276489675045,0.0348278582096099,-10.876825332641602,0.3470665870765193,0.2257723377680494,0.7572878192085334,3.026069882513082,1.6542082564192628,0.4059119072862107,True,9.56,0.24,0.06,0.057,1
14,1743261639.2391362,-2.136629819869995,-0.2428518384695053,-4.830192565917969,-1.959140419960022,-0.0155032509937882,-0.482636958360672,0.1526218652725219,0.0594214498996734,-10.930070877075195,-0.413368097640869,-0.3468647144348392,0.759292436694235,2.509352725364461,2.4508209695503536,0.4479896659810152,False,9.56,0.24,0.06,0.057,1
15,1743261667.126747,0.0,0.0,-5.0,-1.366879940032959,-2.692976951599121,0.2529627084732055,-0.0243581384420394,-1.7924422025680542,-9.09418487548828,-0.0013072703326911,0.0045402157074736,-2.178817198420185,3.0016972170426794,2.00377590802984,0.4563929865665094,False,3.11,0.05,0.022,0.036,1
15,1743261667.6304803,5.0,0.0,-5.0,-2.092015266418457,-2.243593215942383,0.4910977482795715,0.0047674681991338,-1.656458020210266,-9.493751525878906,-0.000506670056562,0.0015230178455106,-2.215674755162792,2.7414991629552707,2.2524794406013164,0.5629774619555925,False,3.11,0.05,0.022,0.036,1
15,1743261668.1343124,10.0,0.0,-5.0,-2.746595621109009,-1.808873176574707,0.6236533522605896,-0.0710581541061401,-1.4672282934188845,-9.569766998291016,-0.000233294632862,0.0005499448184484,-2.2401432328346127,3.0112812015295063,2.128824128649641,0.4026487931976564,False,3.11,0.05,0.022,0.036,1
15,1743261668.6382158,5.0,0.0,-5.0,12.629759788513184,12.961746215820312,0.7116451859474182,-0.0111067350953817,-1.294676423072815,-9.718120574951172,-0.0001952624199443,0.0001561768916364,-2.2567347900403973,3.3534848840459457,1.5212686845636485,0.5402810316795023,False,3.11,0.05,0.022,0.036,1
15,1743261669.1421752,0.0,0.0,-5.0,11.929227828979492,12.970809936523438,0.7567630410194397,0.0196929071098566,-1.1059494018554688,-9.899029731750488,-0.0021419425708892,6.165975162441161e-05,-2.259747874051478,3.375614507713234,1.7164141659538203,0.5407097794041578,False,3.11,0.05,0.022,0.036,1
16,1743261672.5131886,0.0,0.0,-5.0,8.743279457092285,12.32107162475586,0.6618275046348572,0.1663612127304077,-0.8423191905021667,-9.948728561401367,-0.0033042347438234,-0.0032046330456949,-2.1835518336887785,2.6613877453376213,1.524200237718192,0.4141624290400624,False,5.93,0.07,0.033,0.075,1
16,1743261673.0190463,5.0,0.0,-5.0,7.863182544708252,12.32852840423584,0.6524233818054199,0.1838931888341903,-0.7180753350257874,-9.95173168182373,-0.0019447583747179,-0.0035506680372206,-2.182605598261881,3.370336021275192,1.5718346784570107,0.4549205660769659,False,5.93,0.07,0.033,0.075,1
16,1743261673.522679,10.0,0.0,-5.0,6.937034606933594,12.443092346191406,0.6498705148696899,0.2881567776203155,-0.6278229355812073,-9.970170021057127,-0.0012986034039401,-0.0044453162331642,-2.188302054338743,3.4445835439033288,2.0998408356461047,0.507476062907063,False,5.93,0.07,0.033,0.075,1
16,1743261674.0271306,5.0,0.0,-5.0,6.106542587280273,12.656943321228027,0.6675901412963867,0.3774949610233307,-0.6428906917572021,-9.850833892822266,-0.0001275827131754,-0.0048284235324942,-2.1971317753027884,3.4733213718592726,1.9345798868298576,0.5810915861006811,False,5.93,0.07,0.033,0.075,1
16,1743261674.5311968,0.0,0.0,-5.0,5.312467575073242,12.95942497253418,0.6617176532745361,0.3636573255062103,-0.5342524647712708,-9.922566413879396,0.0008651047903951,-0.0050818753589757,-2.2065959380255986,3.337089647026016,2.140244981424124,0.4327363817885989,False,5.93,0.07,0.033,0.075,1
17,1743261681.1950555,0.0,0.0,-5.0,0.4224706292152405,1.7740825414657593,1.4777820110321045,-1.13437819480896,0.0119054764509201,-7.325188159942627,0.0053786294024041,-0.0003231029981685,-1.932091818623284,2.6505882539606525,1.561403482041234,0.5093630056801847,False,4.75,0.24,0.002,0.036,1
17,1743261681.7010095,5.0,0.0,-5.0,0.5752103924751282,2.3125908374786377,1.7583593130111694,-1.1886930465698242,-0.0967009216547012,-14.33857536315918,0.0024593713460805,-0.0016555813480638,-1.9137153596354597,3.290504067835257,2.280821787987733,0.4471471195690073,False,4.75,0.24,0.002,0.036,1
17,1743261682.2061975,10.0,0.0,-5.0,0.6896302103996277,2.7640442848205566,0.6816482543945312,-1.106622338294983,-0.0454914718866348,-14.484085083007812,0.001242969932155,-0.0012575021483628,-1.8929111730513064,3.0783751000419777,2.071442421567846,0.4933574050198452,False,4.75,0.24,0.002,0.036,1
17,1743261682.7110822,5.0,0.0,-5.0,-8.556907653808594,-3.674713611602783,-0.3516196310520172,-0.9327653050422668,-0.0582539178431034,-12.032153129577637,0.0002685123798017,-0.0010644128626493,-1.4327856899522158,3.016329917301241,1.853388440664287,0.4126101910375655,False,4.75,0.24,0.002,0.036,1
17,1743261683.2154658,0.0,0.0,-5.0,-8.344226837158203,-3.724829435348511,-0.7398858070373535,-0.9351366758346558,-0.0438143238425254,-8.705275535583496,-0.0012766186321333,0.0004383538466652,-1.4183942229820783,3.003817214871988,2.4317878672275,0.5856048293480942,False,4.75,0.24,0.002,0.036,1
18,1743261684.7432024,0.0,0.0,-5.0,-7.281888484954834,-3.8003294467926025,0.5720466375350952,-0.7146391272544861,-0.0736401677131652,-9.21201515197754,-0.004003679007208,0.0069044285784181,-1.4535527626372895,2.674165398573235,2.122244389924866,0.4154986516725902,False,5.5,0.01,0.026,0.015,1
18,1743261685.2484207,5.0,0.0,-5.0,-6.790458679199219,-3.7328734397888175,0.7325208187103271,-0.6420510411262512,0.0008057113736867,-9.666391372680664,-0.0015590744197904,0.0064076355819203,-1.4620591819875417,3.024740050508409,1.5801140694370028,0.410380463968205,False,5.5,0.01,0.026,0.015,1
18,1743261686.6672645,10.0,0.0,-5.0,-5.5408477783203125,-2.849400758743286,0.6969903707504272,-0.4905995726585388,0.0326173789799213,-9.941713333129885,0.0027345252776891,0.0050146543418964,-1.44672639605859,3.344576762671185,2.1652217753488494,0.558635033486539,False,5.5,0.01,0.026,0.015,1
18,1743261687.1724906,5.0,0.0,-5.0,-5.162051200866699,-2.3478026390075684,0.6635200381278992,-0.4090324640274048,-0.0424596033990383,-9.926109313964844,0.0039056157943124,0.0043650558432808,-1.43247524166341,2.809388324790298,2.476570700760065,0.5997597575151847,False,5.5,0.01,0.026,0.015,1
18,1743261687.6773548,0.0,0.0,-5.0,-4.837640285491943,-1.7154033184051514,0.6389108896255493,-0.4631827175617218,0.000115280970931,-9.934937477111816,0.0049688528655461,0.0036115082276081,-1.4167579984080698,2.626464288412444,1.9036276571805597,0.5599213536361454,False,5.5,0.01,0.026,0.015,1
19,1743261723.241926,0.2396809756755828,0.3779390752315521,-5.016716003417969,0.4432618021965027,0.668720006942749,0.0709409788250923,0.0358889400959014,0.0134635064750909,-10.09792709350586,-0.1283668859243746,0.2246169608298419,-3.087979696328921,3.078498593930126,1.6793922964849193,0.4177163805345739,True,3.2,0.36,0.047,0.08,1
19,1743261729.8829825,3.6375794410705566,1.1239776611328125,-4.281524658203125,-0.1892672628164291,0.7090550661087036,0.8078339099884033,-0.0231600850820541,0.0446369051933288,-9.692934036254885,0.0010675338952551,-0.0001272098320842,-3.0584453585711158,2.7220413745352854,2.181876302018864,0.4294369066824693,False,3.2,0.36,0.047,0.08,1
19,1743261730.385684,3.6398637294769287,1.5734602212905884,-3.8690338134765625,-0.1837290078401565,0.839323103427887,0.8190167546272278,-0.0391899980604648,-0.0366110131144523,-9.876237869262695,0.0008091941676508,-0.0001856022931785,-3.0563446222789903,3.0542962096767345,1.9478120800786172,0.4081660273108679,False,3.2,0.36,0.047,0.08,1
19,1743261730.8898015,3.616347789764404,2.11649489402771,-3.412322998046875,-0.2090211808681488,0.9728797078132628,0.7962160706520081,0.0061971694231033,0.0320429876446723,-9.938326835632324,0.0005080570695815,-0.0001941650560401,-3.0551527759766164,2.5488693451644586,2.4523890350635598,0.4598482853373407,False,3.2,0.36,0.047,0.08,1
19,1743261731.3945014,3.553729772567749,2.6863608360290527,-2.988983154296875,-0.2350576817989349,1.0924439430236816,0.7684028744697571,-0.1501858383417129,-0.0572378002107143,-9.792353630065918,0.0003242614394407,-0.0001867220046884,-3.053866267201753,3.434809459487425,2.330716738968797,0.5948994928952589,False,3.2,0.36,0.047,0.08,1
20,1743261733.1961567,2.979665994644165,5.157754898071289,-1.6114273071289062,-0.4528603851795196,1.496493220329285,0.7049729824066162,-0.0847143530845642,-0.0131735764443874,-9.851841926574709,-3.006538122037713e-05,-0.0002149201080494,-3.0506480864018863,2.794081971111805,2.4653566394131365,0.402059043496669,False,4.72,0.11,0.02,0.022,1
20,1743261733.7014377,2.7272911071777344,5.946131229400635,-1.2598114013671875,-0.5267936587333679,1.5972018241882324,0.7027453780174255,-0.0471986010670661,-0.0689539313316345,-9.824949264526367,0.0002838284536932,0.0005781547201728,-3.0498641735816445,2.9299591866401307,2.233157017555933,0.4964128615460248,False,4.72,0.11,0.02,0.022,1
20,1743261734.2050967,10.0,0.0,-5.0,-0.6072496175765991,1.7033798694610596,0.7055965065956116,-0.0737352818250656,0.0164342299103736,-9.86498737335205,-0.0002143415372604,-0.0003092846154695,-3.048863293764539,2.846601390819609,2.408574647716695,0.5507084370825679,False,4.72,0.11,0.02,0.022,1
20,1743261734.708992,5.0,0.0,-5.0,-0.6791728734970093,1.804401516914368,0.7062310576438904,-0.0213260278105735,0.004797589033842,-9.766897201538086,-0.0001096941166948,-0.0001360867627578,-3.04779828307793,3.192387609464869,2.3646331137174177,0.4308553787288667,False,4.72,0.11,0.02,0.022,1
20,1743261735.21253,0.0,0.0,-5.0,-0.7458403706550598,1.8990740776062007,0.7096949219703674,-0.1383354216814041,-0.0299133695662021,-9.753482818603516,-0.000102114577524,-0.0001493725675316,-3.0468172116683685,3.451838106506835,1.6408345001685452,0.5697347895598499,False,4.72,0.11,0.02,0.022,1
1,1743262280.2787406,0.0359756536781787,0.0513088591396808,-4.927894592285156,-0.0308534633368253,-0.0039777685888111,-0.3631399273872375,-0.124555766582489,-0.0277936086058616,-8.858095169067383,0.0009974015290929,0.0057154853883885,-3.0300065151055766,2.902905238102174,2.1764964677236494,0.4678826944635145,True,4.45,0.36,0.087,0.053,1
1,1743262284.5399635,5.945949077606201,-0.1631455868482589,-4.855094909667969,1.196784257888794,0.195050835609436,0.013346935622394,-0.0290540736168622,-0.0036664903163909,-10.518351554870604,-0.3266955442818383,0.0031436818542534,3.106355980861057,3.4945477591686678,2.3065979479148897,0.4095989950648432,True,4.45,0.36,0.087,0.053,1
1,1743262286.9186106,10.127784729003906,0.0774248763918876,-4.959449768066406,0.6434690952301025,-0.0098259523510932,-0.0236729178577661,-0.1000458300113678,-0.0101426942273974,-9.791163444519045,-0.1375329441154682,0.0125412922057113,3.123648960524324,3.383633374341222,1.762708400812191,0.551159939675847,True,4.45,0.36,0.087,0.053,1
1,1743262289.316842,3.6522176265716553,-0.1542326062917709,-4.901412963867188,-1.4890499114990234,0.1405098289251327,-0.2629096210002899,-0.1957421749830246,-0.0015734769403934,-10.443432807922363,0.3914876560978789,-0.0089592222495973,-3.1346398880973454,3.210514881861656,1.86726328573737,0.5938879948672394,True,4.45,0.36,0.087,0.053,1
1,1743262291.3769555,-0.0030714094173163,0.169255793094635,-5.076683044433594,-0.6497098207473755,-0.035188652575016,0.0485187321901321,-0.018819760531187,-0.0100018922239542,-9.849448204040527,0.1071409777383445,0.0256851578286353,-3.125133658113679,2.7200294717509865,2.061801272972968,0.5769931791460967,True,4.45,0.36,0.087,0.053,1
2,1743262296.441424,-0.2058406919240951,0.1026082783937454,-5.018798828125,0.0089832730591297,-0.018913809210062,-0.38816037774086,-0.1187379509210586,-0.0833504945039749,-8.647263526916504,0.0373373859378202,0.0178374712661508,-3.127147108527601,3.474032739441916,1.830746078195008,0.5698521971464323,True,6.96,0.1,0.024,0.11,1
2,1743262300.1711435,3.834957838058472,-0.6581476926803589,-5.129508972167969,-1.5392024517059326,-0.2714938223361969,-0.1629615277051925,-0.0763203725218772,-0.0134199736639857,-10.023486137390137,0.3121121990957971,0.0600050772281547,-2.5586049452027657,2.894244201614573,1.7715545267710402,0.447294852711085,True,6.96,0.1,0.024,0.11,1
2,1743262302.9837065,11.874080657958984,-0.1627490073442459,-4.820953369140625,1.206574320793152,0.3817424476146698,-0.0781800001859664,-0.0265199970453977,-0.0527472607791423,-11.21606731414795,-0.4502360943914358,-0.2149393536328372,-2.6255035719884816,3.077725434867717,2.0794765768107584,0.4600474689919537,False,6.96,0.1,0.024,0.11,1
2,1743262307.9654777,6.5576276779174805,-0.249599739909172,-4.882942199707031,1.2127240896224976,0.3185327649116516,-0.0439860932528972,-0.0636709555983543,0.0321080945432186,-10.943647384643556,-0.3634671431622763,-0.1944594500319981,-2.6364736313898605,2.547289657249216,2.0895765212274475,0.565268307434423,False,6.96,0.1,0.024,0.11,1
2,1743262310.5178566,-2.2017595767974854,-0.1797860413789749,-4.857856750488281,-1.99699342250824,0.0368222072720527,-0.5035353899002075,-0.1145712435245513,0.0550410188734531,-10.971543312072754,0.5009665063999108,0.2391820989507945,-2.6331639215083125,2.657293888559132,2.0969043672203966,0.4956189593816001,False,6.96,0.1,0.024,0.11,1
3,1743262354.155523,0.3655926287174225,0.1579295843839645,-5.010658264160156,-0.0132465893402695,-0.4697639048099518,0.0122360493987798,0.0970117300748825,0.0519743300974369,-9.91301727294922,0.0742424744400463,0.0410198041771483,0.4614100782696204,3.442871004635221,1.8416839184101648,0.5238303217714494,True,3.45,0.29,0.179,0.188,1
3,1743262358.6482909,5.808623790740967,1.1498483419418335,-4.180221557617188,-0.4368463158607483,0.8380723595619202,0.7749201655387878,0.0550415180623531,0.0157418921589851,-9.887161254882812,0.0012288157601893,1.5048088795816847e-05,0.4180965450276021,2.5470666294909208,2.236310062568494,0.4983267193205358,False,3.45,0.29,0.179,0.188,1
3,1743262359.1534543,5.3506178855896,1.6617460250854492,-3.7554855346679688,-0.488122284412384,0.996813178062439,0.7718889713287354,0.1050318554043769,-0.0409932397305965,-9.875284194946287,0.0015360465309633,0.0008961964398924,0.4203361282344285,3.493570815521756,1.5989009790015023,0.5419868138329206,False,3.45,0.29,0.179,0.188,1
3,1743262359.6570597,4.9504923820495605,2.2418432235717773,-3.335205078125,-0.490447461605072,1.1458138227462769,0.7475578188896179,0.0419008694589138,0.0305045638233423,-9.807768821716309,0.0008579716519659,0.0005662176167147,0.4222390486833973,3.1468034266145284,1.7470541587647317,0.5654023056545368,False,3.45,0.29,0.179,0.188,1
3,1743262360.161926,4.60389518737793,2.9460670948028564,-2.898468017578125,-0.4464735388755798,1.3000080585479736,0.7215431332588196,0.1433592438697815,-0.0320945307612419,-9.891497611999512,0.0003921396764346,0.0003213336569198,0.4238967763352144,2.67121553549272,1.7756445913691357,0.5440064454269934,False,3.45,0.29,0.179,0.188,1
4,1743262363.8045352,0.0,0.0,-5.0,0.3979569673538208,2.266274929046631,0.694144606590271,0.0081382989883422,0.0129019264131784,-9.791516304016112,-0.0005745128344078,-0.0007329799073668,0.4311030048015203,3.445810418435571,2.1559396446614008,0.4713080862841301,False,7.67,0.18,0.271,0.202,1
4,1743262364.3101742,5.0,0.0,-5.0,0.51174396276474,2.394605875015259,0.6979860663414001,0.0498988479375839,-0.0813641846179962,-9.77775764465332,-0.0001251811869207,8.017502180913041e-05,0.4318589890143296,3.164443940558221,2.188445675185773,0.4337642057707199,False,7.67,0.18,0.271,0.202,1
4,1743262364.8127916,10.0,0.0,-5.0,0.616459310054779,2.5223538875579834,0.701362669467926,-0.0407706946134567,0.00529520586133,-9.80756378173828,-4.83747478802404e-05,-1.0861195248968425e-05,0.432891601237705,3.237531056270911,2.43123000367904,0.511926665625842,False,7.67,0.18,0.271,0.202,1
4,1743262365.3165774,5.0,0.0,-5.0,0.7233331203460693,2.6547882556915283,0.7067906856536865,0.0062887854874134,-0.0665842816233635,-9.80500030517578,-4.002516044019541e-05,1.990410754690742e-05,0.4339890662335562,3.317134118433372,1.9549848565284305,0.551904580123296,False,7.67,0.18,0.271,0.202,1
4,1743262365.8207858,0.0,0.0,-5.0,0.8172163367271423,2.774853467941284,0.7058374285697937,0.085309587419033,-0.0026011206209659,-9.78762149810791,-4.257541039652704e-05,-3.216559467742034e-05,0.434939589700629,3.4723754128117257,2.0368001316972726,0.459399105678013,False,7.67,0.18,0.271,0.202,1
5,1743262373.410745,0.0,0.0,-5.0,-0.3005323708057403,-2.0216970443725586,1.6303088665008545,0.0644195228815078,0.00304333306849,-9.94607925415039,-0.0005268414514813,-0.0049464494227766,-1.3594404239121929,2.814608255318075,2.209723491787905,0.5793306540306158,False,2.6,0.25,0.001,0.212,1
5,1743262373.9144466,5.0,0.0,-5.0,4.769259929656982,4.125389575958252,1.9741235971450808,-0.0848212391138076,0.0383999235928058,-12.12602996826172,-0.0003356473320892,-0.0026284361817797,-1.3233643945702216,3.2849194679295106,1.850753372885698,0.4677790457668636,False,2.6,0.25,0.001,0.212,1
5,1743262374.419078,10.0,0.0,-5.0,4.847546577453613,4.0844502449035645,1.261436104774475,-0.1167825609445571,-0.0255044437944889,-10.95871925354004,-9.641025998015544e-05,-0.0012728816160898,-1.2968175408627574,2.609188002069958,1.780589548994299,0.4891362439506637,False,2.6,0.25,0.001,0.212,1
5,1743262374.922918,5.0,0.0,-5.0,4.910094261169434,4.048338890075684,0.838343620300293,-0.0184321366250515,-0.0060918983072042,-10.519926071166992,0.0005628851766481,-0.0008708968465238,-1.27826475558232,2.982060861062653,2.384186412228152,0.4338914171619427,False,2.6,0.25,0.001,0.212,1
5,1743262376.3786483,0.0,0.0,-5.0,4.959418296813965,4.038750171661377,0.6051160097122192,0.0228908620774745,-0.0282496474683284,-9.5558500289917,0.0011635492965358,-0.0006929379485642,-1.25112391688372,2.7920677639901736,2.006221964404155,0.5046777181936204,False,2.6,0.25,0.001,0.212,1
6,1743262378.0366323,0.0,0.0,-5.0,4.886981010437012,4.186010837554932,0.7338488698005676,-0.030059590935707,0.0462038405239582,-9.715036392211914,0.0015411855356155,-0.0006529901623349,-1.240601057642063,3.403969973730376,2.0163016095978405,0.4194877073431913,False,6.77,0.19,0.282,0.248,1
6,1743262378.5396812,5.0,0.0,-5.0,4.834269046783447,4.284618377685547,0.7387104034423828,-0.0531881973147392,-0.0232004038989543,-9.843835830688477,0.0017029109582967,-0.0006538935888289,-1.2391015892573694,3.255037267993876,1.8143987801081731,0.5282020486271286,False,6.77,0.19,0.282,0.248,1
6,1743262379.04402,10.0,0.0,-5.0,4.779350757598877,4.410180568695068,0.7344944477081299,-0.0485876835882663,-0.016374347731471,-9.864240646362305,0.0018863882887181,-0.0005709263786986,-1.2380871236114663,3.2485681909537174,2.298970951937757,0.5562587140643981,False,6.77,0.19,0.282,0.248,1
6,1743262379.547477,5.0,0.0,-5.0,4.717196941375732,4.574514389038086,0.7226861715316772,-0.0821000039577484,0.0240267757326364,-9.811745643615724,0.0022575256896303,-0.0006046313524366,-1.2374564216784951,3.202350552073708,1.8511986201016333,0.4576245286063725,False,6.77,0.19,0.282,0.248,1
6,1743262380.0522816,0.0,0.0,-5.0,4.6398515701293945,4.784713745117188,0.7128587961196899,-0.2094282358884811,0.0382339134812355,-9.854710578918455,0.0025323698114304,-0.0006647083916389,-1.2369366940790794,2.769671788870298,1.6972537428367576,0.5677390510621759,False,6.77,0.19,0.282,0.248,1
7,1743262412.559741,0.5527982115745544,-0.148047000169754,-4.964141845703125,0.7690854072570801,-0.079094648361206,0.0583210662007331,-0.0189585722982883,-0.0441702082753181,-10.206867218017578,-0.2739103122031158,0.00077711439171,2.9003774961039173,2.702051786099111,2.0962574183708838,0.5121419564700317,True,4.6,0.1,0.177,0.206,1
7,1743262415.5122228,5.276312828063965,0.3306638300418854,-4.989799499511719,0.5767447352409363,-0.0926486104726791,0.0284021589905023,0.0767254382371902,-0.0868494063615799,-9.970293998718262,-0.1485834309449128,0.0540725477758955,2.947112826739921,3.4849988969414,2.1849860674798958,0.4402722762280384,True,4.6,0.1,0.177,0.206,1
7,1743262419.726108,10.449854850769045,-0.1824704706668853,-4.983985900878906,0.909822642803192,0.0830768197774887,0.0326506048440933,0.0533774718642234,-0.0505736134946346,-10.090410232543944,-0.2198257146217772,0.0051282014129889,2.948909050035603,2.795181197430207,1.9288797953057293,0.5211911523562909,True,4.6,0.1,0.177,0.206,1
7,1743262422.1815505,3.302623748779297,-0.0305272545665502,-4.838836669921875,-1.8506666421890257,0.0894197598099708,-0.4556065797805786,-0.1007641330361366,-0.0061293840408325,-10.728535652160645,0.4662738482843424,-0.0947248725279155,2.953795277732509,3.2312543918934,2.3917008355911333,0.5422920382860168,False,4.6,0.1,0.177,0.206,1
7,1743262423.8016586,-0.0759727582335472,0.0858983397483825,-5.143234252929688,-0.7402034997940063,-0.0047399247996509,0.0564526468515396,-0.1270353496074676,-0.0968824923038482,-9.700006484985352,0.1441428566192553,-0.0241868655278612,2.983117366677472,3.4352516279490017,1.824566992956459,0.521889412549585,True,4.6,0.1,0.177,0.206,1
8,1743262451.2705822,0.0808542445302009,-0.1621675342321396,-5.00286865234375,0.3370936512947082,-0.5710299015045166,0.0040912786498665,0.0008753892034292,-0.0550000816583633,-9.943097114562988,-0.0871721665640948,-0.1352873606071682,2.9483779277889925,2.5551402234777,2.147572361156181,0.5180223225028125,True,2.13,0.35,0.174,0.142,1
8,1743262456.733196,5.5059428215026855,0.4531260132789612,-4.973121643066406,0.6289371848106384,-0.2334422916173935,0.02506142295897,-0.091677188873291,-0.0730391293764114,-9.99181079864502,-0.1694025490161971,0.0498836622504,2.9816086833486923,2.688192730886034,2.3707524002368454,0.4142011246530454,True,2.13,0.35,0.174,0.142,1
8,1743262459.922799,10.311919212341309,-0.1631191074848175,-4.993293762207031,0.7536002993583679,0.1676487475633621,0.0363780185580253,-0.0160053949803113,-0.0644552111625671,-9.95682430267334,-0.1624568769621715,0.0036544825698339,2.966879175299112,3.329728336384724,2.1375287629939184,0.4971402958566051,True,2.13,0.35,0.174,0.142,1
8,1743262463.1332223,4.263059616088867,0.1207145154476165,-5.005142211914063,-1.083633542060852,-0.2047686278820037,-0.0768699198961258,-0.1008512675762176,0.0094204246997833,-10.107748031616213,0.2764538885524117,-0.0732592786927714,2.936121219848406,2.992404568695985,1.7741519809105282,0.5200505495921108,True,2.13,0.35,0.174,0.142,1
8,1743262465.941779,-0.138989046216011,0.0072522154077887,-5.028099060058594,-0.7433130145072937,0.1009600088000297,0.0043062679469585,-0.0877315327525138,-0.0027550309896469,-9.92148208618164,0.1576001872240974,-0.0300556691438264,2.937020582935176,2.8022579143073143,2.2212696467312614,0.5835062396222587,True,2.13,0.35,0.174,0.142,1
9,1743262485.9528527,0.0,0.0,-5.0,2.4746756553649902,-2.752709150314331,1.0520124435424805,-0.0463833548128604,-0.0878001600503921,-8.463277816772461,0.0089192831754927,-0.0016009519433568,2.739949004511028,3.0337060559509847,2.2386373311173986,0.4802295636679094,False,8.69,0.08,0.104,0.09,1
9,1743262488.274557,5.0,0.0,-5.0,3.4780113697052,-0.8867928981781006,1.311930775642395,0.0594406090676784,-0.0500006526708602,-9.19029712677002,0.0046581572960121,1.3389042929267547e-06,2.762771481839088,3.22208468620596,2.0126908879650665,0.5994255049860462,False,8.69,0.08,0.104,0.09,1
9,1743262488.779781,10.0,0.0,-5.0,3.613156318664551,-0.5861130952835083,1.4241502285003662,0.0337931439280509,-0.0764111503958702,-10.174766540527344,0.0022073102504437,0.0005806987633085,2.779916051219374,2.539033627120207,2.0723050352996752,0.5366140240750098,False,8.69,0.08,0.104,0.09,1
9,1743262489.2825484,5.0,0.0,-5.0,3.579397439956665,-0.5900841355323792,1.2888392210006714,0.0694010332226753,-0.0760125443339347,-10.552481651306152,0.0012099160750164,0.0003726574638485,2.7934096225404024,2.629854490432074,2.032795991447273,0.5825907364452433,False,8.69,0.08,0.104,0.09,1
9,1743262489.7873468,0.0,0.0,-5.0,3.516422986984253,-0.6255995631217957,1.0346897840499878,-0.0964663624763488,-0.1720622777938842,-10.377787590026855,0.0006410127851222,0.0003578681787287,2.803575365271466,3.433093799110848,2.3783885707024623,0.486738925155399,False,8.69,0.08,0.104,0.09,1
10,1743262491.5403392,0.0,0.0,-5.0,3.1988625526428223,-0.6941347122192383,0.7362308502197266,-0.024184625595808,-0.0694922283291816,-9.755889892578123,0.0006887516771077,-0.0006087226380287,2.821959715109213,2.9837087035095937,1.82370022475854,0.4925985774330774,False,8.45,0.3,0.105,0.297,1
10,1743262492.0448904,5.0,0.0,-5.0,3.1115801334381104,-0.701480507850647,0.74301677942276,0.01811483502388,-0.0021602846682071,-9.840476989746094,0.0006030231622209,-0.0003769884741504,2.824724466724152,2.8010302771619706,1.807747639594029,0.5180455056852249,False,8.45,0.3,0.105,0.297,1
10,1743262492.548688,10.0,0.0,-5.0,3.0112733840942383,-0.717628002166748,0.7405920624732971,-0.0521082989871501,-0.1110656857490539,-9.845340728759766,0.0001884810854027,-0.0005030946562135,2.827694680973729,3.26278972232225,1.7295593066825667,0.4531533860794176,False,8.45,0.3,0.105,0.297,1
10,1743262493.998218,5.0,0.0,-5.0,2.6442251205444336,-0.7673090696334839,0.719244658946991,0.0213450826704502,-0.0651753544807434,-9.834043502807615,2.673859192910598e-05,8.641745692737384e-05,2.836203395618334,3.465674696981353,2.21084861852658,0.588989601050611,False,8.45,0.3,0.105,0.297,1
10,1743262494.501878,0.0,0.0,-5.0,2.493833303451538,-0.8069347143173218,0.7095956206321716,0.0617169961333274,-0.052504900842905,-9.869486808776855,-0.0001174260769439,7.953539671805457e-05,2.838832243277692,3.209411308570961,1.6895185644829271,0.5228854202992566,False,8.45,0.3,0.105,0.297,1
11,1743262505.2010202,-1.4851993322372437,0.8955399394035339,-5.186607360839844,-1.986262917518616,0.7696227431297302,0.1153774857521057,-0.0878088027238845,-0.010166035965085,-10.728907585144045,0.5354014402411088,0.161215284319722,3.0638082497892185,2.957245656912031,1.5533728796712394,0.4940383650156784,False,7.97,0.19,0.097,0.219,1
11,1743262524.1695728,4.473212242126465,0.3808099031448364,-4.957557678222656,-0.7070366144180298,-0.3255221545696258,-0.1030459478497505,-0.126359075307846,-0.0881029814481735,-9.918172836303713,0.1708430475955987,-0.0140625609509196,2.979622175474549,3.296543888849378,1.511748287567316,0.5529136163540034,True,7.97,0.19,0.097,0.219,1
