mission_id,time,real_x,real_y,real_z,vx,vy,vz,ax,ay,az,roll,pitch,yaw,wind_x,wind_y,wind_z,erreur_m,velocity,rain,fog,snow,is_attack
2.0,1747220399.6458547,0.4693610966205597,0.5166828632354736,-2.2213287353515625,0.014151107519865,0.0118080433458089,0.0066880802623927,-0.0106449723243713,0.0713726580142974,-9.770621299743652,-0.0070494048343641,0.0102843552854578,-2.6276116826638383,3.428802181914845,1.589200443448024,0.5176997402313259,3.2141609528277777,6.03,0.04,0.053,0.165,1.0
2.0,1747220400.1508274,0.4733066856861114,0.516626238822937,-2.220428466796875,-0.0018955554114654,0.0054738577455282,0.0096042435616254,-0.0828201919794082,0.0228287000209093,-9.75098705291748,-0.0048961595484398,0.0100590295544316,-2.6270905032844167,2.5036292381265515,1.794970819055565,0.5987501762918428,2.870307827546994,6.03,0.04,0.053,0.165,1.0
2.0,1747220400.6562672,0.4742442965507507,0.5183696746826172,-2.220565795898437,-0.000237959131482,0.0098894219845533,0.0071156090125441,-0.1101464927196502,-0.0154592040926218,-9.84351921081543,-0.0061795157185432,0.0112689635986831,-2.6267319881283413,3.202832046558898,1.9610438011069544,0.5375617927993657,2.698610963000404,6.03,0.04,0.053,0.165,1.0
2.0,1747220401.1602657,0.4748272895812988,0.5199295282363892,-2.220245361328125,-0.0006663204403594,0.0108118094503879,0.0066562560386955,-0.0992626994848251,0.0045855827629566,-9.882515907287598,-0.0063541667646832,0.0108850533465739,-2.6267665484040585,2.967217821245913,2.25123571657332,0.5618494207956061,2.7581179519913293,6.03,0.04,0.053,0.165,1.0
2.0,1747220401.664096,0.4708960950374603,0.5211691856384277,-2.2208480834960938,-0.0023036575876176,0.0084687015041708,0.0029371597338467,-0.1313001811504364,-0.0470089986920356,-9.808177947998049,-0.0056403978834622,0.0111486302366351,-2.6271479501371844,3.360674810051637,1.863842229616817,0.4580875830975812,3.0431209650337148,6.03,0.04,0.053,0.165,1.0
2.0,1747220402.1672962,0.4635072350502014,0.5225184559822083,-2.219444274902344,-0.0010470752604305,0.0055876462720334,0.0060947639867663,-0.1476607620716095,0.0406988821923732,-9.850605964660645,-0.00483665991198,0.0115713235705687,-2.62740236851618,3.283514198333076,2.056682634109851,0.5585604714783655,3.4848821430044032,6.03,0.04,0.053,0.165,1.0
2.0,1747220402.6716588,0.4559347629547119,0.5271612405776978,-2.21771240234375,0.0051828529685735,0.0098825395107269,0.0044307187199592,-0.1290511041879654,0.0612048171460628,-9.822149276733398,-0.0050155519924243,0.0129316504269625,-2.627375079733489,3.4383577918173005,2.182264285319671,0.5187607978387377,4.001416525046045,6.03,0.04,0.053,0.165,1.0
2.0,1747220403.176373,0.4525843858718872,0.534395158290863,-2.215782165527344,0.0135102430358529,0.0092862816527485,0.0062090018764138,-0.1219808161258697,0.0045291245914995,-9.863114356994627,-0.006085456350912,0.0138927967857209,-2.627180889855216,3.4422337550051187,2.2254071403405287,0.5986145688937272,4.537204566663791,6.03,0.04,0.053,0.165,1.0
2.0,1747220403.6804063,0.4537402391433716,0.5402985215187073,-2.2141189575195312,0.018107259646058,0.0035787792876362,0.0004323054163251,-0.1308164298534393,0.0112266894429922,-9.844761848449709,-0.0072009452547261,0.0136499697218503,-2.6272088404262224,3.4589363130038424,2.249528839835536,0.5284280426100314,5.058544403418294,6.03,0.04,0.053,0.165,1.0
2.0,1747220404.1866484,0.4564624428749084,0.5423557162284851,-2.21533203125,0.0177854504436254,-0.0056968182325363,-0.0048331012949347,-0.1119998395442962,-0.028973501175642,-9.831847190856934,-0.0069305014433953,0.01274319794802,-2.6273171921452665,3.361797430813883,2.0967831884513104,0.4721430011982251,5.540136782998375,6.03,0.04,0.053,0.165,1.0
2.0,1747220404.6921256,0.4600763320922851,0.5423513054847717,-2.2143325805664062,0.0092608202248811,-0.0124228140339255,-0.0027265395037829,-0.1030493676662445,0.0278946887701749,-9.867115020751951,-0.0055653994522022,0.0123438542751761,-2.6271797091421174,2.825574027141001,1.7821150775713752,0.5399295753567641,5.962872455253965,6.03,0.04,0.053,0.165,1.0
2.0,1747220405.1999693,0.4645221531391144,0.5382214188575745,-2.212837219238281,0.0021365748252719,-0.0164642035961151,-0.0013741559814661,-0.0826213359832763,0.0579220801591873,-9.78555393218994,-0.0047516625836764,0.0115717342224174,-2.6268520682504684,2.603894231276901,1.63048384382802,0.4720855406677438,6.32157223661397,6.03,0.04,0.053,0.165,1.0
2.0,1747220405.7039263,0.4684635102748871,0.5297752618789673,-2.2105484008789062,0.0044481703080236,-0.0113860098645091,-0.0013985866680741,-0.1080329120159149,0.0068876347504556,-9.792933464050291,-0.0056896998788618,0.0103768458098526,-2.62684808300652,3.1254619568015505,2.0990547458871283,0.5630558629168926,6.618649426653512,6.03,0.04,0.053,0.165,1.0
2.0,1747220406.2079737,0.4705252349376678,0.5172877311706543,-2.209213256835937,-0.000649859313853,-0.0107393441721796,-0.0033422138076275,-0.1496261060237884,0.0038036480545997,-9.796670913696287,-0.0041373868970772,0.0086122230742073,-2.626952955975667,3.231455478365288,1.5707196944892794,0.5364101123281451,6.869517144235194,6.03,0.04,0.053,0.165,1.0
2.0,1747220406.712537,0.4718489050865173,0.5081730484962463,-2.2086334228515625,-0.0009427961776964,-7.391966937575489e-05,-0.0046657929196953,-0.1024176850914955,-0.0571778863668441,-9.81152057647705,-0.004060019727991,0.0083154883026212,-2.627178446125316,3.13267671573184,1.922411490090204,0.5690377346872959,7.107670485640435,6.03,0.04,0.053,0.165,1.0
2.0,1747220407.2166193,0.4728713035583496,0.5056477785110474,-2.2082595825195312,-0.0034982089418917,0.0121741537004709,-0.0059855016879737,-0.2037145793437957,0.0288495477288961,-9.798827171325684,-0.0044422652989552,0.0094962514375289,-2.627153161901611,2.544020074965636,2.4470232597711767,0.5410472589155984,7.375329028687986,6.03,0.04,0.053,0.165,1.0
2.0,1747220407.720296,0.4726520180702209,0.5072253942489624,-2.2095184326171875,-0.0025213812477886,0.0176044888794422,-0.0086034992709755,-0.0534669868648052,-0.0583007410168647,-9.80887508392334,-0.0051130651426213,0.0101276846002195,-2.626925592994444,3.256195066957938,1.7392557283926318,0.4902309559546099,7.7133708761611555,6.03,0.04,0.053,0.165,1.0
2.0,1747220408.2238889,0.4667596817016601,0.5121722221374512,-2.2121505737304688,-0.0057678925804793,0.0197058301419019,-0.0093679074198007,-0.190635859966278,0.0708355158567428,-9.848030090332031,-0.0042593395270383,0.0119727198191539,-2.6267151320836626,2.57501715391468,2.498205058293833,0.4339046307796192,8.157499407540373,6.03,0.04,0.053,0.165,1.0
2.0,1747220408.7281842,0.4600232541561126,0.5211499929428101,-2.2159423828125,0.0022003124468028,0.0207154154777526,-0.0039490591734647,-0.1107672005891799,-0.014485583640635,-9.882904052734377,-0.0054053151843656,0.0133255509166785,-2.626940174881622,3.495596790153319,2.045341235892946,0.4545608012920348,8.729397251552411,6.03,0.04,0.053,0.165,1.0
2.0,1747220409.233217,0.4521521329879761,0.5297489166259766,-2.216133117675781,-0.0005224295891821,0.0097158951684832,0.0035788237582892,-0.1115044355392456,-0.0206756424158811,-9.800785064697266,-0.0034877252307478,0.0143835608579927,-2.627253883353612,2.5838007106137906,2.014186506660984,0.5585062614429117,9.425399209550998,6.03,0.04,0.053,0.165,1.0
2.0,1747220409.7371647,0.4491423666477203,0.5357066988945007,-2.216499328613281,0.009612251073122,0.0014994748635217,-7.427300442941487e-05,-0.0550115257501602,-0.0077260313555598,-9.879539489746094,-0.0040681319554698,0.0136947896031101,-2.6274975396941245,3.320583823456011,1.5246010079250747,0.4629303631616084,10.22990743630847,6.03,0.04,0.053,0.165,1.0
3.0,1747220438.036821,0.3850623369216919,4.45143985748291,-3.8740310668945312,-0.036293800920248,-0.923370122909546,-0.0820262134075164,-0.0934623926877975,-0.0319707244634628,-10.19796085357666,0.0831526781810362,-0.1710218421663217,-2.39977111259772,2.959140238187605,2.24831495619281,0.5715538101355363,0.6819526415974166,8.73,0.07,0.01,0.189,1.0
3.0,1747220440.5599566,2.462639331817627,5.180106163024902,-3.877197265625,0.3539895713329315,0.7864207625389099,-0.0104945451021194,-0.0176137294620275,-0.0021400395780801,-9.954459190368652,-0.1888180387952005,0.0236909136839347,-2.40993370641657,3.026082606284347,2.2002156234832,0.476887199873469,0.4969842512587193,8.73,0.07,0.01,0.189,1.0
3.0,1747220443.2053585,3.969398021697998,4.970165729522705,-3.793380737304688,0.2482064217329025,-0.628771185874939,-0.0120885735377669,-0.0756753012537956,-0.0470450147986412,-9.89133071899414,0.0141318955975467,-0.0683395785141148,-2.433255621193509,2.6687448150027944,2.154816224330508,0.5087678290896018,0.0432478832954648,8.73,0.07,0.01,0.189,1.0
3.0,1747220445.6832302,6.320701599121094,4.855854034423828,-3.691246032714844,0.467844009399414,0.4893529117107391,0.0202712025493383,-0.003067273646593,0.0190595146268606,-9.919998168945312,-0.1286889416837021,-0.0384580288009416,-2.4392198355262003,3.0684111420240177,1.886352404338549,0.5732020543061558,0.3517160886481357,8.73,0.07,0.01,0.189,1.0
3.0,1747220447.9757507,8.002811431884766,5.284792423248291,-3.59234619140625,0.3493139743804931,-0.3550587892532348,0.0073491334915161,-0.114723801612854,-0.0421959981322288,-9.85944366455078,-0.0622516836547104,-0.018567911494675,-2.4562874758134576,3.1759388953714343,2.424954668703675,0.5377673791945705,0.2849091245903966,8.73,0.07,0.01,0.189,1.0
3.0,1747220450.3288772,10.087020874023438,4.723376274108887,-3.5010910034179688,0.5585729479789734,0.2035566419363021,0.0143041033297777,-0.0754836499691009,0.0573758110404014,-9.924308776855469,-0.0753217048242455,-0.0653089037658681,-2.460117621907256,2.906751469914153,1.9234645879983152,0.4867498067495452,0.2899905317939583,8.73,0.07,0.01,0.189,1.0
3.0,1747220452.3696115,11.923396110534668,5.190463066101074,-3.3998031616210938,0.5768627524375916,-0.0080626057460904,0.0278336703777313,-0.0810785889625549,-0.0051375143229961,-9.89959716796875,-0.0921027046043527,-0.0074094869646762,-2.4656706742323675,2.7688715833337154,1.8944704278383988,0.54538743965539,0.2052909500567094,8.73,0.07,0.01,0.189,1.0
3.0,1747220454.4732018,13.969520568847656,4.94677209854126,-3.2985916137695312,0.6329504251480103,-0.0909485518932342,0.0203680843114852,-0.1767343878746032,-0.0275598857551813,-9.940581321716309,-0.0742179883690133,-0.0587511585126616,-2.4683577559574608,3.142362211793551,2.014092251962496,0.526435821418727,0.0613529850035513,8.73,0.07,0.01,0.189,1.0
3.0,1747220456.571951,15.951855659484863,4.942882537841797,-3.2009811401367188,0.5787202715873718,0.1090218499302864,0.0200109127908945,-0.1246205568313598,-0.0910445004701614,-9.866771697998049,-0.0801409560281461,-0.0356771732870969,-2.4695012354772903,2.5939367647102283,1.6879306949942112,0.5400626075983801,0.0747077281343709,8.73,0.07,0.01,0.189,1.0
3.0,1747220458.692598,17.97130012512207,5.081538677215576,-3.0982437133789062,0.5962231159210205,-0.053620059043169,0.0187223870307207,-0.0733958929777145,-0.0556293092668056,-9.888908386230469,-0.0865682688720968,-0.0345136074580646,-2.4713983591961,3.220102407316899,1.8682823939695463,0.4312213626510109,0.0864599516699504,8.73,0.07,0.01,0.189,1.0
3.0,1747220460.77353,19.952003479003903,4.954214096069336,-2.9969635009765625,0.6020298600196838,-0.0021330814342945,0.0197354778647422,-0.0372666120529174,0.0761370733380317,-9.91904067993164,-0.0765498487711932,-0.0458853210999352,-2.4728016039494984,2.8634509093974785,2.255606783903542,0.5794534918398683,0.0664020734073552,8.73,0.07,0.01,0.189,1.0
3.0,1747220462.8757546,21.94831085205078,5.006925106048584,-2.8991470336914062,0.5991699695587158,0.0325406715273857,0.0216955747455358,-0.0886850208044052,0.0490858070552349,-9.94381618499756,-0.0832067133474253,-0.0347346262915825,-2.47418579321811,2.719461985022253,1.94180659226166,0.5755015795812093,0.0521579587505488,8.73,0.07,0.01,0.189,1.0
3.0,1747220464.973953,23.96818923950196,5.034143924713135,-2.8001708984375,0.5911838412284851,-0.0342830196022987,0.0262889880686998,0.0215583443641662,0.1023255810141563,-9.757248878479004,-0.0836215726980861,-0.0390171980802598,-2.4754100695834294,3.16378897740758,1.6115205606169043,0.5704351162893421,0.0466664899532443,8.73,0.07,0.01,0.189,1.0
3.0,1747220467.0764797,25.95085525512696,4.984084129333496,-2.704994201660156,0.5908942818641663,0.0069577577523887,0.0188010577112436,0.0040125027298927,0.0308355540037155,-9.94898796081543,-0.0793668226499578,-0.0398605826197752,-2.476970938366255,2.6362940111495936,2.403471845134476,0.4396703146621825,0.0518985831977334,8.73,0.07,0.01,0.189,1.0
3.0,1747220469.1779373,27.945863723754883,5.0037713050842285,-2.59564208984375,0.6076410412788391,0.0113185374066233,0.0212851669639349,0.0002538003027439,0.0231408290565013,-9.920150756835938,-0.0827162983303099,-0.0379023501027525,-2.477806922635105,2.743382212376334,1.7604900290336118,0.5560405774014142,0.0544421760095599,8.73,0.07,0.01,0.189,1.0
3.0,1747220471.2798576,29.9672908782959,5.0229692459106445,-2.503326416015625,0.5889114737510681,-0.010209179483354,0.0207702536135911,-0.0481231287121772,-0.0287119001150131,-9.84459400177002,-0.0844153140286721,-0.0380172154256951,-2.47904734671992,2.8613929639751023,2.226347505977272,0.4368888238086693,0.0401065823009939,8.73,0.07,0.01,0.189,1.0
3.0,1747220473.3830442,31.947715759277344,4.9936113357543945,-2.4009323120117188,0.5983769297599792,-0.0063676605932414,0.0215774551033973,-0.1397845447063446,-0.0378240197896957,-9.90448760986328,-0.0806211867727005,-0.0402604141777936,-2.479994258926714,3.224494976085692,1.7986821506300217,0.4145471516557692,0.0526813635403919,8.73,0.07,0.01,0.189,1.0
3.0,1747220475.4641635,33.94922637939453,4.997251033782959,-2.296836853027344,0.6120010614395142,0.0121117355301976,0.0231097619980573,-0.0447050966322422,0.0446005165576934,-9.861321449279783,-0.0835856803066617,-0.0386874753669183,-2.482637457585759,3.2147082645954947,2.1468303687322328,0.573598884888973,0.0509462742840055,8.73,0.07,0.01,0.189,1.0
3.0,1747220477.542385,35.951515197753906,5.022475719451904,-2.19482421875,0.61021888256073,-0.0130038671195507,0.020696748048067,-0.0680098310112953,0.0207185223698616,-9.835700988769531,-0.0844962003118129,-0.0373517165440854,-2.485354163025953,3.085517700881948,2.0405442639836764,0.5824218194759819,0.0536909929622405,8.73,0.07,0.01,0.189,1.0
3.0,1747220479.6426344,37.967811584472656,5.0027289390563965,-2.1007003784179688,0.6144881844520569,-0.0132058886811137,0.0249706897884607,-0.0446937903761863,-0.0075935199856758,-9.883151054382324,-0.0848533699658966,-0.0407906797494627,-2.4902331956994352,3.429991576077193,1.997020565190653,0.5623919356569533,0.0323114798866104,8.73,0.07,0.01,0.189,1.0
3.0,1747220481.7442105,39.9711799621582,4.980545520782471,-2.007148742675781,0.5854937434196472,0.0146733513101935,0.0251680742949247,-0.064941830933094,-0.0055846967734396,-9.919644355773926,-0.0830735727226351,-0.0390997647192561,-2.4949394281927484,3.1881203665626856,2.0051102986188893,0.4236131951221377,0.0354989558251006,8.73,0.07,0.01,0.189,1.0
11.0,1747220681.3604608,-0.1132241338491439,2.4386303424835205,-4.800994873046875,0.2898742854595184,0.0972830057144165,0.5096994638442993,0.0171670075505971,0.061432734131813,-9.20274543762207,-0.0049593880286997,0.0012756634192152,-0.7344491689302204,2.6730237028501715,2.3278296369772327,0.5461168865664798,0.494792201218581,3.72,0.15,0.021,0.089,1.0
11.0,1747220683.3984802,2.1947662830352783,1.7334798574447632,-4.736373901367188,0.6706447005271912,-0.2927935421466827,-0.207182690501213,-0.004488943144679,0.1494694352149963,-9.7640380859375,0.1614816953098407,-0.0139964524392974,-0.7244587928573543,3.2104548782687896,1.9963248165283305,0.4821886908799692,0.3684296290322439,3.72,0.15,0.021,0.089,1.0
11.0,1747220685.604217,4.039833068847656,1.7454938888549805,-4.7674407958984375,0.2753377258777618,0.3980130553245544,-0.0135648176074028,0.011741530150175,0.0826529264450073,-9.852299690246582,0.0536300775527045,-0.0272077949010868,-0.7124795371460335,2.7556495969897945,2.369379160796227,0.4003507457555237,0.2596538768355104,3.72,0.15,0.021,0.089,1.0
11.0,1747220687.976119,6.059347152709961,2.138268232345581,-4.61334228515625,0.5774158835411072,-0.2057840079069137,-0.0603342466056346,0.0097485464066267,0.0670179650187492,-9.889838218688965,0.0902902157845061,-0.0426717504015045,-0.7078147789524881,2.959252688787041,1.6019554444967197,0.4771747367079373,0.1736368283305471,3.72,0.15,0.021,0.089,1.0
11.0,1747220690.0358894,7.980257511138916,1.7291914224624634,-4.5377349853515625,0.5138626098632812,0.1295106410980224,-0.0461567901074886,0.0516205504536628,0.0827362313866615,-9.886898040771484,0.0963543218199521,-0.0059628057842104,-0.6974303936853208,3.398308688908226,1.7579776376888965,0.4626839364016943,0.2785749155676159,3.72,0.15,0.021,0.089,1.0
11.0,1747220692.2043152,9.96437931060791,2.1011106967926025,-4.425308227539063,0.599966824054718,0.0600303672254085,-0.0425588153302669,-0.0363189689815044,0.0604712218046188,-9.911541938781738,0.0679487675223452,-0.0512811916671231,-0.6913957457676753,2.755769330616427,2.396036118473398,0.5620606903650186,0.1306562948809205,3.72,0.15,0.021,0.089,1.0
11.0,1747220694.2405188,11.983673095703123,1.975097894668579,-4.333023071289063,0.5919942259788513,-0.0781069472432136,-0.0457885041832923,0.0295016132295131,0.1156112998723983,-9.867032051086426,0.0961689549318494,-0.0226741641223842,-0.6851292518919804,2.82840382032149,1.936213363648549,0.5565412375845605,0.0732979647289526,3.72,0.15,0.021,0.089,1.0
11.0,1747220696.3419893,13.954535484313965,1.9092026948928835,-4.240043640136719,0.5568918585777283,0.11605766415596,-0.0365129262208938,0.092090293765068,0.0118104629218578,-9.915230751037598,0.0820396414909148,-0.0249254181532952,-0.6782841192826647,3.3783244508813635,1.551109232666556,0.4630026481791152,0.1179234407967142,3.72,0.15,0.021,0.089,1.0
11.0,1747220698.4642563,15.976847648620604,2.083634614944458,-4.1352081298828125,0.5951322913169861,-0.0163234192878007,-0.0375339053571224,0.0253279469907283,0.1190715506672859,-9.893299102783203,0.0798010065381394,-0.0399756552995883,-0.6720025241469952,3.369610902447918,1.783176343247407,0.5174147855491451,0.1082994303982508,3.72,0.15,0.021,0.089,1.0
11.0,1747220700.5046952,17.979778289794922,1.9679853916168213,-4.039886474609375,0.5809712409973145,-0.0077809044159948,-0.0334126502275466,-0.010729219764471,0.0636684522032737,-9.92170524597168,0.0921364882830463,-0.0259881324804875,-0.6659933902221329,3.392754798318359,2.3088714645494406,0.5410399553796728,0.0710456800124832,3.72,0.15,0.021,0.089,1.0
11.0,1747220702.6081705,19.94822120666504,1.977530837059021,-3.944252014160156,0.5745867490768433,0.0710703581571579,-0.0341701135039329,0.0718180239200592,0.0291480347514152,-9.87941551208496,0.0804279240103248,-0.0302583345655087,-0.6587175759300312,2.998057422266071,2.421616233784234,0.4572991758428337,0.0793331245300011,3.72,0.15,0.021,0.089,1.0
11.0,1747220704.7110367,21.9730224609375,2.053323984146118,-3.839111328125,0.6027535200119019,-0.0099383639171719,-0.0334791764616966,-0.0768563896417617,0.0786124765872955,-9.94834327697754,0.0850213200920118,-0.0368245230505707,-0.6522401155865573,3.1355272593966426,2.2998328856822003,0.5379671357605577,0.0853150939856835,3.72,0.15,0.021,0.089,1.0
11.0,1747220706.7476025,23.938146591186523,1.9553086757659912,-3.7457275390625,0.5947676301002502,0.0138709666207432,-0.0341081134974956,0.0344942212104797,0.0400237664580345,-9.83849811553955,0.0882593023517836,-0.019986054407324,-0.6444928552215958,2.5363265244220177,1.5989173995422044,0.5402813971292921,0.0936411162889955,3.72,0.15,0.021,0.089,1.0
11.0,1747220708.8476896,25.95909118652344,2.006456136703491,-3.64312744140625,0.5964593291282654,0.0597436614334583,-0.033006202429533,0.1031161546707153,-0.0443066880106925,-9.88598918914795,0.0827079490401236,-0.0326529595797713,-0.6356505979528689,3.349514612110026,1.9734255215221967,0.4480486576889054,0.0703541089218977,3.72,0.15,0.021,0.089,1.0
11.0,1747220710.9468014,27.977659225463867,2.026375293731689,-3.5430831909179688,0.5988292694091797,-0.0049837511032819,-0.033261988312006,0.020269863307476,0.0012428797781467,-9.876121520996094,0.0876895414715052,-0.0290784825875232,-0.6257257637214465,2.5778691206471938,1.9118282515112768,0.5301162866072053,0.0665904608963474,3.72,0.15,0.021,0.089,1.0
11.0,1747220713.0097952,29.938766479492188,1.982236623764038,-3.446624755859375,0.6108119487762451,0.0306377168744802,-0.0320733822882175,-0.0462192818522453,0.0732256770133972,-9.777066230773926,0.0862750326331497,-0.02246016894659,-0.6139585504205294,2.563213252321169,1.8467728086204944,0.4620931279007169,0.0831504555378543,3.72,0.15,0.021,0.089,1.0
11.0,1747220715.0913897,31.95133209228516,2.0444343090057373,-3.3440170288085938,0.6229615211486816,0.0106525430455803,-0.0252977646887302,-0.0253543462604284,0.0917436853051185,-9.903807640075684,0.085828613628943,-0.0317369390301706,-0.6027020907374401,2.686706005611318,2.1934881657014493,0.5444418085334571,0.0864700301929868,3.72,0.15,0.021,0.089,1.0
11.0,1747220717.0880656,33.953155517578125,2.000384330749512,-3.241905212402344,0.5416831374168396,-0.0067944922484457,-0.0380619429051876,0.0325588136911392,0.0384973362088203,-9.904610633850098,0.0900194867198549,-0.0205708050218719,-0.5935982915864714,2.7337650081559977,1.673364674388221,0.5957672650983248,0.0746294686401793,3.72,0.15,0.021,0.089,1.0
11.0,1747220719.1904514,35.91787338256836,1.9761860370635984,-3.1561813354492188,0.5294362902641296,0.0644609853625297,-0.0334122106432914,-0.0112361498177051,0.0016570575535297,-9.900689125061035,0.0805229474027968,-0.0193094163225719,-0.5905377601840226,2.8545885005319827,1.8454646084620128,0.4627675434367091,0.0960830967679201,3.72,0.15,0.021,0.089,1.0
11.0,1747220721.4167254,38.02665328979492,2.0996992588043213,-3.0523452758789062,0.7097159028053284,0.0355370081961154,-0.0264796968549489,0.040400106459856,0.0388103649020195,-9.982373237609863,0.0929116750166766,-0.0477015601961842,-0.5767278553289846,2.547303633668601,1.801905012007715,0.4634372856347369,0.1136719525392299,3.72,0.15,0.021,0.089,1.0
11.0,1747220723.286082,39.97987365722656,2.0031421184539795,-2.954071044921875,0.6010005474090576,-0.0720370486378669,-0.0179896932095289,0.0277635715901851,0.1114029884338378,-9.885732650756836,0.1010679235930596,-0.0169807612023757,-0.5698785487105178,3.166272006601065,1.905948796156456,0.4526023802440585,0.0502435219344883,3.72,0.15,0.021,0.089,1.0
15.0,1747220861.5470788,-1.1402840614318848,-5.2750630378723145,-5.124420166015625,-0.7570937871932983,-2.666021585464477,-0.7324275970458984,-0.1914530843496322,-0.0207776427268981,-10.672403335571287,0.4697686238682509,-0.48267872643534,-2.826233768160193,2.5961311574521524,2.1990751207407104,0.5314092366390847,2.547869687554635,9.05,0.16,0.194,0.139,1.0
15.0,1747220866.672201,1.1411350965499878,-3.548680067062378,-4.915573120117188,-0.609369695186615,-1.3276540040969849,-0.2388892620801925,-0.0443558096885681,0.0236242562532424,-10.48149299621582,0.2880775481524668,-0.1644273324191103,-2.7729452330642936,2.9196589423995936,1.5213505458869867,0.4239565609327018,1.2103861683999646,9.05,0.16,0.194,0.139,1.0
15.0,1747220869.4006577,4.869536876678467,-1.8065439462661743,-5.0455169677734375,1.053944706916809,0.9140770435333252,0.0789682641625404,-0.0239504948258399,0.0215896442532539,-10.29771327972412,-0.3413008249761468,0.1110020997727873,-2.7612615514797603,3.061045058980531,1.982068056052671,0.4923829742875231,1.0537344361708774,9.05,0.16,0.194,0.139,1.0
15.0,1747220871.81768,5.787310123443604,-2.187577486038208,-5.011283874511719,-0.0799296870827674,-0.7930231690406799,-0.0354953221976757,-0.1119372025132179,0.0021069515496492,-9.972844123840332,0.0591779929191628,-0.0678213669466381,-2.76443153798321,2.939920824664516,2.214420714083704,0.554244270618387,0.2302913925320349,9.05,0.16,0.194,0.139,1.0
15.0,1747220874.504654,8.298991203308105,-1.627987027168274,-5.057830810546875,0.7576736211776733,0.5492010712623596,0.0700976327061653,-0.0540971532464027,0.0039844075217843,-9.898517608642578,-0.1922058579481918,0.050309940537832,-2.7568918349908422,2.8618292086874844,2.4019346377568382,0.4668654792502527,0.3497550644759067,9.05,0.16,0.194,0.139,1.0
15.0,1747220876.6693604,9.988540649414062,-1.3110488653182983,-5.047035217285156,0.4905007481575012,-0.3912027776241302,0.0375293157994747,-0.0147502906620502,0.0398850850760936,-9.813961029052734,-0.0727350125137933,-0.0218984882458444,-2.765667740722722,2.7598382511609643,1.7571141993632655,0.4419818504512116,0.1950542480399132,9.05,0.16,0.194,0.139,1.0
15.0,1747220879.0836325,12.06541347503662,-1.3728642463684082,-5.043495178222656,0.5194533467292786,0.3504571616649627,0.0560695007443428,-0.0759772434830665,-0.0163190197199583,-9.843154907226562,-0.1062310028752796,-0.0036014672555039,-2.7646960986671645,3.3046217309792563,1.5866603545995537,0.5851400799176735,0.189875751262516,9.05,0.16,0.194,0.139,1.0
15.0,1747220881.3299713,13.96161651611328,-0.651254415512085,-5.0414886474609375,0.5946175456047058,-0.1155266165733337,0.0502364970743656,-0.1069344356656074,-0.0304616633802652,-9.7913818359375,-0.1055223109254098,0.0135264591416021,-2.7705963049346907,3.1473449805876785,1.9761493432885613,0.4876503367520786,0.2550861923069428,9.05,0.16,0.194,0.139,1.0
15.0,1747220883.4757457,15.962437629699709,-0.7457283735275269,-5.042472839355469,0.6129699945449829,0.0981552153825759,0.0478563159704208,0.0353655964136123,0.0851092338562011,-9.833090782165527,-0.0947362418047119,-0.0270068491480026,-2.771132288593884,2.7477842209218863,1.8675425441031148,0.4526226879265649,0.1563701780918282,9.05,0.16,0.194,0.139,1.0
15.0,1747220885.6413772,17.937236785888672,-0.1930980235338211,-5.03424072265625,0.6174609661102295,0.1215020790696144,0.0485090613365173,-0.0449085384607315,0.1205845922231674,-9.80979824066162,-0.1090188474174198,0.016473490675064,-2.771697293866713,2.735650184488832,2.098507264439988,0.5542384915924776,0.1286066899736641,9.05,0.16,0.194,0.139,1.0
15.0,1747220887.7415383,19.956926345825195,0.0248154364526271,-5.034736633300781,0.6454432606697083,-0.0094709312543272,0.0425959303975105,-0.0830908194184303,-0.0529912076890468,-9.819602012634276,-0.1057873048182243,-0.0141843017452846,-2.774308211425514,2.6032075844743106,2.2979881583505377,0.5092854140571088,0.0606446969105956,9.05,0.16,0.194,0.139,1.0
15.0,1747220889.8420317,21.9567813873291,0.2715934813022613,-5.039939880371094,0.6099754571914673,0.1393155753612518,0.0511405877768993,-0.0609734281897544,0.0289072915911674,-9.763981819152832,-0.106988535051327,-0.0045683574658308,-2.7748606839427192,3.374492134085676,2.486360229226698,0.4509805712992514,0.0653450291130043,9.05,0.16,0.194,0.139,1.0
15.0,1747220891.9837303,23.956132888793945,0.6799397468566895,-5.037773132324219,0.6151079535484314,0.0416065789759159,0.0486541166901588,-0.0139976479113101,-0.0035355577711015,-9.85988712310791,-0.1098752639975187,0.0014988105558371,-2.776006327644117,3.1283913690115632,1.9533464674172736,0.510629536352914,0.0986990177188148,9.05,0.16,0.194,0.139,1.0
15.0,1747220894.0847225,25.950098037719727,0.8810821771621704,-5.030937194824219,0.6254077553749084,0.075930006802082,0.0469320379197597,0.0012409687042236,0.0122060254216194,-9.815508842468262,-0.1070299597024158,-0.0110084997453307,-2.777239167580461,3.465593954104569,1.83837816610704,0.5637509174777369,0.0616863022391276,9.05,0.16,0.194,0.139,1.0
15.0,1747220896.208825,27.9532413482666,1.2342020273208618,-5.031997680664063,0.6118468642234802,0.0967247411608696,0.0402716621756553,-0.0161700248718261,-0.0210253037512302,-9.823162078857422,-0.1086547850136125,0.0001632314208976,-2.7780982949601465,3.0808300559471427,1.614831959834134,0.5156896088895401,0.0661815816724075,9.05,0.16,0.194,0.139,1.0
15.0,1747220898.3194726,29.951528549194336,1.5213316679000854,-5.034576416015625,0.6396037936210632,0.0602701753377914,0.0464694425463676,-0.0307727605104446,0.0516412369906902,-9.912171363830566,-0.1083452059387013,-0.006485266321177,-2.7820066167955138,2.9591550537817906,1.5788494954766712,0.5608910963824305,0.0632459496180665,9.05,0.16,0.194,0.139,1.0
15.0,1747220901.3997805,32.38189697265625,1.882534146308899,-4.8946075439453125,0.1724999547004699,0.0650912001729011,0.5857630372047424,-0.0927939116954803,-0.0067457570694386,-9.124869346618652,-0.0085123971272319,0.0006830504024254,-2.7814453806541493,3.352331742961849,2.457978286556617,0.5918180118513033,0.4046785796458548,9.05,0.16,0.194,0.139,1.0
15.0,1747220901.9036078,32.44417190551758,1.901200771331787,-4.614707946777344,0.1825449764728546,0.1133303865790367,0.7609133720397949,-0.0577163994312286,0.0147956851869821,-9.559834480285645,0.0004944285870605,-0.000121139113972,-2.778170952161638,2.8489797368237486,2.04286167573139,0.499060892871139,1.6151074760449875,9.05,0.16,0.194,0.139,1.0
15.0,1747220902.4088566,32.46084213256836,1.9352277517318728,-4.262672424316406,0.1742179095745086,0.1656835377216339,0.8233017325401306,-0.0781836584210395,-0.001051583327353,-9.782464027404783,-0.0001597354662014,-7.980864972944873e-05,-2.7762443192063264,3.091313808760252,1.839531233888148,0.519056169141292,3.644901042172055,9.05,0.16,0.194,0.139,1.0
15.0,1747220902.913059,32.48165512084961,2.0148608684539795,-3.8631515502929688,0.1746106594800949,0.2354104369878769,0.8272032141685486,0.0023432374000549,0.0443650223314762,-9.992751121520996,-0.0002044563996804,-0.0001866224547251,-2.7750373706172944,3.211905831032089,1.8929566341109936,0.5901433244623521,5.675735215143696,9.05,0.16,0.194,0.139,1.0
15.0,1747220903.4169466,32.52965545654297,2.1603987216949463,-3.4336471557617188,0.1868830025196075,0.3265886306762695,0.7976320385932922,-0.0070579834282398,0.0527535416185855,-9.833588600158691,-0.0003047704402432,-0.0002354362426338,-2.7737268109718856,2.621272185439924,2.434698120032894,0.4399457093765866,7.678830583958932,9.05,0.16,0.194,0.139,1.0
17.0,1747220937.9701104,1.051199197769165,3.504144191741944,-4.9820556640625,1.0578815937042236,0.9435385465621948,0.1757099777460098,0.0055793337523937,0.0001084969262592,-10.935535430908203,-0.4917648588525615,0.0870208901468087,-2.752213081274037,2.835076966597484,1.5406091962853856,0.4815426466880576,1.1659773233857986,8.36,0.0,0.103,0.026,1.0
17.0,1747220954.7531462,2.195317029953003,0.8207950592041016,-5.024375915527344,0.1818661391735077,-0.4121489524841308,0.037333108484745,-0.144937127828598,-0.0329009145498275,-9.8773193359375,-0.0775597992760702,-0.0052260772967182,-2.612987654658408,2.945412450299605,2.3702274264769514,0.5821508143368895,0.4112215604870626,8.36,0.0,0.103,0.026,1.0
17.0,1747220957.316264,4.30421781539917,3.2750015258789062,-5.0123138427734375,0.2969366908073425,0.8464866876602173,0.0318795964121818,-0.0457374081015586,0.0258323401212692,-9.987177848815918,-0.187131930153367,0.1003470284193195,-2.601259045644713,2.7658284388144203,1.9136545455810337,0.5901261001401065,0.410275455231993,8.36,0.0,0.103,0.026,1.0
17.0,1747220959.815844,6.15065860748291,-0.2813021242618561,-4.970161437988281,0.3861051201820373,-1.180294156074524,-0.0497458688914775,-0.1222067028284072,0.0404030233621597,-10.206089973449709,0.0444231927080984,-0.266234359002079,-2.6189324679801853,2.533643866795732,1.809585515092676,0.5886857277549713,0.7567911438234949,8.36,0.0,0.103,0.026,1.0
17.0,1747220962.3790877,8.102203369140625,4.064947605133057,-4.94647216796875,0.4314309954643249,1.366369605064392,-0.0450021177530288,-0.0193961877375841,0.002987703308463,-10.488492965698242,-0.2688905535126765,0.2600340298096961,-2.599934084196064,3.2997138845240643,1.6467765722151808,0.5748853623446969,1.0711788642165665,8.36,0.0,0.103,0.026,1.0
17.0,1747220964.9422045,10.342639923095703,-0.7520037889480591,-4.900108337402344,0.2773236632347107,-1.5870682001113892,-0.1284419298171997,-0.143923670053482,0.0182851329445838,-10.63954257965088,0.097380256006569,-0.3723728577768075,-2.600072876707737,2.8156536733781565,1.7808936879495856,0.4517301687615198,1.263212249616561,8.36,0.0,0.103,0.026,1.0
17.0,1747220967.549894,12.111509323120115,4.408694744110107,-4.904075622558594,0.3880265653133392,1.602534532546997,-0.0903395637869834,0.0657700151205062,-0.0020619053393602,-10.7561616897583,-0.3098543274001155,0.3199735003566338,-2.588523673166611,2.72618582421648,2.086989523378457,0.4564644741102034,1.416353309528971,8.36,0.0,0.103,0.026,1.0
17.0,1747220970.1340616,14.236184120178224,-1.0151716470718384,-4.8760528564453125,0.3457513451576233,-1.7065447568893433,-0.1952375173568725,-0.1619675904512405,0.0343873724341392,-10.76975917816162,0.1423757323900816,-0.4028099896122721,-2.580474694764005,3.0590213144387994,1.934661356510896,0.4111994265984871,1.4988369787347935,8.36,0.0,0.103,0.026,1.0
17.0,1747220972.7188509,16.227523803710938,4.419588565826416,-4.887725830078125,0.3111841082572937,1.8261840343475344,-0.1177094727754592,-0.0176396574825048,0.0487301759421825,-10.912001609802246,-0.3371636396776649,0.3288864318282309,-2.5745413832994646,3.008448303020521,1.558024858148224,0.5955532563124721,1.442083307826507,8.36,0.0,0.103,0.026,1.0
17.0,1747220980.0725217,18.01593017578125,0.2175701707601547,-4.983070373535156,-0.0945660471916198,-0.8122692108154297,-0.052939623594284,-0.1505526602268219,0.066764622926712,-9.990328788757324,0.0330767248366082,-0.1296182646260594,-2.714260941383493,3.299159248319871,1.516373457702855,0.5156475815561222,0.2432836861936925,8.36,0.0,0.103,0.026,1.0
17.0,1747220982.6545954,20.60861015319824,3.6948206424713135,-4.976364135742188,0.384630024433136,1.1884350776672363,0.0042381333187222,-0.0116348937153816,0.0841020196676254,-10.184218406677246,-0.2794778815725253,0.1780919402130411,-2.714935577791642,3.369944025703016,1.7824360598612885,0.4637587554554942,0.9239808969126204,8.36,0.0,0.103,0.026,1.0
17.0,1747220987.7966192,22.25516128540039,1.065417766571045,-5.007537841796875,-0.2349633872509002,1.0192660093307495,0.0018415933009237,-0.1067449226975441,0.0432967729866504,-10.129929542541504,-0.128381392935058,0.2050347547880572,-2.721041261410505,2.7627663362260475,1.973039455383518,0.4061011381698339,0.657273763080923,8.36,0.0,0.103,0.026,1.0
17.0,1747220990.4124691,24.23579978942871,3.3297059535980225,-5.028587341308594,0.5666138529777527,-0.2991750538349151,0.0367356948554515,-0.0700446739792823,0.0182648934423923,-9.784546852111816,-0.1436406234050683,-0.0104690359723491,-2.7029737311468303,2.908684884461192,2.18229230338617,0.4204990442668822,0.4063555002897091,8.36,0.0,0.103,0.026,1.0
17.0,1747220992.5437725,25.98911094665528,-0.088822916150093,-5.0043487548828125,0.4486846029758453,-0.9154168963432312,-8.230520325014368e-05,-0.022462211549282,-0.0629316121339798,-10.090518951416016,0.0047664882893486,-0.2116579865282649,-2.7138123318528296,3.276391083588193,1.5230569977859965,0.4385881138092575,0.5486889220111604,8.36,0.0,0.103,0.026,1.0
17.0,1747220995.004528,28.24735450744629,3.8350677490234375,-4.95361328125,0.4060182273387909,1.3386924266815186,-0.0287517607212066,-0.0326856672763824,-0.055618479847908,-10.314452171325684,-0.2480380205541005,0.240864114366064,-2.703186627403659,2.841784669432198,2.1860009938329785,0.4274718393781116,0.8721663404932907,8.36,0.0,0.103,0.026,1.0
17.0,1747220997.5673013,30.14447593688965,-0.6152634620666504,-4.912750244140625,0.3351796567440033,-1.5380988121032717,-0.1114158034324646,-0.1254527121782302,-0.014491700567305,-10.498616218566896,0.0624374783857067,-0.3487758785374532,-2.708449198211804,3.4949822947055225,1.5688664001509998,0.5394745757271578,1.0881726804046663,8.36,0.0,0.103,0.026,1.0
17.0,1747221000.0518882,32.32556915283203,4.171176910400391,-4.939079284667969,0.1531408131122589,1.5947749614715576,-0.1659017354249954,0.0011256150901317,0.0319128036499023,-10.582608222961426,-0.2546641276073377,0.3480529075313035,-2.78721204046284,3.163750086329202,1.8078364375385243,0.4384584784106036,1.2171121403910723,8.36,0.0,0.103,0.026,1.0
17.0,1747221002.634458,34.13272476196289,-0.9367012977600098,-4.9095306396484375,0.3892402052879333,-1.6785328388214111,-0.1574655175209045,-0.0791030377149581,0.005421046167612,-10.76819896697998,0.0551034317220139,-0.4020118273520611,-2.7627140195146995,2.604683919727369,2.036512074152562,0.4518733472438512,1.4056496162543617,8.36,0.0,0.103,0.026,1.0
17.0,1747221005.2833726,36.00878143310547,4.552940845489502,-4.906288146972656,0.4091471135616302,1.5696104764938354,-0.0948142781853675,-0.008736697025597,0.0203564167022705,-10.896958351135254,-0.2567035764312244,0.3894608315553214,-2.7504101973135606,2.537707666821629,2.1027631726677063,0.4435167675154531,1.5557905689889155,8.36,0.0,0.103,0.026,1.0
17.0,1747221007.8484397,38.42024230957031,-1.022269606590271,-4.84881591796875,0.2496068179607391,-1.819151759147644,-0.2449778318405151,-0.1158464401960372,-0.0397297739982605,-10.875094413757324,0.0551653532058283,-0.4355438289092619,-2.736971282711508,3.3487682911148458,2.289730606128015,0.5761417131475027,1.5478419811554762,8.36,0.0,0.103,0.026,1.0
17.0,1747221010.4757674,40.06947708129883,4.658778667449951,-4.893470764160156,0.4880334734916687,1.8167213201522827,-0.1356691420078277,-0.0095428600907325,0.0401561334729194,-11.04246997833252,-0.2967124031428532,0.3988432444623193,-2.717774212786106,3.069424260040444,2.064472006609884,0.5771917681288582,1.6636472614413973,8.36,0.0,0.103,0.026,1.0
19.0,1747221052.3871968,-0.6039780974388123,1.296007752418518,-5.488471984863281,-2.9571313858032227,1.9368194341659544,-0.5289098620414734,-0.1535879075527191,-0.0144060058519244,-10.680339813232422,0.5743607227016859,0.4671259013458871,-2.925650897023189,3.3916066214985547,1.9600290546663648,0.4219404655033016,2.949397041136752,8.96,0.14,0.089,0.05,1.0
19.0,1747221061.126649,2.778236150741577,0.354173868894577,-4.454689025878906,0.6372095942497253,-0.8732344508171082,-0.0584879852831363,-0.01736606284976,-0.0091188065707683,-10.183589935302734,-0.2016533998873688,-0.1788030158057193,-3.0684374742763043,2.63652829831038,2.0157188127023806,0.441635236903323,0.7200792013440538,8.96,0.14,0.089,0.05,1.0
19.0,1747221063.5846236,1.697786808013916,2.015841484069824,-3.92584228515625,-0.5244430303573608,0.938221275806427,-0.0524326190352439,-0.143865555524826,0.0076774861663579,-10.223684310913086,0.0981725549774875,0.2017058390435983,-3.074555049637633,2.920312632827337,1.8290631818522345,0.5692994721820537,0.5759671478286874,8.96,0.14,0.089,0.05,1.0
19.0,1747221066.2527473,1.7901376485824585,2.5682289600372314,-3.4779052734375,0.4078848361968994,-0.5150629878044128,-0.0192141458392143,-0.0833797752857208,-0.0869949832558631,-9.93247890472412,-0.0644735197808296,-0.0411884931091781,-3.084884294674343,3.19750187989194,1.9291005271056227,0.4505770132729819,0.0285026192670752,8.96,0.14,0.089,0.05,1.0
19.0,1747221068.8175955,1.0164061784744265,3.429171323776245,-2.9644317626953125,-0.4026858508586883,0.6015822291374207,-0.0241651870310306,-0.0063422620296478,-0.0446515753865242,-9.981225967407228,0.0568166977223734,0.111883534698554,-3.08378709094585,2.837856615751212,1.8468421816094505,0.4043225045876363,0.1646678863542044,8.96,0.14,0.089,0.05,1.0
19.0,1747221069.9106855,0.3551275432109833,4.1988606452941895,-2.696044921875,-0.3568034172058105,0.1826056241989135,0.2731851041316986,-0.0937537550926208,0.0174083989113569,-10.029657363891602,0.0254642098902524,0.0939823564430571,-3.088567868053026,3.065489091774936,1.666897012022876,0.4383395174574611,0.3012027386188631,8.96,0.14,0.089,0.05,1.0
19.0,1747221071.678228,-0.6964717507362366,4.229645252227783,-2.0272369384765625,-0.4957002997398376,-0.0894495397806167,0.1276701092720031,-0.1243587136268615,-0.0098324287682771,-10.144912719726562,0.036759869260023,0.0050071960291473,-3.0882476828823653,2.551358619973221,1.5277159844153485,0.4061803774196743,0.1691511601236174,8.96,0.14,0.089,0.05,1.0
19.0,1747221073.4447322,-1.9384887218475344,4.097238063812256,-1.5416717529296875,-0.4967716336250305,0.0880584567785263,0.0986327603459358,-0.096722237765789,-0.0617701597511768,-10.141478538513184,0.0447258614637596,0.0082055653334774,-3.087209618293,3.2271364665544287,1.9178727533104705,0.4093520499773473,0.1942244615137651,8.96,0.14,0.089,0.05,1.0
19.0,1747221074.946899,-2.3315110206604004,4.366677761077881,-1.1206512451171875,-0.0250462777912616,0.2671893239021301,0.6746567487716675,-0.2088089287281036,0.0250574313104152,-9.53280258178711,0.0004932340331494,2.9221408475569623e-05,-3.0851601572036427,2.998507021020248,1.5357108732778026,0.4993853012207732,1.0691240593963889,8.96,0.14,0.089,0.05,1.0
19.0,1747221075.4525576,-2.2976465225219727,4.532445430755615,-0.7861557006835938,0.0615585409104824,0.3509253561496734,0.7621740102767944,-0.0287435539066791,0.016305573284626,-9.709373474121094,0.0004796992745424,-0.0002719079862434,-3.0853530431190075,2.6620930355093355,1.8425425364499537,0.5560342540199581,2.5242334898537964,8.96,0.14,0.089,0.05,1.0
19.0,1747221076.9552472,-1.9633445739746087,5.277390480041504,0.3689041137695312,0.2960191369056701,0.615548849105835,0.7390938997268677,-0.1159453615546226,-0.0311245042830705,-9.813814163208008,0.0001851639658507,-5.8766996991101255e-05,-3.0854486464363102,2.705387538603894,2.485088200944181,0.415608475001608,4.636551024514249,8.96,0.14,0.089,0.05,1.0
19.0,1747221077.4591513,-1.789360523223877,5.62130880355835,0.7581329345703125,0.3626354932785034,0.7070269584655762,0.7218087315559387,0.0441788211464881,0.0236297845840454,-9.862284660339355,-2.1743615453049272e-06,-0.0003298813426857,-3.085359228361929,2.752158710894595,2.373577370938225,0.5660828900490884,6.339423034169887,8.96,0.14,0.089,0.05,1.0
19.0,1747221078.9625013,-1.1260088682174685,6.909845352172852,1.852210998535156,0.5315144658088684,0.9743665456771852,0.6800103783607483,-0.1092571914196014,-0.0450825430452823,-9.847122192382812,-8.001342447507622e-06,-0.0001407315912503,-3.0851334541399345,2.927370578443247,2.3974428244196924,0.4781918149336235,9.074198961977958,8.96,0.14,0.089,0.05,1.0
19.0,1747221079.4664495,-0.8508314490318298,7.429240226745605,2.2061691284179688,0.5895553827285767,1.0551409721374512,0.6775380969047546,-0.1407179236412048,-0.0352908447384834,-9.768125534057615,-0.0001078951489254,-7.148129007735495e-05,-3.085169925801267,3.4163028966727884,1.8361620085526424,0.4135836251348799,10.744021094348165,8.96,0.14,0.089,0.05,1.0
19.0,1747221079.970049,-0.548896849155426,7.988624572753906,2.558258056640625,0.642082691192627,1.1384729146957395,0.6800500750541687,-0.0002413094043731,-0.0187604092061519,-9.827637672424316,-2.2932663127301524e-05,2.811027147781093e-05,-3.0851503981591386,3.248279212354848,2.325227616873467,0.474973643934384,12.239816774739335,8.96,0.14,0.089,0.05,1.0
19.0,1747221080.4758456,-0.2024103552103042,8.621163368225098,2.9271392822265625,0.6957083940505981,1.221307396888733,0.6832983493804932,-0.0406205840408802,0.0072703529149293,-9.889120101928713,-7.846466472527995e-05,-4.3612457093375325e-05,-3.085117008153252,3.160410857558744,2.010259803229732,0.5144649260036698,13.52231233007656,8.96,0.14,0.089,0.05,1.0
19.0,1747221080.9891305,0.1475662142038345,9.249215126037598,3.26971435546875,0.7413152456283569,1.2978535890579224,0.6817076206207275,-0.0061616692692041,0.0539809949696064,-9.761171340942385,-0.0001080181416477,-7.56802162145042e-05,-3.0849489166309523,2.649705980316637,1.925476899831978,0.523386289850587,14.437225371333106,8.96,0.14,0.089,0.05,1.0
19.0,1747221081.494911,0.5295262932777405,9.92618179321289,3.6183090209960938,0.7937168478965759,1.3735909461975098,0.6847932934761047,-0.0761870592832565,-0.0005886940052732,-9.907130241394045,-4.804951863663259e-05,-2.2647978503685127e-05,-3.085066456344095,3.2463843958850616,1.7434789328416953,0.4665207526594597,14.978797811508962,8.96,0.14,0.089,0.05,1.0
19.0,1747221082.000304,0.9359715580940248,10.64097023010254,3.970062255859375,0.8407163023948669,1.4495655298233032,0.688424289226532,-0.0176491811871528,-0.0763346552848815,-9.786640167236328,-9.963973323315334e-05,-6.062694898322845e-05,-3.0850254555711905,2.8274243068203258,1.7728629529856716,0.4680611599329214,15.081865922688197,8.96,0.14,0.089,0.05,1.0
19.0,1747221082.5062475,1.390903353691101,11.434814453125,4.341278076171875,0.8908944129943848,1.531869411468506,0.6900425553321838,0.0435575619339942,0.0353207811713218,-9.822816848754885,-1.2298763760484442e-05,4.132862653252748e-05,-3.085009000247935,3.0381016085674863,2.1539750567441978,0.4603943799252186,14.737037499505712,8.96,0.14,0.089,0.05,1.0
19.0,1747221083.0110407,1.838653564453125,12.21134090423584,4.686981201171875,0.9376431703567504,1.602565884590149,0.6890007257461548,-0.0121493441984057,-0.0012957261642441,-9.78969669342041,-4.389180547852943e-05,-5.993368169028229e-05,-3.08494486680652,2.8680660316242506,1.9294863092718773,0.4542299128734361,13.849049149343116,8.96,0.14,0.089,0.05,1.0
21.0,1747221127.294395,0.3383345901966095,4.55219030380249,-0.0222320556640625,0.4127568900585174,0.9279823899269104,0.1418833434581756,0.0118769071996212,0.0295335073024034,-10.40563678741455,-0.353531127510695,0.0168535343096901,-2.066403985885603,2.856231819652456,2.177047106799982,0.5714996541681627,0.6479804710298329,5.19,0.06,0.067,0.134,1.0
21.0,1747221131.8517106,1.686937928199768,4.145203590393066,-0.1092529296875,0.0066253133118152,0.5704336166381836,0.0049125854857265,-0.0695741176605224,0.1215996444225311,-9.800925254821776,-0.1057545899176347,0.0977340961978539,-2.0623581211739395,3.377013194517179,2.382883349302382,0.4368464029398246,0.3452210308928076,5.19,0.06,0.067,0.134,1.0
21.0,1747221134.2895262,4.502357482910156,4.081258296966553,-0.1637115478515625,0.6411031484603882,-0.6475355625152588,-0.0134998643770813,-0.0331706777215004,0.0458023659884929,-9.996545791625977,-0.0602562350440138,-0.1724323472209541,-2.04812256305876,3.250421575908424,2.133185385729658,0.4602256906987943,0.510179187365637,5.19,0.06,0.067,0.134,1.0
21.0,1747221137.0193038,5.918571949005127,3.785306692123413,-0.3007049560546875,0.0071857683360576,0.4585577249526977,-0.0095847509801387,-0.1009465008974075,0.0351051911711692,-9.780546188354492,-0.0432094169362003,0.0174514124488353,-2.03722455368658,2.6900028121723016,1.661813399669077,0.5557905310004981,0.2296175971019068,5.19,0.06,0.067,0.134,1.0
21.0,1747221139.4983516,8.23888874053955,4.193658351898193,-0.3840408325195312,0.6762968301773071,-0.3285079896450043,-0.0018023708835244,-0.0136969909071922,0.0041881576180458,-9.886229515075684,-0.0778589273699692,-0.1172053861429305,-2.032707153937323,2.62586206171136,2.2849193595987423,0.4729397316185731,0.3079384396972339,5.19,0.06,0.067,0.134,1.0
21.0,1747221141.3878703,9.932395935058594,3.668582201004028,-0.4805221557617187,0.4500002562999725,0.1293625682592392,-0.0274652559310197,0.0700340718030929,-0.0208119042217731,-9.78144359588623,-0.0122560894637581,-0.0679458937435549,-2.0345875033802754,2.856330557804116,1.9941007251431755,0.569439102175509,0.3388029715101491,5.19,0.06,0.067,0.134,1.0
21.0,1747221143.6566875,12.011810302734377,4.158775806427002,-0.5893096923828125,0.6473889946937561,0.0318190827965736,0.0051214713603258,-0.0857039839029312,-0.0367580652236938,-9.865679740905762,-0.0897547139183548,-0.0660236507014534,-2.0357523981072663,3.3957661769876504,1.8964361339976168,0.5338065459455581,0.1595729382889607,5.19,0.06,0.067,0.134,1.0
21.0,1747221147.761548,14.513877868652344,3.9054245948791504,0.0618667602539062,0.016568524762988,0.1573717594146728,0.797055721282959,-0.0429501384496688,-0.0049511082470417,-9.71916961669922,-0.0001818746185221,-0.0003300158038762,-2.0368215075391194,2.609195347608771,2.237519564495112,0.5335337462636551,0.9238267865375148,5.19,0.06,0.067,0.134,1.0
21.0,1747221148.264706,14.451601028442385,3.999814510345459,0.4650955200195312,-0.0542163103818893,0.2416340857744217,0.8015408515930176,0.0112649500370025,0.0733291506767273,-9.87718105316162,-6.81345369266426e-05,0.0002757754856744,-2.0353635640822,2.671509323135721,2.349743029472546,0.5330792535158142,1.9995014589393487,5.19,0.06,0.067,0.134,1.0
21.0,1747221148.7681284,14.373076438903809,4.14457893371582,0.8717727661132812,-0.1120351925492286,0.3229290544986725,0.7765810489654541,0.058821327984333,-0.0259498283267021,-9.86026382446289,-5.034591007690887e-05,3.453201161169345e-05,-2.034435552393818,2.690179732662905,2.066259975995963,0.4716983265410637,4.0391405423492985,5.19,0.06,0.067,0.134,1.0
21.0,1747221149.2722764,14.282835960388184,4.34602689743042,1.2784423828125,-0.1520331054925918,0.420755386352539,0.7407140135765076,-0.02299290522933,-0.0388136729598045,-9.859912872314451,7.291154713810894e-05,-5.542843890380975e-05,-2.033657736617699,2.940346927898715,2.270948141599223,0.4078266689254428,6.164170581787312,5.19,0.06,0.067,0.134,1.0
21.0,1747221149.7757344,14.186309814453123,4.601817607879639,1.6702117919921875,-0.1858168691396713,0.5228942036628723,0.712058424949646,0.0386127158999443,0.0610138475894928,-9.950838088989258,0.0001105783555135,-0.000120870011741,-2.0330527438763384,2.566924750788414,2.360618052826179,0.4714666640222103,8.312040190071153,5.19,0.06,0.067,0.134,1.0
21.0,1747221151.278928,13.886919021606444,5.639810085296631,2.7621994018554688,-0.2232470512390136,0.7963876128196716,0.6770917177200317,-0.0444853566586971,-0.0177167542278766,-9.855114936828612,0.0002488616380702,3.6044640923956895e-05,-2.0319992456299825,3.1556367588277427,2.169829340089123,0.5196050100414082,10.984644195031986,5.19,0.06,0.067,0.134,1.0
21.0,1747221151.782309,13.77141284942627,6.1074957847595215,3.1392059326171875,-0.2378567308187484,0.8865188956260681,0.6751967668533325,-0.077974334359169,-0.0397084429860115,-9.809954643249512,0.0001414102887376,5.2857819634802e-05,-2.0317827323120072,2.6958460239030284,2.1201227059111543,0.4194957061383489,13.1790148150057,5.19,0.06,0.067,0.134,1.0
21.0,1747221152.286008,13.66382884979248,6.576155185699463,3.4820709228515625,-0.2413088381290435,0.9682323932647704,0.6757925152778625,0.1000397279858589,0.059506706893444,-9.836609840393066,0.0001208217603408,7.290831297688722e-05,-2.031647949452716,3.0901910981141065,1.956815641278634,0.5025535527655671,15.362193700269549,5.19,0.06,0.067,0.134,1.0
21.0,1747221152.7914507,13.5498628616333,7.0867018699646,3.830764770507813,-0.2471709996461868,1.0361013412475586,0.6797848343849182,-0.1362483501434326,0.1190267205238342,-9.935582160949709,3.029136509811041e-05,5.331348662027098e-05,-2.031582349242528,3.3762613561392687,1.5837930252937338,0.4615613364167553,17.56564241192452,5.19,0.06,0.067,0.134,1.0
21.0,1747221153.2945113,13.433610916137695,7.621608257293701,4.172813415527344,-0.2596977055072784,1.1115611791610718,0.6813796162605286,-0.0003158561885356,0.0547765120863914,-9.774239540100098,6.352787881727258e-05,4.498688092795986e-05,-2.03152221991644,2.6256730064541545,2.3046993671745324,0.456728340646894,19.777568726037885,5.19,0.06,0.067,0.134,1.0
21.0,1747221153.7984183,13.307451248168944,8.19884204864502,4.5216064453125,-0.2757121324539184,1.177931785583496,0.6868440508842468,0.0650502890348434,0.0521186739206314,-9.79032039642334,2.8056290534927453e-05,7.009518332010081e-05,-2.031532996569936,2.669630117243277,1.9398001839507848,0.5070011977900006,22.01182035081898,5.19,0.06,0.067,0.134,1.0
21.0,1747221154.3020775,13.176019668579102,8.798232078552246,4.866462707519531,-0.2880077064037323,1.2461258172988892,0.6902408599853516,-0.0104366298764944,0.0038644038140773,-9.735565185546877,3.2992166456943205e-05,9.299162045167686e-05,-2.0314137807823096,2.663352901574348,2.194805419745702,0.5880997897714486,24.25693373613996,5.19,0.06,0.067,0.134,1.0
21.0,1747221154.805291,13.03294277191162,9.441296577453612,5.218528747558594,-0.3017281293869018,1.3117026090621948,0.6923118233680725,-0.0362893901765346,0.0430948473513126,-9.907687187194824,5.852263949672141e-05,6.147612724462328e-05,-2.031353917372282,2.735847160967155,1.861827047465186,0.4267205714893046,26.52612121295284,5.19,0.06,0.067,0.134,1.0
21.0,1747221155.310789,12.88369846343994,10.10346221923828,5.5643157958984375,-0.3143487274646759,1.3685487508773804,0.692440390586853,-0.0226748585700988,0.0628565847873687,-9.879501342773438,-3.9515598830603055e-05,-3.839624076733913e-05,-2.031311780314524,2.921963314180296,1.5229535959851257,0.582508121687967,28.80564065497237,5.19,0.06,0.067,0.134,1.0
25.0,1747221225.1313992,1.974992275238037,5.6626973152160645,-5.0562896728515625,1.7161555290222168,1.8407610654830933,0.2057264745235443,-0.0102526899427175,-0.0346270352602005,-12.450791358947754,-0.7159952745433636,-0.2093208962436617,-1.9917887392765616,2.541001840159695,1.6973679993764013,0.4042638028756714,2.582310085281464,9.27,0.19,0.011,0.081,1.0
25.0,1747221232.7377944,1.7022008895874023,2.720424175262451,-4.967071533203125,-0.8313731551170349,-0.3771458864212036,-0.1060586422681808,-0.1201067566871643,0.0312450528144836,-10.034870147705078,0.20004357950039,0.0671953264998979,-2.028779456345444,2.988607153351326,2.0152236615265595,0.5666689977697448,0.9292051579446096,9.27,0.19,0.011,0.081,1.0
25.0,1747221235.4069903,4.569732189178467,3.6683738231658936,-4.988784790039063,0.9984237551689148,0.0415431596338748,0.0285857319831848,-0.1040526777505874,0.0649239346385002,-10.113706588745115,-0.2085856893172632,-0.142521239362061,-2.0375153905286485,2.9395025802629835,2.484787923980797,0.5038004565481546,0.7376276747435604,9.27,0.19,0.011,0.081,1.0
25.0,1747221237.2334228,6.165191173553467,2.866992235183716,-4.999435424804688,0.0255070533603429,-0.6468433737754822,-0.0213768575340509,-0.1004122272133827,0.0327036716043949,-9.8651704788208,0.0096832429709022,-0.0573581899119856,-2.049209043869761,3.355177688146352,1.7316858930147818,0.4172222281876462,0.1782593676080811,9.27,0.19,0.011,0.081,1.0
25.0,1747221239.9447222,8.037224769592285,2.320260524749756,-5.021293640136719,0.5930622816085815,0.2696761190891266,0.0247459728270769,-0.0131868068128824,0.0377338081598281,-9.844698905944824,-0.0822455547609712,-0.056408810939556,-2.0424301399695555,2.87842952799723,1.7082103494248218,0.4235185543242101,0.0905399718061318,9.27,0.19,0.011,0.081,1.0
25.0,1747221242.163303,10.108532905578612,2.196343421936035,-5.00634765625,0.4615704715251922,-0.4074292182922363,0.0212219860404729,-0.0814356356859207,-0.0304343029856681,-9.823248863220217,-0.0490868878908482,-0.0714984869632975,-2.047009887030856,3.164911632265274,2.182494411007645,0.4386852560261767,0.2244335618189848,9.27,0.19,0.011,0.081,1.0
25.0,1747221244.3732188,11.942645072937012,1.3721747398376465,-5.004661560058594,0.5441542267799377,0.0510996170341968,0.0121944136917591,0.0011081546545028,0.0731785744428634,-9.807307243347168,-0.023394702648517,-0.0648021014960074,-2.0475142567941567,3.0734061801840253,1.660034621066916,0.429861090788929,0.2349801416473845,9.27,0.19,0.011,0.081,1.0
25.0,1747221246.5830429,14.022698402404783,1.3935673236846924,-5.001708984375,0.5989912748336792,-0.1486429423093795,0.0194086544215679,-0.0402237772941589,0.0364292673766613,-9.82998275756836,-0.0746175881919335,-0.0620885712593112,-2.0484594514054866,2.7615690849369656,1.86566374570698,0.5033850984793363,0.1949011208222718,9.27,0.19,0.011,0.081,1.0
25.0,1747221248.704516,16.005590438842773,0.7370856404304504,-4.9974365234375,0.66916823387146,-0.1899581253528595,0.0064641581848263,-0.0241783801466226,0.0434582829475402,-9.8798828125,-0.0323341822031249,-0.0848768395892042,-2.0521076007655825,2.9355436722857235,1.8465254295141256,0.5840032080876452,0.0632142472753407,9.27,0.19,0.011,0.081,1.0
25.0,1747221250.7418962,17.94251823425293,0.3948032259941101,-5.0096282958984375,0.5860555768013,-0.0292255599051713,0.0188977401703596,-0.0111799202859401,0.0209469310939311,-9.841729164123535,-0.0509086905221024,-0.0589154902571975,-2.0519346008657924,2.52302288958208,2.0020548648149936,0.5684998149513302,0.0585137926934943,9.27,0.19,0.011,0.081,1.0
25.0,1747221252.8622322,19.99057960510254,0.0891840010881424,-5.008216857910156,0.6164885759353638,-0.1605201363563537,0.0258531365543603,-0.049327727407217,0.0232036150991916,-9.828333854675291,-0.0577451497487367,-0.070728672377987,-2.052498452951811,3.33447280716081,2.379729992456978,0.5435062259882545,0.0900557973926692,9.27,0.19,0.011,0.081,1.0
25.0,1747221254.8991785,21.954710006713867,-0.4330302774906158,-5.005058288574219,0.5959604382514954,-0.1127853617072105,0.0185759998857975,-0.0392923206090927,0.0019040908664464,-9.78266716003418,-0.0397767462964322,-0.070979152216305,-2.053966566012153,3.028137516687293,2.17238188260447,0.5006233706583645,0.0562829370792351,9.27,0.19,0.011,0.081,1.0
25.0,1747221257.043833,23.93893051147461,-0.753211498260498,-5.00128173828125,0.6246697902679443,-0.0728797987103462,0.0176086295396089,-0.1049463897943496,0.0354700237512588,-9.894855499267578,-0.0569606979855003,-0.0644923728038732,-2.0529142432458256,3.456115108898331,2.118593767485481,0.5181923646376203,0.0769434154219954,9.27,0.19,0.011,0.081,1.0
25.0,1747221259.1475294,25.97916984558105,-1.170236110687256,-5.004447937011719,0.6033990383148193,-0.1479537636041641,0.0210631694644689,-0.052689716219902,0.0341787710785865,-9.897500038146973,-0.0457297222961842,-0.0735976154611658,-2.0535620225142344,3.0914307838504143,1.546291734604069,0.4918269855520668,0.03660011726482,9.27,0.19,0.011,0.081,1.0
25.0,1747221262.24581,28.300865173339844,-1.711048603057861,-4.870819091796875,0.053982887417078,0.0230858232825994,0.5421859622001648,-0.1317842304706573,0.0155811421573162,-9.20057201385498,-0.0003966213891963,0.0011580402917701,-2.048157251941611,2.587012642611528,1.6948272154689652,0.5564851548945698,0.3457446338182285,9.27,0.19,0.011,0.081,1.0
25.0,1747221262.7501285,28.28483009338379,-1.7558457851409912,-4.6007080078125,-0.0366161949932575,0.0744573697447776,0.7400208115577698,-0.094977430999279,0.1391507089138031,-9.538783073425291,-0.0002227969007004,0.0001300940398393,-2.042153254726029,2.6400019081865547,2.242442678476861,0.4219747427317866,1.7778788440780613,9.27,0.19,0.011,0.081,1.0
25.0,1747221263.2555437,28.182891845703125,-1.7601532936096191,-4.2410430908203125,-0.1415674239397049,0.1355293691158294,0.8082393407821655,-0.0801507383584976,0.0712115168571472,-9.733670234680176,-0.0007753101942203,-0.000653772436294,-2.039130456907691,3.27964082363927,1.9972630212383689,0.5342942492786558,3.9440758181442073,9.27,0.19,0.011,0.081,1.0
25.0,1747221263.7607632,28.01710319519043,-1.6940441131591797,-3.814979553222656,-0.2480564564466476,0.2275971323251724,0.8099252581596375,-0.0032897479832172,0.0884262323379516,-9.848820686340332,-0.0004397753509742,-0.0004928809477483,-2.0378130997869284,3.3577026963428915,2.004084656831689,0.5014774300574835,6.198585811289443,9.27,0.19,0.011,0.081,1.0
25.0,1747221264.2642648,27.819936752319336,-1.5483959913253784,-3.4013214111328125,-0.337526261806488,0.3449845016002655,0.781909167766571,-0.0033850036561489,0.0758362263441085,-9.899434089660645,-0.0001378495183955,-0.0004876438081725,-2.0367415186370432,3.235681143002974,2.3987484904255028,0.4681121329801707,8.496882002713019,9.27,0.19,0.011,0.081,1.0
25.0,1747221264.7683802,27.595260620117188,-1.3240734338760376,-3.00347900390625,-0.425764262676239,0.4689614176750183,0.7522127032279968,-0.0735051780939102,0.0177554003894329,-9.920302391052246,9.8841510762775e-05,-0.0005077625463089,-2.035511819496256,2.75738305363947,1.6251726363011592,0.5119920208103464,10.836260396719716,9.27,0.19,0.011,0.081,1.0
25.0,1747221265.2721996,27.34306907653809,-1.0158251523971558,-2.6115798950195312,-0.4842779338359833,0.602130115032196,0.7242979407310486,-0.0241270866245031,0.0750294998288154,-9.847760200500488,0.0002174624898683,-0.0003185826114997,-2.03442850591724,3.412854243297083,1.594027866789375,0.5637203387766924,13.221488211250154,9.27,0.19,0.011,0.081,1.0
28.0,1747222476.1493635,-4.9585700035095215,0.3657799363136291,-1.8865432739257808,-0.0081649189814925,-0.3997115194797516,-0.5400114059448242,0.0883760005235672,0.0078588258475065,-9.871539115905762,0.0108290266054996,0.0180530282371856,0.795526842229321,3.357970546526948,2.0783677871707207,0.5454672147652011,7.6321100778676465,5.47,0.12,0.155,0.171,1.0
