mission_id,time,target_x,target_y,target_z,real_x,real_y,real_z,vx,vy,vz,ax,ay,az,roll,pitch,yaw,wind_x,wind_y,wind_z,erreur_m,erreur_ok,velocity,erreur_cumulee_m,battery_level,rain,fog,snow
1,1747579808.8778136,0,0,-5,0.007845423184335232,-0.007470808923244476,-4.881874084472656,0.0491270013153553,-0.06680390983819962,-0.362067848443985,-0.05514184385538101,-0.07834525406360626,-9.003752708435059,-0.022288473651966227,-0.019830495852299738,-3.082386870565772,2.994003299748259,2.1956983616682137,0.4179986050741063,0.11862164882550776,True,8.08,0.11862164882550776,100,0.08,0.056,0.005
1,1747579811.0430257,2,0,-4.9,2.17020583152771,-0.08825452625751495,-4.8187408447265625,0.7261610627174377,0.07621004432439804,0.05500341206789017,-0.07680365443229675,-0.024356387555599213,-10.074814796447754,-0.14858318443851357,-0.014886281547318763,-3.1276413474198623,2.734221835312523,2.3406609994425485,0.4216394063452409,0.20823529193374082,True,8.08,0.3268569407592486,100,0.08,0.056,0.005
1,1747579812.730297,4,0,-4.800000000000001,3.937488079071045,0.028182173147797585,-4.7247467041015625,0.5926675796508789,0.0176096074283123,-0.04948742687702179,-0.05839290842413902,-0.08670914173126221,-9.9262056350708,-0.10292599259614792,-0.0018612937895875568,-3.136554867708875,3.405689006963122,2.458569738537234,0.43356798830839016,0.10180880946724734,True,8.08,0.42866575022649595,100,0.08,0.056,0.005
1,1747579822.168778,6,0,-4.700000000000001,5.296220779418945,-0.07550142705440521,-4.640625,-1.2017048597335815,-0.532368540763855,-0.1933753937482834,-0.10988559573888779,0.044797029346227646,-10.046292304992676,0.1780520389998532,0.1390167896160048,-2.1360853122115073,3.0424370362688413,2.1645238234115265,0.49396189134107543,0.7103034896675706,True,8.08,1.1389692398940665,100,0.08,0.056,0.005
1,1747579831.1407104,8,0,-4.600000000000001,8.38648509979248,-0.3634645342826843,-4.610565185546875,0.5135174989700317,0.3170384168624878,0.021136168390512466,-0.0497032031416893,-0.0023485803976655006,-9.884101867675781,-0.06052366706099334,-0.14098214691372307,-2.1700468715019263,3.450740002768464,2.341903801504447,0.42790673558419073,0.5306494353041111,True,8.08,1.6696186751981776,100,0.08,0.056,0.005
1,1747579832.7975144,10,0,-4.500000000000002,9.86698055267334,0.19714868068695068,-4.510467529296875,0.5381086468696594,0.05778905004262924,0.04422581568360329,-0.10798203200101852,0.013642444275319576,-9.902295112609863,-0.07388522629500383,-0.04531478980800634,-2.187640046871381,3.1454239689916936,1.875259087963304,0.5986076012464526,0.2380574401972689,True,8.08,1.9076761153954465,100,0.08,0.056,0.005
1,1747579834.9165728,12,0,-4.400000000000002,11.992527961730957,-0.04784354940056801,-4.394477844238281,0.63846755027771,-0.1439991146326065,0.010015218518674374,-0.12034685909748077,0.014689119532704353,-9.860918998718262,-0.03982244809267882,-0.11187206651200061,-2.19827810457992,3.468302981169826,2.2889262302426485,0.544352581434089,0.04873736533087669,True,8.08,1.9564134807263232,100,0.08,0.056,0.005
1,1747579837.1393325,14,0,-4.3000000000000025,14.037463188171387,-0.05572497099637985,-4.293022155761719,0.6956440210342407,0.1396176815032959,0.0035094856284558773,-0.05114953964948654,-0.08130491524934769,-9.924266815185547,-0.0714138068436456,-0.09620362176107942,-2.196543857416011,2.5563715392140676,1.7543576601403723,0.4483658465798675,0.06750891178745111,True,8.08,2.023922392513774,100,0.08,0.056,0.005
1,1747579839.0445197,16,0,-4.200000000000003,15.97482967376709,0.09583902359008789,-4.1964263916015625,0.5279980897903442,-0.09190687537193298,0.01785632222890854,-0.010286293923854828,-0.01000459399074316,-9.974322319030762,-0.05618905833039412,-0.08503541874972785,-2.1967200766739396,2.83123953204722,1.692233728119013,0.40921297662731637,0.09915359016373514,True,8.08,2.123075982677509,100,0.08,0.056,0.005
1,1747579841.107207,18,0,-4.100000000000003,17.971620559692383,-0.07407819479703903,-4.0929718017578125,0.5755066871643066,0.025205297395586967,0.009123897179961205,-0.052613988518714905,0.03533901274204254,-9.871024131774902,-0.04440884607882682,-0.09496530098699187,-2.1959635985850023,3.249631157529609,1.9172548208491456,0.41003809959344845,0.07963898007316016,True,8.08,2.2027149627506692,100,0.08,0.056,0.005
1,1747579842.5603497,20,0,-4.0000000000000036,18.415945053100586,-0.06317029893398285,-3.63189697265625,0.14501436054706573,-0.04244835674762726,0.7378886938095093,-0.030217666178941727,0.0233001746237278,-9.554876327514648,-0.0004053782711211555,-0.0010342491261519672,-2.1919697729552556,3.082923915403258,1.6821453717517194,0.5694821380221954,1.627488986200383,False,8.08,3.830203948951052,100,0.08,0.056,0.005
1,1747579843.0660143,22,0,-3.9000000000000035,18.421619415283203,-0.07578025758266449,-3.2751998901367188,0.12834694981575012,-0.07636092603206635,0.7967511415481567,-0.1325870156288147,0.026800349354743958,-9.689116477966309,0.00088830680670849,0.0010932128593077815,-2.1901974085790186,2.928564655996536,1.8113259848305239,0.4772415129690292,3.633307781320293,False,8.08,7.463511730271345,100,0.08,0.056,0.005
1,1747579843.5716436,24,0,-3.8000000000000034,18.43627166748047,-0.10498825460672379,-2.8499908447265625,0.12720851600170135,-0.10939791798591614,0.7972739934921265,-0.061566565185785294,-0.017054904252290726,-9.88589859008789,-0.0005618279889593905,-0.0011861712571332604,-2.188900668261206,2.820864596696738,2.0742532925258357,0.4799771112284786,5.645229214725411,False,8.08,13.108740944996757,100,0.08,0.056,0.005
1,1747579844.0761425,26,0,-3.7000000000000033,18.47671127319336,-0.16007283329963684,-2.41064453125,0.14188334345817566,-0.15168137848377228,0.770280659198761,-0.02353452518582344,-0.04602599889039993,-9.883953094482422,-0.00022723974220942764,-0.0005053436729975998,-2.1873025513755624,2.8607511327868558,1.6653761103231348,0.5198751750043883,7.634653502527276,False,8.08,20.743394447524032,100,0.08,0.056,0.005
1,1747579844.5799065,28,0,-3.600000000000003,18.549962997436523,-0.24423453211784363,-1.988861083984375,0.17160671949386597,-0.2007291465997696,0.7337988615036011,0.006784021854400635,-0.052712492644786835,-9.93646240234375,-3.664678552037318e-05,-0.00020203379608888257,-2.185605990498185,2.6730285337794593,1.5063061409969873,0.432220615154877,9.589505642273627,False,8.08,30.33290008979766,100,0.08,0.056,0.005
1,1747579845.0832734,30,0,-3.500000000000003,18.659805297851562,-0.35555848479270935,-1.5830459594726562,0.225275918841362,-0.2360866516828537,0.7109507322311401,-0.14013801515102386,0.011345406994223595,-9.852665901184082,-2.1690813774882425e-05,-5.780897592215262e-05,-2.184628670525073,3.121505802015625,2.360634911173883,0.5818680381297906,11.506569884732707,False,8.08,41.83946997453037,100,0.08,0.056,0.005
1,1747579846.542832,32,0,-3.400000000000003,19.191268920898438,-0.8415426015853882,-0.4749908447265625,0.4054125249385834,-0.39129748940467834,0.6837660074234009,-0.14000941812992096,0.10197515785694122,-9.849318504333496,3.6573959409443015e-05,0.00016932394764822877,-2.1817440445471865,3.259134488963592,1.6962563105514832,0.5740050466222195,13.165388880145501,False,8.08,55.00485885467587,100,0.08,0.056,0.005
1,1747579847.0474606,34,0,-3.300000000000003,19.44625473022461,-1.060965895652771,-0.105194091796875,0.4743352234363556,-0.43016573786735535,0.6817732453346252,-0.10393756628036499,-0.006190185435116291,-9.903173446655273,7.592574693347423e-05,0.00019161462862675257,-2.1808852220135075,3.286415877162981,2.2627173376723313,0.485340772460246,14.938003039239797,False,8.08,69.94286189391566,100,0.08,0.056,0.005
1,1747579847.552865,36,0,-3.200000000000003,19.71449851989746,-1.2875299453735352,0.23758697509765625,0.5363011360168457,-0.47620221972465515,0.6837253570556641,-0.1437179297208786,-0.022561319172382355,-9.821173667907715,0.00010810025134920672,9.560594858999729e-05,-2.179881938322555,3.3285825556704216,1.9540110393906343,0.5950891808252499,16.694079670051195,False,8.08,86.63694156396686,100,0.08,0.056,0.005
1,1747579848.0571146,38,0,-3.1000000000000028,20.037878036499023,-1.5589354038238525,0.611114501953125,0.6002714037895203,-0.5259934663772583,0.687868058681488,-0.061173468828201294,-0.022578168660402298,-9.76058292388916,3.6099284445386365e-06,8.880438094725917e-05,-2.178724002008451,3.4440035112933294,1.7681074053112338,0.5360126851917575,18.407620049088,False,8.08,105.04456161305485,100,0.08,0.056,0.005
1,1747579848.5612788,40,0,-3.0000000000000027,20.384172439575195,-1.8501654863357544,0.97833251953125,0.6494387984275818,-0.574968159198761,0.6894438862800598,-0.05790150910615921,-0.03257835656404495,-9.754364013671875,0.00011446412932505167,8.398131103250138e-05,-2.177833175614045,2.639748183306727,1.746242842096412,0.4424305547069767,20.10052071074551,False,8.08,125.14508232380037,100,0.08,0.056,0.005
2,1747579850.3180826,0,0,-5,21.77700424194336,-3.0630011558532715,2.257568359375,0.8277393579483032,-0.7373097538948059,0.6975618600845337,-0.1560196578502655,-0.041006967425346375,-9.780814170837402,5.321635729561518e-05,3.977911903490445e-05,-2.1748730654360617,3.1654532273815112,2.3413833262126533,0.5900718268280111,23.157983252549837,False,6.88,23.157983252549837,50,0.17,0.008,0.001
2,1747579850.8220742,2,0,-5.1,22.235004425048828,-3.4703617095947266,2.6277923583984375,0.8769996762275696,-0.7845463156700134,0.6956632733345032,-0.08095499873161316,-0.020122138783335686,-9.831476211547852,-0.00011479324206475203,9.47756722594276e-05,-2.1739210866321077,2.7504429215499413,2.148543911611122,0.5324565936150151,21.93667224561848,False,6.88,45.09465549816832,50,0.17,0.008,0.001
2,1747579851.3255863,4,0,-5.199999999999999,22.719148635864258,-3.9012653827667236,2.9981155395507812,0.9309158325195312,-0.8312811851501465,0.6988933086395264,-0.07984374463558197,-0.025262674316763878,-9.778297424316406,0.0004903706219266873,-0.0004718203766803201,-2.1726974027626835,2.792756993618001,2.362584590410065,0.523784310276107,20.80469888362186,False,6.88,65.89935438179018,50,0.17,0.008,0.001
2,1747579851.828325,6,0,-5.299999999999999,23.202407836914062,-4.330867767333984,3.3493194580078125,0.9736053943634033,-0.8738293051719666,0.698315441608429,-0.08213897794485092,-0.0435338020324707,-9.80001449584961,0.00016749452564937732,-0.00013648626434424732,-2.1714280150944405,2.6436142725925453,2.1037020627549476,0.4362947529665573,19.73550045203636,False,6.88,85.63485483382654,50,0.17,0.008,0.001
2,1747579852.3315074,8,0,-5.399999999999999,23.736650466918945,-4.802367687225342,3.7192459106445312,1.0223809480667114,-0.9089909195899963,0.6963222622871399,-0.05823244899511337,0.05576177313923836,-9.78817081451416,0.0001573187206152379,-0.00013720351907723182,-2.1703346082306623,2.785991554524466,2.441392324241437,0.45661215022363827,18.811314395865413,False,6.88,104.44616922969195,50,0.17,0.008,0.001
2,1747579852.8357441,10,0,-5.499999999999998,24.29485321044922,-5.293626308441162,4.089569091796875,1.067662000656128,-0.9472512602806091,0.6996819972991943,-0.13192495703697205,-0.03745987266302109,-9.772154808044434,6.687371870451286e-05,5.279967280483054e-05,-2.169560833162861,2.634487761955681,2.3033072372553285,0.582038698695947,18.009029489899135,False,6.88,122.45519871959108,50,0.17,0.008,0.001
2,1747579853.3413448,12,0,-5.599999999999998,24.88067626953125,-5.802328586578369,4.4624481201171875,1.123115062713623,-0.9772347211837769,0.6971649527549744,-0.16279393434524536,0.009404747746884823,-9.838635444641113,5.7929877102748925e-05,2.2768747952773247e-05,-2.168561783405368,3.3160646348214033,2.217048900301698,0.4357693168538231,17.34450057964022,False,6.88,139.7996992992313,50,0.17,0.008,0.001
2,1747579853.8457878,14,0,-5.6999999999999975,25.459627151489258,-6.306373596191406,4.816474914550781,1.1640962362289429,-1.0230324268341064,0.6969619989395142,-0.10352626442909241,0.03178645670413971,-9.782310485839844,-3.7933419494571663e-06,1.971559113977518e-05,-2.1676262216585713,2.6650452581926682,2.022796473005555,0.4670752170683464,16.78361245424434,False,6.88,156.58331175347564,50,0.17,0.008,0.001
2,1747579854.3504713,16,0,-5.799999999999997,26.093259811401367,-6.859744071960449,5.189674377441406,1.2083195447921753,-1.067964792251587,0.6970061659812927,-0.0874553993344307,-0.04323945939540863,-9.71460247039795,2.8019584322123904e-05,4.412364924396048e-05,-2.1667352453905675,2.6314133813938865,1.7965264166610688,0.5464798530185154,16.422634541249423,False,6.88,173.00594629472505,50,0.17,0.008,0.001
2,1747579854.853497,18,0,-5.899999999999997,26.715330123901367,-7.407331943511963,5.544013977050781,1.248888373374939,-1.1152957677841187,0.6961504220962524,-0.023747626692056656,-0.02726830169558525,-9.852767944335938,4.639953297196601e-05,4.700120195154898e-05,-2.1655617678223162,2.9204633416953953,1.5124637138512205,0.4626128508926529,16.1799567860019,False,6.88,189.18590308072694,50,0.17,0.008,0.001
2,1747579855.3566034,20,0,-5.9999999999999964,27.3939151763916,-8.007648468017578,5.916481018066406,1.2965614795684814,-1.1551504135131836,0.6934180855751038,-0.06394556164741516,0.05912570282816887,-9.794119834899902,-1.3829073052361777e-05,-3.385405849562617e-05,-2.1643928136019293,3.0528121578808602,2.049759641002008,0.5143398727177894,16.149146586645227,False,6.88,205.33504966737218,50,0.17,0.008,0.001
2,1747579855.85963,22,0,-6.099999999999996,28.06035804748535,-8.59826946258545,6.270942687988281,1.341305136680603,-1.1954723596572876,0.6950471997261047,-0.042985547333955765,0.0017045794520527124,-9.865578651428223,3.960368560250555e-05,2.107150109771382e-06,-2.1633839197941915,3.0481130717638494,2.029370947711109,0.5865789856364151,16.23879307105182,False,6.88,221.573842738424,50,0.17,0.008,0.001
2,1747579856.3670216,24,0,-6.199999999999996,28.78520393371582,-9.239581108093262,6.643730163574219,1.386799693107605,-1.2298473119735718,0.6944650411605835,-0.031303178519010544,-0.041820816695690155,-9.825518608093262,5.19831364098737e-05,-5.332946813172734e-05,-2.1627233466337845,2.788955247889699,2.293484434664242,0.5336116082214846,16.52965336161014,False,6.88,238.10349610003414,50,0.17,0.008,0.001
2,1747579856.8723845,26,0,-6.299999999999995,29.484142303466797,-9.85704517364502,6.991920471191406,1.4274076223373413,-1.2742072343826294,0.6945682168006897,0.04187730699777603,0.03323371335864067,-9.89217472076416,3.2416132166802e-05,-5.7276272751630225e-06,-2.1618776114674403,2.600551979523891,1.8724572797531243,0.5210861104769245,16.910817158214517,False,6.88,255.01431325824865,50,0.17,0.008,0.001
2,1747579857.376377,28,0,-6.399999999999995,30.27105712890625,-10.550662994384766,7.369659423828125,1.473190188407898,-1.3123624324798584,0.6927842497825623,-0.16137392818927765,0.03915899991989136,-9.812383651733398,6.7172668284367755e-06,2.2814473934017145e-05,-2.1609871205874627,2.7789685801146997,1.975816254990978,0.4781048449663992,17.49507675753538,False,6.88,272.50939001578405,50,0.17,0.008,0.001
2,1747579857.8818054,30,0,-6.499999999999995,30.972517013549805,-11.169598579406738,7.696311950683594,1.5154051780700684,-1.3465303182601929,0.6950411796569824,-0.10385748744010925,-0.1013624295592308,-9.851325035095215,-3.177113016301815e-07,-1.741060392500844e-05,-2.160219863343074,3.0646896053037898,2.1354472282612784,0.5838911419686567,18.089803613302454,False,6.88,290.5991936290865,50,0.17,0.008,0.001
2,1747579858.386574,32,0,-6.599999999999994,31.83592987060547,-11.926427841186523,8.086250305175781,1.5650057792663574,-1.3784126043319702,0.6953487396240234,-0.16988897323608398,-0.037468329071998596,-9.862689018249512,7.244911941164928e-07,5.727461390650222e-05,-2.159427723312128,2.6023661228100003,2.497368298073658,0.48231807993995424,18.91963393104275,False,6.88,309.5188275601293,50,0.17,0.008,0.001
2,1747579858.8904371,34,0,-6.699999999999994,32.63897705078125,-12.629690170288086,8.437492370605469,1.6035492420196533,-1.420242190361023,0.6933184266090393,-0.05813862010836601,0.006680135149508715,-9.779899597167969,3.1369274595415766e-05,-2.0408683758619438e-05,-2.1586307272877265,2.531447996997278,1.8276325125990787,0.5420333219973095,19.76120270975201,False,6.88,329.2800302698813,50,0.17,0.008,0.001
2,1747579859.3935497,36,0,-6.799999999999994,33.50821304321289,-13.39227294921875,8.807807922363281,1.6487164497375488,-1.4648640155792236,0.6945362091064453,-0.16974234580993652,-0.011756434105336666,-9.76803970336914,2.0772957840193022e-05,0.00014916154276743313,-2.157749399172074,2.5475409996264697,1.8964322357741743,0.5123931057277363,20.716313502304807,False,6.88,349.9963437721861,50,0.17,0.008,0.001
2,1747579859.8971238,38,0,-6.899999999999993,34.35490036010742,-14.138392448425293,9.159225463867188,1.690138339996338,-1.5089524984359741,0.6957460045814514,-0.037176698446273804,-0.05552848055958748,-9.793537139892578,-6.1966654256875965e-06,-3.4627252348582655e-05,-2.1567539526763637,2.850936489502384,1.5555408007226466,0.4260981791914361,21.704368567404913,False,6.88,371.700712339591,50,0.17,0.008,0.001
2,1747579860.4022355,40,0,-6.999999999999993,35.269813537597656,-14.94776439666748,9.530784606933594,1.736883282661438,-1.55095636844635,0.6963323354721069,-0.04158850014209747,-0.05717302858829498,-9.796797752380371,4.5152289884387827e-05,8.73220984755689e-06,-2.1558018393547673,3.1474152550171346,1.6613595255498712,0.5375811107633501,22.783265001930843,False,6.88,394.48397734152184,50,0.17,0.008,0.001
3,1747579884.2494423,0,2,-5,-0.40938499569892883,1.8757797479629517,-5.0310516357421875,-0.21036869287490845,0.6081287264823914,-0.0030621786136180162,-0.013378219678997993,-0.07397733628749847,-9.8884859085083,0.0887566539803729,-0.07078664296681507,1.9010029999863682,3.420535440349508,1.7824451631614,0.508937341480687,0.4289416624691816,True,9.7,0.4289416624691816,100,0.08,0.193,0.175
3,1747579886.7691307,2,-2,-5,2.3658621311187744,-2.925788640975952,-4.928253173828125,0.7170189023017883,-1.1491003036499023,-0.05965719744563103,0.02881503477692604,-0.023507364094257355,-10.479185104370117,-0.33234826998608047,0.050648214984593834,1.8881729695600908,3.369848406167394,1.7102163861354716,0.4443612011248042,0.9980417395142395,True,9.7,1.426983401983421,100,0.08,0.193,0.175
3,1747579888.2419922,4,2,-5,3.486924886703491,-3.1744465827941895,-4.528282165527344,0.28981032967567444,0.6559959650039673,0.7071781158447266,0.043150320649147034,-0.0323597714304924,-9.678421974182129,-0.003073984111513558,-0.0026221632577718445,1.86998822267157,3.1238228795727436,2.107070996008643,0.5882389852172513,5.221174314791095,False,9.7,6.6481577167745165,100,0.08,0.193,0.175
3,1747579888.7462332,6,-2,-5,3.6548173427581787,-2.532818555831909,-4.1653900146484375,0.2672143578529358,0.9568193554878235,0.7536710500717163,0.04395429417490959,-0.0026507526636123657,-9.78091049194336,-0.0024830402899667452,0.0003624428133330649,1.8653673069786512,2.6239642039483932,2.4542164282696386,0.4092900044151267,2.5456533811411064,False,9.7,9.193811097915622,100,0.08,0.193,0.175
3,1747579889.2491257,8,2,-5,3.7665507793426514,-1.7499103546142578,-3.7471694946289062,0.22773364186286926,1.219681739807129,0.7545090317726135,-0.03755838796496391,-0.03712577372789383,-9.979965209960938,-0.0017177868545739676,0.00023178060537122104,1.8631132737470757,3.3560196224213548,2.1075298816322454,0.4947876666953382,5.792538670282308,False,9.7,14.98634976819793,100,0.08,0.193,0.175
3,1747579889.7543006,10,-2,-5,3.8280320167541504,-0.969398558139801,-3.3551177978515625,0.17214173078536987,1.4063010215759277,0.7337216138839722,-0.050551265478134155,-0.04642769694328308,-9.940035820007324,-0.0011501970919923824,0.00019362315194679908,1.8614776723261668,3.188259885234553,1.683025656970307,0.578719015582681,6.470005067781698,False,9.7,21.456354835979628,100,0.08,0.193,0.175
3,1747579890.2592087,12,2,-5,3.8570806980133057,-0.08405036479234695,-2.9402847290039062,0.10550413280725479,1.5643635988235474,0.7073336839675903,-0.010955357924103737,-0.14064982533454895,-9.8425931930542,-0.0010088793975470403,0.00027183718723417926,1.859977646787129,2.966158628737233,2.410582754328335,0.5148350991960863,8.654064228975487,False,9.7,30.110419064955117,100,0.08,0.193,0.175
3,1747579890.7632523,14,-2,-5,3.8550612926483154,0.8102341294288635,-2.5487747192382812,0.05142523720860481,1.672078013420105,0.6886162161827087,-0.01992395520210266,-0.05383240431547165,-9.82441520690918,1.8452838736284265e-05,0.00017580867755697557,1.8585770172369478,3.4596797646180484,1.6567500177093275,0.4240363481134512,10.80859392405759,False,9.7,40.91901298901271,100,0.08,0.193,0.175
3,1747579891.2675202,16,2,-5,3.8336338996887207,1.6777726411819458,-2.189300537109375,0.0025560844223946333,1.7509993314743042,0.6775338649749756,0.029267605394124985,-0.12793494760990143,-9.860319137573242,7.211262829390267e-05,0.00018431686783410857,1.8572055257500835,3.318332549502415,1.8439823303502512,0.5162222073700967,12.490969779335309,False,9.7,53.409982768348016,100,0.08,0.193,0.175
3,1747579891.77181,18,-2,-5,3.797183036804199,2.609895944595337,-1.8177261352539062,-0.035564448684453964,1.8179060220718384,0.6804181337356567,-0.02845650352537632,-0.04719714820384979,-9.860504150390625,8.43505315416201e-05,0.00024106151785991496,1.8556440710584081,3.402088731941422,1.780645096797075,0.5873023501690866,15.267547846995107,False,9.7,68.67753061534313,100,0.08,0.193,0.175
3,1747579892.277686,20,2,-5,3.7519478797912598,3.496565341949463,-1.4756622314453125,-0.0692349523305893,1.870933175086975,0.6790459156036377,0.062084659934043884,-0.08721967786550522,-9.810680389404297,0.00018232027384691121,0.0001587453843400634,1.8541763286931376,3.356944967151927,2.240699607857866,0.5806649604722784,16.693108225570366,False,9.7,85.3706388409135,100,0.08,0.193,0.175
3,1747579892.7830818,22,-2,-5,3.69309139251709,4.4853596687316895,-1.10418701171875,-0.09925946593284607,1.9214189052581787,0.6839091181755066,0.07324623316526413,-0.05979173630475998,-9.793227195739746,0.00020008244569827635,0.00010757697067275813,1.852754268781504,3.2775091554758475,1.8660564524701653,0.5262332192586351,19.808587825365148,False,9.7,105.17922666627865,100,0.08,0.193,0.175
3,1747579893.2871869,24,2,-5,3.6275060176849365,5.480693340301514,-0.7375259399414062,-0.1306966096162796,1.9671553373336792,0.6871942281723022,0.0142118064686656,-0.07143712788820267,-9.784372329711914,0.00021652044390800686,3.0657318336370544e-05,1.8510042545943879,2.8501985630294446,1.9824285900620071,0.594027967762512,21.102663867420983,False,9.7,126.28189053369964,100,0.08,0.193,0.175
3,1747579893.7902305,26,-2,-5,3.5619585514068604,6.431800365447998,-0.39556121826171875,-0.14379118382930756,2.013840913772583,0.6894094347953796,0.02624259889125824,-0.03451377525925636,-9.813898086547852,0.00015490999576909744,1.2748346112226489e-05,1.8496055806908818,3.437701953744722,2.30907363609547,0.49387076935465074,24.40823258546854,False,9.7,150.69012311916816,100,0.08,0.193,0.175
3,1747579894.293608,28,2,-5,3.4902455806732178,7.500296115875244,-0.02269744873046875,-0.15135759115219116,2.067706346511841,0.6939193606376648,0.02019992657005787,-0.04729655385017395,-9.85063362121582,0.00028600532222439694,2.3755656964260104e-06,1.8479057346607515,3.281574541446441,2.425519240804406,0.5456964721186441,25.607710943090858,False,9.7,176.29783406225903,100,0.08,0.193,0.175
3,1747579894.7983387,30,-2,-5,3.421164035797119,8.506831169128418,0.31964111328125,-0.16548137366771698,2.11307430267334,0.6951408982276917,0.001450488343834877,0.024538278579711914,-9.827438354492188,0.0002018859893942993,-0.00014696266286156739,1.846124140343451,3.023392665027287,1.6928583894804503,0.5569317993804828,29.07106128098328,False,9.7,205.36889534324231,100,0.08,0.193,0.175
3,1747579895.3028579,32,2,-5,3.344170331954956,9.61967945098877,0.6893386840820312,-0.1717900037765503,2.1708827018737793,0.6978201270103455,0.006433420814573765,-0.04648829251527786,-9.797311782836914,0.00015010014598202501,-5.149538581664265e-05,1.8444433690667124,3.1070042213254196,1.9596821084755294,0.463432226013157,30.192460376094285,False,9.7,235.5613557193366,100,0.08,0.193,0.175
3,1747579895.8067484,34,-2,-5,3.261842966079712,10.787012100219727,1.0658493041992188,-0.1862206906080246,2.2301371097564697,0.6981502771377563,0.02735842764377594,-0.05125465244054794,-9.84865951538086,0.00015888239788931704,-0.0001495355012131238,1.8426955562357756,2.6170259845223085,2.1223438520027362,0.5181210915084368,33.83986560366875,False,9.7,269.40122132300536,100,0.08,0.193,0.175
3,1747579897.4060245,36,2,-5,3.1797921657562256,11.891188621520996,1.4120559692382812,-0.19856737554073334,2.2912049293518066,0.6988298296928406,-0.004952938761562109,-0.16427220404148102,-9.908124923706055,9.624202416819875e-05,-0.0001118631569200944,1.840989450011752,2.825947672800834,2.1302998230931465,0.5520451509193374,34.87285644139446,False,9.7,304.2740777643998,100,0.08,0.193,0.175
3,1747579898.8796585,38,-2,-5,2.878587007522583,15.5311918258667,2.4930572509765625,-0.23849131166934967,2.4791226387023926,0.6966261267662048,0.029301006346940994,-0.14115703105926514,-9.802496910095215,-1.1685066221364391e-05,-0.00012490672618321928,1.8349844604967578,2.856288134206618,1.6998538608950606,0.49073033073706396,39.96251048657866,False,9.7,344.23658825097846,100,0.08,0.193,0.175
3,1747579899.383896,40,2,-5,2.7697157859802246,16.770526885986328,2.8399658203125,-0.24073615670204163,2.5452001094818115,0.6953137516975403,0.031853899359703064,-0.07617206126451492,-9.799220085144043,7.511500759054102e-05,-0.00010630396399563581,1.8328868676147339,3.3132072438101985,1.7745221324483587,0.5025833103722446,40.813326147350494,False,9.7,385.04991439832895,100,0.08,0.193,0.175
4,1747579901.0320797,0,2,-5,2.3627800941467285,21.267208099365234,4.028434753417969,-0.27325111627578735,2.764937400817871,0.6985401511192322,-0.01958610489964485,-0.040607795119285583,-9.862435340881348,4.912479194575926e-05,1.8713615320590007e-06,1.8249051854761091,2.6645198297081203,1.627417489452526,0.5163575972510257,21.408425253022855,False,3.53,21.408425253022855,50,0.04,0.145,0.085
4,1747579901.5358188,2,-2,-5,2.2243993282318115,22.745853424072266,4.4019012451171875,-0.27828121185302734,2.835273027420044,0.6966508626937866,0.02970552071928978,-0.03423566371202469,-9.854933738708496,-5.497067467604923e-06,-0.00011388970675943907,1.8223209864733996,3.3633349524540783,2.2287168668577433,0.5701334066760844,26.472690905291742,False,3.53,47.8811161583146,50,0.04,0.145,0.085
4,1747579902.0391378,4,2,-5,2.0867717266082764,24.18017578125,4.752838134765625,-0.2949797213077545,2.8943188190460205,0.692279577255249,-0.01593131758272648,-0.06262679398059845,-9.762741088867188,0.00027612625842444007,-0.0003809544704796842,1.8197383463622885,2.6055888892035552,2.1366280243546565,0.5272489656994099,24.305112462117783,False,3.53,72.18622862043239,50,0.04,0.145,0.085
4,1747579902.5443797,6,-2,-5,1.9347350597381592,25.725555419921875,5.1222076416015625,-0.30147913098335266,2.961686849594116,0.6950397491455078,-0.001989123411476612,-0.09632337093353271,-9.730789184570312,-0.00019133164220051782,0.00015443784373988316,1.8167719139236551,3.4105840294528016,1.7944254628406737,0.5966037657889538,29.794158654296286,False,3.53,101.98038727472867,50,0.04,0.145,0.085
4,1747579903.047824,8,2,-5,1.7746237516403198,27.30586814880371,5.493415832519531,-0.3222329616546631,3.0268542766571045,0.6978617906570435,-0.034670062363147736,-0.0631902888417244,-9.868738174438477,-0.00010870603738896337,5.179896282415967e-05,1.814305356590288,2.6975953860630666,2.2148422675815413,0.4489969147485818,28.09366562114048,False,3.53,130.07405289586916,50,0.04,0.145,0.085
4,1747579903.5526712,10,-2,-5,1.6148253679275513,28.839075088500977,5.847930908203125,-0.3362671136856079,3.093871831893921,0.6983140707015991,0.010670062154531479,-0.07949291169643402,-9.83468246459961,-4.934132427879085e-05,-5.9425413471653645e-05,1.8116334460415842,2.814653874195725,2.40859597758934,0.5947069863195468,33.74962682628804,False,3.53,163.8236797221572,50,0.04,0.145,0.085
4,1747579904.0576162,12,2,-5,1.439565896987915,30.48870086669922,6.221076965332031,-0.3418732285499573,3.157599687576294,0.6969302296638489,-0.0805404856801033,-0.009857706725597382,-9.78598403930664,-4.67628167443424e-06,-3.608361828295803e-05,1.8088721195027848,3.4027689712303024,1.903822311550914,0.5720654273211033,32.38890880808174,False,3.53,196.21258853023895,50,0.04,0.145,0.085
4,1747579904.5610845,14,-2,-5,1.2663016319274902,32.0865592956543,6.5722808837890625,-0.362109899520874,3.2173538208007812,0.6932346820831299,-0.031604938209056854,-0.07523520290851593,-9.800106048583984,1.1840589666542301e-05,-6.0946548451776374e-05,1.8059759696006847,2.7055996481816322,2.068941183751013,0.41292673738827984,38.18321992182585,False,3.53,234.39580845206478,50,0.04,0.145,0.085
4,1747579905.0646589,16,2,-5,1.0770679712295532,33.803672790527344,6.94244384765625,-0.371618390083313,3.2806553840637207,0.6969661116600037,-0.1096399575471878,-0.09708462655544281,-9.862245559692383,-1.6680085810562902e-05,-8.037953752394907e-05,1.8034162531548905,3.2074531758064895,1.6341767395005549,0.585135968992067,37.10511377636046,False,3.53,271.5009222284252,50,0.04,0.145,0.085
4,1747579905.5694776,18,-2,-5,0.8831212520599365,35.55405807495117,7.313018798828125,-0.3760199546813965,3.3464584350585938,0.699090838432312,0.06733226776123047,-0.1125493198633194,-9.840869903564453,-1.1606128353306579e-05,-0.00011035393472711199,1.8004811185544825,3.1896958269357762,2.0480609427432768,0.58714629570114,43.06861093544558,False,3.53,314.5695331638708,50,0.04,0.145,0.085
4,1747579906.073038,20,2,-5,0.6965674757957458,37.245750427246094,7.666145324707031,-0.37787604331970215,3.404453992843628,0.6978287100791931,-0.02628406509757042,-0.08268480002880096,-9.797389030456543,3.556856591616955e-05,-2.301287574719941e-06,1.7975738443704714,3.4473055766189558,1.6606571041980365,0.5816641972299396,42.13450685344285,False,3.53,356.7040400173137,50,0.04,0.145,0.085
4,1747579906.5778408,22,-2,-5,0.494314044713974,39.05914306640625,8.039230346679688,-0.3938262462615967,3.4667370319366455,0.6969936490058899,0.055865220725536346,-0.1509014070034027,-9.783319473266602,8.292946020985e-05,-2.9623925517817432e-05,1.794688115785141,2.809255018014671,2.2864043246350123,0.5085620552514036,48.149447408965926,False,3.53,404.85348742627957,50,0.04,0.145,0.085
4,1747579907.0824685,24,2,-5,0.29543542861938477,40.80908203125,8.393150329589844,-0.4115857183933258,3.520552158355713,0.6954753398895264,0.01450272649526596,-0.06916163861751556,-9.792591094970703,-2.7024687745775464e-05,-8.193194314105696e-05,1.7918582601557045,2.655602843800861,1.5957038617404447,0.5286169203835589,47.407042782460465,False,3.53,452.26053020874,50,0.04,0.145,0.085
4,1747579907.5866897,26,-2,-5,0.07871052622795105,42.683807373046875,8.764617919921875,-0.41761597990989685,3.581696033477783,0.6956076622009277,0.008693527430295944,-0.13243462145328522,-9.849909782409668,-1.8412948483702416e-05,-7.262622199697377e-05,1.788838316427078,3.224003500181021,2.2874475206156437,0.5175528372214265,53.460458245474086,False,3.53,505.7209884542141,50,0.04,0.145,0.085
4,1747579908.0900064,28,2,-5,-0.14726734161376953,44.590579986572266,9.134620666503906,-0.4392405152320862,3.64194655418396,0.6960262656211853,0.015822134912014008,-0.030747314915060997,-9.903284072875977,-5.806810869100183e-07,-0.00010226110026466903,1.7857209656756805,2.5287506887216065,2.451766460626802,0.5668657435088145,52.97181952490254,False,3.53,558.6928079791167,50,0.04,0.145,0.085
4,1747579908.5952592,30,-2,-5,-0.37061452865600586,46.430850982666016,9.486587524414062,-0.45513594150543213,3.695613145828247,0.6948089003562927,-0.036709923297166824,-0.08640041202306747,-9.845870018005371,-2.2538519208397855e-06,-2.3476333810541546e-05,1.7826208104253933,2.762115148707588,1.5753087613815167,0.46600893697276774,58.972729052129864,False,3.53,617.6655370312465,50,0.04,0.145,0.085
4,1747579910.0690262,32,2,-5,-1.0796517133712769,52.1963005065918,10.558517456054688,-0.4745175838470459,3.874523878097534,0.6940746903419495,-0.026423079892992973,-0.055901091545820236,-9.791972160339355,-2.6555414945930537e-05,2.8408164447931695e-05,1.7745135924303073,3.200546164249758,2.1953002983650274,0.4411842087158254,62.09669401390362,False,3.53,679.7622310451501,50,0.04,0.145,0.085
4,1747579910.5739043,34,-2,-5,-1.318284034729004,54.14996337890625,10.909591674804688,-0.48354458808898926,3.9234941005706787,0.6953524947166443,-0.019179778173565865,-0.030753672122955322,-9.874164581298828,3.8951050721205726e-05,-1.862374922883197e-05,1.7713645512242426,2.9656016775888063,1.7912684436770312,0.4279138931618578,68.21520858187947,False,3.53,747.9774396270295,50,0.04,0.145,0.085
4,1747579911.078318,36,2,-5,-1.5723376274108887,56.236026763916016,11.279579162597656,-0.4844179153442383,3.976630210876465,0.6954032182693481,-0.05702103674411774,-0.11355345696210861,-9.7501802444458,3.462967358821999e-05,-5.0377508426183074e-05,1.768245674930593,3.2551862901641173,1.8815240897283463,0.4301886115897811,67.95772105975637,False,3.53,815.9351606867859,50,0.04,0.145,0.085
4,1747579911.5821393,38,-2,-5,-1.8137015104293823,58.20637130737305,11.625450134277344,-0.49547216296195984,4.024728298187256,0.6977811455726624,-0.11433731019496918,-0.08242159336805344,-9.835135459899902,1.765928865748617e-06,-2.873441212764396e-05,1.764912109917162,2.8465330119731576,1.635142370673325,0.5222150045287925,74.0698559883181,False,3.53,890.005016675104,50,0.04,0.145,0.085
4,1747579912.0854447,40,2,-5,-2.077775478363037,60.38271713256836,12.002517700195312,-0.4952300488948822,4.076343536376953,0.6984855532646179,0.004416279494762421,-0.11398431658744812,-9.917831420898438,3.142093821602717e-05,-3.939150790941213e-05,1.7617901396182365,3.3692408851194533,1.7300031385739292,0.5964659294137592,73.94705171360435,False,3.53,963.9520683887083,50,0.04,0.145,0.085
5,1747579946.8722136,0,0,-5,-0.49838027358055115,0.056390512734651566,-5.024696350097656,-0.5595889091491699,0.5773643255233765,-0.025058038532733917,-0.05587584897875786,-0.11024210602045059,-9.891867637634277,0.15553593412482816,-0.13999507662995658,1.8644238416716103,2.886714789036501,1.96754743001432,0.5690520955157888,0.5021679965199375,True,5.14,0.5021679965199375,100,0.01,0.061,0.13
5,1747579949.3732996,2,0,-4.9,2.5122971534729004,-0.29444000124931335,-4.866950988769531,0.9435991644859314,-0.3229579031467438,0.00534926587715745,0.08580219745635986,-0.07015104591846466,-10.13882064819336,-0.12070549669159922,0.15335503764426942,1.873474532284286,2.511707140771976,2.4040874976874793,0.4455006527679842,0.5918069997350858,True,5.14,1.0939749962550231,100,0.01,0.061,0.13
5,1747579952.8567045,4,0,-4.800000000000001,3.6197428703308105,0.9853876233100891,-4.008399963378906,-0.5750048160552979,0.6098178625106812,0.7865927815437317,0.04002274572849274,-0.04099700227379799,-9.659198760986328,-0.00038614705339534683,0.0005494932287294782,1.8681449152778995,2.507379342624391,2.1412576496081615,0.40882638682940153,1.3199298734461142,True,5.14,2.4139048697011374,100,0.01,0.061,0.13
5,1747579953.3607283,6,0,-4.700000000000001,3.2100300788879395,1.3475550413131714,-3.5883941650390625,-0.7384660840034485,0.6804023385047913,0.7916105389595032,0.05938158184289932,-0.1736503690481186,-9.924365043640137,-0.0002870666230742928,0.00037756997110831883,1.8673643446109638,3.4840611877837437,1.7141295413163737,0.4550936164675068,3.291732717338664,False,5.14,5.705637587039801,100,0.01,0.061,0.13
5,1747579953.86498,8,0,-4.600000000000001,2.7532474994659424,1.7086178064346313,-3.1811370849609375,-0.8857465386390686,0.7358366847038269,0.768458366394043,0.005758966319262981,-0.1533062905073166,-9.90046215057373,-0.00022760017164275988,0.0002948152576182415,1.8669199439406337,3.3066751197787276,1.5478778804774207,0.5610219750427858,5.697451937664681,False,5.14,11.403089524704482,100,0.01,0.061,0.13
5,1747579954.3694646,10,0,-4.500000000000002,2.2059946060180664,2.1085283756256104,-2.7608642578125,-1.040344476699829,0.7824440598487854,0.737566351890564,0.05131436884403229,-0.14232507348060608,-9.922605514526367,-0.00014076883437320192,0.00031232023212896556,1.8666163941866663,2.652521349275401,2.153984477588337,0.554809638093626,8.259358638659053,False,5.14,19.662448163363536,100,0.01,0.061,0.13
5,1747579954.8728101,12,0,-4.400000000000002,1.5948303937911987,2.528141736984253,-2.35699462890625,-1.1702038049697876,0.8302164673805237,0.7092227935791016,0.07201553136110306,-0.06835590302944183,-9.806120872497559,-0.0014593291760875914,-0.0018054648702934511,1.8662543000264213,3.128706768566177,1.7171680177427444,0.4755594559308909,10.901051606270428,False,5.14,30.563499769633964,100,0.01,0.061,0.13
5,1747579956.3459194,14,0,-4.3000000000000025,-0.4123031198978424,3.850449562072754,-1.2812423706054688,-1.4560871124267578,0.9653492569923401,0.6842687129974365,-0.05449966713786125,-0.13166801631450653,-9.861307144165039,0.00013627229099461268,0.00012040188826831009,1.8653538355349888,3.4849686789252687,1.6342901139476331,0.5388596638681329,15.220162307771592,False,5.14,45.78366207740555,100,0.01,0.061,0.13
5,1747579956.8511744,16,0,-4.200000000000003,-1.20626699924469,4.368320941925049,-0.9139175415039062,-1.5422000885009766,1.0151963233947754,0.686556339263916,-0.042526327073574066,-0.17175136506557465,-9.816610336303711,-4.82198744042573e-05,0.00014830378473528976,1.8648927851319295,3.419139446527936,1.9140655049650095,0.5667369954027414,18.053702939424742,False,5.14,63.83736501683029,100,0.01,0.061,0.13
5,1747579957.3546655,18,0,-4.100000000000003,-1.9990921020507812,4.88609504699707,-0.5672836303710938,-1.625300407409668,1.0642534494400024,0.6879919171333313,0.009370963089168072,-0.19454659521579742,-9.846810340881348,9.852035359308626e-05,-6.95461529992602e-05,1.8644465218181938,3.1033595475133824,2.2395110038798642,0.5307670199388344,20.888219039995807,False,5.14,84.7255840568261,100,0.01,0.061,0.13
5,1747579957.858345,20,0,-4.0000000000000036,-2.8753082752227783,5.4616546630859375,-0.20107269287109375,-1.699753761291504,1.1190296411514282,0.6932793259620667,-0.026090282946825027,-0.16089817881584167,-9.818746566772461,2.8113678141181623e-05,4.617367171397833e-05,1.8638657559732226,3.390892292804037,2.414996058252005,0.5007975611208193,23.82312424998312,False,5.14,108.54870830680922,100,0.01,0.061,0.13
5,1747579958.3622093,22,0,-3.9000000000000035,-3.7341928482055664,6.024911403656006,0.1409759521484375,-1.794141173362732,1.1624066829681396,0.69539475440979,-0.03865562379360199,-0.18083330988883972,-9.768857955932617,1.8031293917680505e-05,-5.250478710475687e-05,1.863450730933328,2.590473664176351,1.8657656168853876,0.4068253820367812,26.737197415143957,False,5.14,135.28590572195318,100,0.01,0.061,0.13
5,1747579958.8668401,24,0,-3.8000000000000034,-4.716964244842529,6.670957565307617,0.5148086547851562,-1.8743542432785034,1.222075343132019,0.6982588768005371,0.03381277248263359,-0.16569483280181885,-9.786526679992676,-2.113716887421693e-05,-1.839739581326215e-05,1.8628422508187688,3.2352174924857686,1.6012855375565171,0.40586862571878934,29.795692373313095,False,5.14,165.0815980952663,100,0.01,0.061,0.13
5,1747579959.3698516,26,0,-3.7000000000000033,-5.73012638092041,7.3409271240234375,0.8846588134765625,-1.958081603050232,1.2831767797470093,0.7000649571418762,0.02141318842768669,-0.12824854254722595,-9.761747360229492,-6.17714699655218e-05,-4.833609930915554e-06,1.862427623784912,3.0604608604372414,1.8588794749078763,0.564812741341056,32.88934823959564,False,5.14,197.97094633486194,100,0.01,0.061,0.13
5,1747579959.8728426,28,0,-3.600000000000003,-6.71856689453125,7.994011878967285,1.2298355102539062,-2.0489988327026367,1.3379122018814087,0.7025881409645081,-0.03515481576323509,-0.1722707450389862,-9.755977630615234,-3.205363004471014e-05,-7.892317371003844e-05,1.8620215897814485,2.5809283607153684,1.8152243075413073,0.5643619910668957,35.95289173609295,False,5.14,233.9238380709549,100,0.01,0.061,0.13
5,1747579960.3764422,30,0,-3.500000000000003,-7.84377384185791,8.73876667022705,1.6062850952148438,-2.1259827613830566,1.4006762504577637,0.7026015520095825,-0.004851009231060743,-0.20195935666561127,-9.794266700744629,-4.7019014041308784e-05,-5.5652396261124366e-05,1.8616206619683588,3.1380279774323716,1.6386911303587133,0.5232356206815953,39.17386129786,False,5.14,273.0976993688149,100,0.01,0.061,0.13
5,1747579960.8800933,32,0,-3.400000000000003,-8.917879104614258,9.449951171875,1.9516525268554688,-2.211102247238159,1.4554506540298462,0.7034422159194946,0.034591399133205414,-0.10985421389341354,-9.820270538330078,-7.189220162238141e-05,3.4151514133599835e-05,1.8610391583284867,2.73377960171919,1.7767443027750036,0.4420810157828172,42.334555534915545,False,5.14,315.43225490373044,100,0.01,0.061,0.13
5,1747579961.385559,34,0,-3.300000000000003,-10.135645866394043,10.256181716918945,2.3301239013671875,-2.294863700866699,1.5147563219070435,0.7024812698364258,0.00717297475785017,-0.1989496648311615,-9.838375091552734,-4.923295003717336e-05,-4.69639658798657e-05,1.8604470072231591,2.8767128753274465,2.059299452120377,0.5311149174169613,45.660078784414665,False,5.14,361.0923336881451,100,0.01,0.061,0.13
5,1747579961.8890893,36,0,-3.200000000000003,-11.378458023071289,11.080765724182129,2.7029571533203125,-2.381817102432251,1.5752707719802856,0.704216718673706,-0.034163735806941986,-0.1544642150402069,-9.857583045959473,-5.785670618268398e-05,2.6792731231522822e-05,1.859813002243487,2.665604607574884,1.9480958104302997,0.44826209473613704,49.01373844986804,False,5.14,410.10607213801313,100,0.01,0.061,0.13
5,1747579962.394079,38,0,-3.1000000000000028,-12.57550048828125,11.879546165466309,3.0481643676757812,-2.4470224380493164,1.6358128786087036,0.7000839114189148,-0.02940581925213337,-0.19591990113258362,-9.760963439941406,-2.6030339817991803e-05,-5.369109817596247e-07,1.859113782845539,3.1543577943053025,1.6342936655186495,0.4048574010792272,52.31447975302383,False,5.14,462.42055189103695,100,0.01,0.061,0.13
5,1747579963.8902707,40,0,-3.0000000000000027,-13.92555046081543,12.781173706054688,3.4243698120117188,-2.5390846729278564,1.6957812309265137,0.7014336585998535,0.05586932972073555,-0.17801730334758759,-9.815096855163574,-5.947431902275009e-05,-3.8851711545035306e-05,1.858491696448204,2.5155025787211844,2.0012613788079157,0.5414390427796562,55.79064367156721,False,5.14,518.2111955626042,100,0.01,0.061,0.13
6,1747579965.5468614,2.0,0.0,-5.0,-18.4445858001709,15.810715675354004,4.60577392578125,-2.7983036041259766,1.8850164413452148,0.7034057378768921,-0.04186045378446579,-0.21811461448669434,-9.847808837890625,-7.783009008233427e-05,5.19455443475762e-06,1.8555514248132619,2.560090543679227,1.621325467720698,0.4619544197464715,27.572281578074985,False,9.93,27.572281578074985,50,0.12,0.002,0.166
6,1747579966.0511966,2.197817453308123,0.7779369011450796,-4.95,-19.971572875976562,16.844905853271484,4.982551574707031,-2.8485734462738037,1.9532380104064941,0.7021347880363464,0.014981335029006004,-0.3247274160385132,-9.706009864807129,-1.715797699144841e-05,-4.523017408271312e-06,1.8547354092366222,3.1479209306971168,2.4272884668057566,0.5368246791834731,29.125331580344117,False,9.93,56.6976131584191,50,0.12,0.002,0.166
6,1747579966.5557036,2.1482208132215868,1.6646321509654174,-4.9,-21.4028377532959,17.822370529174805,5.327430725097656,-2.915382146835327,2.011610507965088,0.7026360630989075,-0.029042845591902733,-0.23620063066482544,-9.820108413696289,-0.0002560464538490033,5.4742588654968166e-05,1.8536662277746678,2.750340674015149,1.9673091251681911,0.5475494190098809,30.336862203248188,False,9.93,87.03447536166729,50,0.12,0.002,0.166
6,1747579967.0588183,1.8081204253903274,2.5673112991572866,-4.85,-22.995494842529297,18.92136573791504,5.704620361328125,-2.9692296981811523,2.0702855587005615,0.705805778503418,-0.02279902622103691,-0.2874780595302582,-9.826441764831543,0.00039458307265376663,2.4830384267574183e-05,1.85268588384217,3.1597072424312067,1.7482162716906218,0.439829149133394,31.528946032441205,False,9.93,118.5634213941085,50,0.12,0.002,0.166
6,1747579967.5642827,1.169091277972464,3.3787959956614535,-4.8,-24.479894638061523,19.959083557128906,6.050514221191406,-3.021069049835205,2.1264050006866455,0.7027522325515747,0.05696050822734833,-0.2495945692062378,-9.807211875915527,0.00018016634432945102,-2.3974422191250738e-05,1.851613670506008,2.926756806891251,1.9767612015796527,0.40071214413208833,32.41157313377644,False,9.93,150.97499452788495,50,0.12,0.002,0.166
6,1747579968.068669,0.2615553275524854,3.9902132901341303,-4.75,-26.095169067382812,21.105161666870117,6.4210052490234375,-3.062410831451416,2.194517135620117,0.7033431529998779,0.017329201102256775,-0.23846539855003357,-9.778707504272461,0.00011988629321524718,4.66445260646253e-05,1.8505438007582045,3.221012135448802,1.9633052689961215,0.5185865495241893,33.35250720774414,False,9.93,184.32750173562908,50,0.12,0.002,0.166
6,1747579969.5405798,-0.8455795490339945,4.30472606629093,-4.7,-30.821802139282227,24.525014877319336,7.46893310546875,-3.2355027198791504,2.3635544776916504,0.7046796679496765,0.0027111638337373734,-0.15000778436660767,-9.828242301940918,-1.2139922771974524e-05,-8.113432833150371e-05,1.847066590074755,2.5098805784102862,2.069104364937621,0.4365965132930092,38.1512376379441,False,9.93,222.47873937357318,50,0.12,0.002,0.166
6,1747579970.0441692,-2.049999999999999,4.250704155516198,-4.65,-32.545780181884766,25.800861358642578,7.8390960693359375,-3.260016679763794,2.439318895339966,0.7047668099403381,-0.10230910032987595,-0.2732003331184387,-9.78618335723877,-0.00011146535056296045,1.887964347570235e-05,1.8455822624109024,3.394182379160408,2.228491123646888,0.539472062636382,39.37485752368379,False,9.93,261.853596897257,50,0.12,0.002,0.166
6,1747579970.547808,-3.2254282360512363,3.792760046192045,-4.6,-34.20602035522461,27.044734954833984,8.19122314453125,-3.316635847091675,2.50042462348938,0.7053714990615845,-0.04047746956348419,-0.15971232950687408,-9.825722694396973,-2.1657821955196245e-05,4.504054708238178e-05,1.8441778845672032,2.5108153181428303,2.432965965136627,0.4155470977817831,40.792975066056336,False,9.93,302.6465719633133,50,0.12,0.002,0.166
6,1747579972.0205503,-4.234553679141369,2.939253573852523,-4.55,-39.38264083862305,31.00457191467285,9.262893676757812,-3.4497768878936768,2.681157350540161,0.7046870589256287,0.012103945016860962,-0.25286293029785156,-9.742849349975586,-3.9459756509550245e-05,-3.915337138927996e-05,1.8405130395694103,2.7586700573375533,1.9476045585121804,0.5437669251407873,47.05152660931973,False,9.93,349.69809857263306,50,0.12,0.002,0.166
6,1747579972.5246642,-4.944154131125643,1.7452113308808737,-4.5,-41.220672607421875,32.44547653198242,9.632270812988281,-3.4684338569641113,2.745556116104126,0.7037098407745361,-0.03572344407439232,-0.37885865569114685,-9.746784210205078,-1.562055831500523e-06,-9.586479812950823e-06,1.8390061828448259,3.463087468891153,1.689715425451439,0.42030457726397275,49.58037065725375,False,9.93,399.2784692298868,50,0.12,0.002,0.166
6,1747579973.0277247,-5.240803378993181,0.3100759892662778,-4.45,-42.97616195678711,33.84243392944336,9.982551574707031,-3.484767436981201,2.804389476776123,0.7049955129623413,-0.050950177013874054,-0.28545451164245605,-9.758140563964844,-3.4048794714396e-05,3.928955300858116e-06,1.8377372234711056,3.3616719871401735,1.7226571504026262,0.4577759611335992,52.50404613912552,False,9.93,451.78251536901234,50,0.12,0.002,0.166
6,1747579973.5327592,-5.045425660253547,-1.2297489390583247,-4.4,-44.8349609375,35.34598922729492,10.352859497070312,-3.503167152404785,2.8686273097991943,0.706856369972229,-0.06073819845914841,-0.3374254107475281,-9.821676254272461,-3.399064849954026e-05,5.574980556410191e-06,1.8363184203953515,3.3513003521842135,1.7564721189777126,0.5838836372502756,56.0235540048395,False,9.93,507.80606937385187,50,0.12,0.002,0.166
6,1747579974.0359213,-4.325006043795975,-2.7130191528484255,-4.35,-46.60824203491211,36.80213928222656,10.703804016113281,-3.526642084121704,2.9220874309539795,0.7065079212188721,-0.021700752899050713,-0.27017372846603394,-9.84471607208252,3.313683768309255e-05,-2.615498769592612e-05,1.8347010658685803,3.1501641201025112,1.740574033454798,0.5273251574999251,59.79913717926911,False,9.93,567.605206553121,50,0.12,0.002,0.166
6,1747579974.5402644,-3.1000000000000028,-3.9693575034635176,-4.3,-48.48797607421875,38.36813735961914,11.073112487792969,-3.552302122116089,2.9858882427215576,0.7069713473320007,-0.02165970206260681,-0.2983861565589905,-9.805532455444336,4.581397578982387e-06,2.6061026644732895e-05,1.8333350759716138,3.0370574216978765,2.365103454245725,0.4822874704151391,63.94422906688093,False,9.93,631.5494356200019,50,0.12,0.002,0.166
6,1747579975.043826,-1.4463860707160447,-4.837031429181853,-4.25,-50.38313674926758,39.9657096862793,11.442703247070312,-3.5900678634643555,3.0414388179779053,0.7082681655883789,-0.03347547724843025,-0.2819627821445465,-9.707401275634766,-6.611607134619724e-05,-3.4496364075484804e-05,1.8319307945028855,2.721896121667693,1.6774588405615447,0.5390470723510596,68.1788245251732,False,9.93,699.7282601451751,50,0.12,0.002,0.166
6,1747579975.5470464,0.5081646363876857,-5.180985820832024,-4.2,-52.193355560302734,41.51181411743164,11.793220520019531,-3.600414752960205,3.100316047668457,0.7090874314308167,-0.05441724509000778,-0.3127199113368988,-9.794283866882324,-4.948178400955121e-06,2.8322176425517486e-05,1.8302929443266005,3.362879305643205,1.8019538734265352,0.545898364754849,72.20423048353092,False,9.93,771.9324906287061,50,0.12,0.002,0.166
6,1747579977.019667,2.593921273001407,-4.9092036153738485,-4.15,-57.758033752441406,46.3726806640625,12.860542297363281,-3.6670777797698975,3.259700298309326,0.709172248840332,0.04483262449502945,-0.3286628723144531,-9.798995018005371,-1.8991401580754922e-05,-4.4203392220392344e-05,1.825629404248963,3.1017648561875597,1.6553797209889698,0.5424653369788819,81.0033868421127,False,9.93,852.9358774708188,50,0.12,0.002,0.166
6,1747579977.5224826,4.613824533754626,-3.985552970263421,-4.1,-59.608150482177734,48.02763366699219,13.213241577148438,-3.6767334938049316,3.318072557449341,0.7093880772590637,-0.10589230805635452,-0.29534733295440674,-9.831998825073242,1.6490399777993167e-05,2.321975369586265e-05,1.8239167924954607,3.3754880459969243,1.7455686979524931,0.568349934593311,84.4368521027266,False,9.93,937.3727295735454,50,0.12,0.002,0.166
6,1747579978.0270214,6.362038562233158,-2.437564447089895,-4.05,-61.564537048339844,49.800994873046875,13.586334228515625,-3.690504550933838,3.3748061656951904,0.7080234289169312,-0.04061474651098251,-0.34693342447280884,-9.81691837310791,1.4606298767594585e-05,1.2715032405444599e-05,1.8224412046139402,3.213595084214452,1.9364277953332136,0.4141493772023885,87.48672493037016,False,9.93,1024.8594545039155,50,0.12,0.002,0.166
6,1747579978.530235,7.6445824462891245,-0.35804139528723766,-4.0,-63.430442810058594,51.51021194458008,13.93963623046875,-3.7223269939422607,3.4237537384033203,0.7061814069747925,-0.02414289116859436,-0.33783674240112305,-9.84106731414795,2.4723766611245747e-05,-4.20551853556705e-05,1.8209647703017589,2.768141830827986,1.8182649740470578,0.5286937858255749,89.79869413193417,False,9.93,1114.6581486358496,50,0.12,0.002,0.166
7,1747579985.626272,0,2,-5,-97.11466217041016,78.4055404663086,-1.1429824829101562,-5.764746189117432,3.880117177963257,-0.9025471210479736,-0.050885263830423355,-0.06024496629834175,-10.477530479431152,0.02807804592024683,-0.0016634806570069028,1.8258792008834266,2.7139077756051586,1.598825664534051,0.5183642433081672,123.62823628341849,False,4.23,123.62823628341849,100,0.05,0.101,0.172
7,1747579986.1310117,2,-2,-5,-100.04320526123047,80.31163787841797,-0.451568603515625,-5.8591718673706055,3.7078301906585693,-0.6492701768875122,-0.05477610602974892,0.030128173530101776,-10.21631145477295,0.02530833628064795,-0.0021661071215537116,1.8362864376151458,3.38885927215618,1.5495319069709335,0.4744008247232226,131.1819716972647,False,4.23,254.81020798068317,100,0.05,0.101,0.172
7,1747579986.6359916,4,2,-5,-0.9427263140678406,0.6507270932197571,-0.3221435546875,0.211825430393219,-0.0012171405833214521,-0.2822163999080658,-0.05101374164223671,-0.053571660071611404,-9.714312553405762,0.012809833334339236,-0.0014828631752088408,1.8497549581679664,2.9704800766252757,1.6613567841705357,0.5919268546157554,6.937825431336649,False,4.23,261.7480334120198,100,0.05,0.101,0.172
7,1747579987.1403449,6,-2,-5,0.16675563156604767,0.07804351300001144,-0.345306396484375,0.15733522176742554,0.0013033703435212374,-0.07552460581064224,0.04283858835697174,-0.020519334822893143,-9.084541320800781,0.006533300305607614,-0.0011629364817991974,1.8612918218258265,2.639357172310779,2.1257845380855946,0.4256673597703077,7.7466881469694595,False,4.23,269.4947215589893,100,0.05,0.101,0.172
7,1747579987.644831,8,2,-5,0.49301382899284363,0.00880978349596262,-0.4073028564453125,0.15481449663639069,0.018778353929519653,0.24794435501098633,0.04402706027030945,-0.06517471373081207,-9.061297416687012,0.003320481335834108,-0.0020450470970467525,1.8703787631784037,3.229183092298052,2.4104098308370765,0.43740442370762406,9.02289016349027,False,4.23,278.51761172247956,100,0.05,0.101,0.172
7,1747579988.1488352,10,-2,-5,0.7171716690063477,0.04862624406814575,-0.3421630859375,0.1756916344165802,0.054737355560064316,0.5613222718238831,-0.03994537889957428,-0.020516911521553993,-9.190699577331543,0.002010735422535148,-0.0027507273803318104,1.8774896896797186,2.552956078328146,1.9180901586313452,0.5700150251690808,10.585991499551964,False,4.23,289.1036032220315,100,0.05,0.101,0.172
7,1747579988.655994,12,2,-5,0.9413142800331116,0.10285397619009018,-0.12652587890625,0.2122548669576645,0.07182066887617111,0.7618118524551392,0.0009097196161746979,-0.004468683153390884,-9.442148208618164,0.0016464676979039072,-0.002356877163426006,1.882561732695749,2.885407056419876,2.375210707095993,0.5129132653200046,12.232924543935837,False,4.23,301.33652776596733,100,0.05,0.101,0.172
7,1747579989.1596904,14,-2,-5,1.1743613481521606,0.13235773146152496,0.19850921630859375,0.238857701420784,0.0574408657848835,0.8578011989593506,-0.12684690952301025,-0.03598809242248535,-9.705527305603027,0.0015870762262070958,-0.0018616384602187556,1.8865624112388701,3.0291658875018252,2.3350849058967524,0.5967510879293723,14.002444586383564,False,4.23,315.3389723523509,100,0.05,0.101,0.172
7,1747579989.6640942,16,2,-5,1.4399102926254272,0.10727071017026901,0.6450729370117188,0.2462640404701233,0.0010746130719780922,0.8770186305046082,-0.11440325528383255,-0.08043941855430603,-9.762539863586426,0.0034786588408764504,-0.0037176502288960413,1.888871529917182,3.1334241376646395,2.2324619868443287,0.5183800866684526,15.730400024015804,False,4.23,331.0693723763667,100,0.05,0.101,0.172
7,1747579990.167401,18,-2,-5,1.497877597808838,0.06887707859277725,0.859832763671875,0.07951246201992035,-0.032801397144794464,0.8345922231674194,-0.10248874872922897,-0.03431905061006546,-9.410684585571289,-0.0009461097552723886,0.0019303055876186853,1.8898461849465424,2.587786428114757,2.0399892969557767,0.524247221815485,17.633432342043577,False,4.23,348.7028047184103,100,0.05,0.101,0.172
7,1747579990.6702833,20,2,-5,1.348098635673523,0.07650956511497498,0.8934249877929688,-0.1433975249528885,-0.0267179012298584,0.9488255381584167,0.008233732543885708,0.0027008773759007454,-9.839800834655762,-0.0001923726941585692,-0.00018646074011275792,1.8905010688996546,3.338778128147471,1.654949754582058,0.585506210339592,19.655169753639896,False,4.23,368.35797447205016,100,0.05,0.101,0.172
7,1747579991.1741343,22,-2,-5,1.2242729663848877,0.09107967466115952,0.9143218994140625,-0.2512141168117523,0.00525510311126709,0.7512152194976807,-0.039914317429065704,-0.028544193133711815,-9.764141082763672,0.0011077137043325283,-0.00430485804658462,1.891291278777915,2.6437285682133456,1.8368604544083627,0.5805735386117428,21.702134722440455,False,4.23,390.0601091944906,100,0.05,0.101,0.172
7,1747579991.6793926,24,2,-5,1.145571231842041,0.11407723277807236,0.8167724609375,-0.27543240785598755,0.028006963431835175,0.5298894047737122,-0.023359794169664383,0.006823063362389803,-9.795419692993164,0.0030476781821685535,-0.009762105034953414,1.8913612202149983,3.310477928643038,2.353681324846382,0.4630922367066081,23.658327516226777,False,4.23,413.7184367107174,100,0.05,0.101,0.172
7,1747579993.1515512,26,-2,-5,1.1090120077133179,0.14785155653953552,0.40850067138671875,-0.15169298648834229,0.037615418434143066,0.12210241705179214,0.06178025156259537,-0.07469488680362701,-9.850677490234375,0.010207309402121223,-0.024266993399821964,1.888944280565247,3.2246168965657027,1.7494891354388056,0.506371997699859,25.562207045822152,False,4.23,439.2806437565396,100,0.05,0.101,0.172
7,1747579993.655577,28,2,-5,1.124505639076233,0.14877188205718994,0.28795623779296875,-0.09054852277040482,0.028951015323400497,0.04382731392979622,-0.0564623698592186,-0.02344474568963051,-9.864992141723633,0.01223491688184475,-0.02789034400398069,1.888232069989873,2.6973704956732116,2.009452787620134,0.4547927763216384,27.453264357112815,False,4.23,466.7339081136524,100,0.05,0.101,0.172
7,1747579994.15968,30,-2,-5,1.1411601305007935,0.14784272015094757,0.189361572265625,-0.04021879658102989,0.021232936531305313,-0.011037980206310749,0.0411674864590168,0.004659218713641167,-9.768475532531738,0.013859058688339554,-0.03088933350869432,1.8876430117196445,3.3028873130051024,1.5101103637651128,0.4834703148389412,29.40026089155689,False,4.23,496.1341690052093,100,0.05,0.101,0.172
7,1747579994.6643143,32,2,-5,1.1557255983352661,0.14584343135356903,0.11603546142578125,-0.0018468927592039108,0.01264610793441534,-0.039026450365781784,-0.11595969647169113,-0.0724334642291069,-9.803927421569824,0.015292965527001644,-0.033273843895054056,1.88722034868887,2.642666637340124,2.3712193860611035,0.47677127438091704,31.320615874992164,False,4.23,527.4547848802015,100,0.05,0.101,0.172
7,1747579995.1679468,34,-2,-5,1.1692155599594116,0.14350749552249908,0.055328369140625,0.027731243520975113,0.0064865960739552975,-0.05490625277161598,0.01710321754217148,-0.02558574639260769,-9.752605438232422,0.016357969209737592,-0.035035584131097725,1.8869819085151236,3.0427005340560305,1.9690324950481704,0.45784219678774773,33.28680483692616,False,4.23,560.7415897171277,100,0.05,0.101,0.172
7,1747579995.6722429,36,2,-5,1.1792796850204468,0.14101924002170563,0.01371002197265625,0.058918919414281845,-0.008445976302027702,-0.06123817712068558,-0.004457987844944,0.017310604453086853,-9.774009704589844,0.017129729036106794,-0.03639350423324665,1.8871588178893466,3.0984729598415095,1.692016397536084,0.48011451337656386,35.22890377097233,False,4.23,595.9704934881,100,0.05,0.101,0.172
7,1747579997.1728213,38,-2,-5,1.1882669925689697,0.13534852862358093,-0.01264190673828125,0.04384182393550873,-0.0019026962108910084,-0.04201779514551163,-0.0354926735162735,0.031043382361531258,-9.826748847961426,0.017367332907078877,-0.03731003004916464,1.8878080316963257,3.281863822229413,1.607676990287286,0.5250835281842573,37.20936899625557,False,4.23,633.1798624843556,100,0.05,0.101,0.172
7,1747579997.6775777,40,2,-5,1.1715847253799438,0.14267957210540771,-0.01905059814453125,0.009744683280587196,0.012938017956912518,-0.01250408124178648,0.0363532155752182,0.007030122447758913,-9.882200241088867,0.018030834015458207,-0.03862122893451826,1.8882294600919851,3.3628385727427244,2.4824950218998794,0.5561442274642785,39.1906280742484,False,4.23,672.3704905586039,100,0.05,0.101,0.172
8,1747580000.5690966,0,0,-5,1.1768436431884766,0.13916534185409546,-0.04062652587890625,0.05264038220047951,-0.006783356890082359,0.004929947666823864,0.08746825158596039,0.026217278093099594,-9.783998489379883,0.02155468474790379,-0.04590347543460154,1.890266072544155,2.779308961922368,2.4877924387019457,0.5596330268268994,5.098991391314798,False,8.69,5.098991391314798,50,0.06,0.199,0.074
