mission_id,time,real_x,real_y,real_z,vx,vy,vz,ax,ay,az,roll,pitch,yaw,wind_x,wind_y,wind_z,erreur_m,velocity,rain,fog,snow,is_attack
1.0,1747142948.3873303,2.298980951309204,-0.0555686317384243,-4.94622802734375,0.6935111284255981,0.154713287949562,-0.2732342183589935,-0.0243030376732349,0.0544378124177455,-9.00921630859375,-0.1318727211333005,0.0428151738194752,-3.129089980264654,3.0673056037656616,1.7630270876048852,0.5360240059643151,0.3088185666736729,6.08,0.12,0.147,0.137,0
1.0,1747142950.6732805,2.3048579692840576,1.3375966548919678,-3.8582687377929688,-0.4618449211120605,0.4461880922317505,0.162854790687561,-0.1101301312446594,-0.0184433124959468,-10.637120246887209,0.0487755559085513,0.1284545564335811,-3.1173450031553425,2.715978462096232,2.3176788771985013,0.5696466650362431,0.2388234907074876,6.08,0.12,0.147,0.137,0
1.0,1747142952.5418017,1.7708206176757812,2.4797489643096924,-2.958778381347656,0.3397143483161926,0.2569929659366607,0.0803758278489112,-0.0738001987338066,-0.1238569915294647,-10.150059700012209,0.0374896730108856,0.0876203220047033,3.1225026482981564,3.144523462364096,2.327594262714614,0.432612576657299,0.3799455849039664,6.08,0.12,0.147,0.137,0
1.0,1747142954.8490076,2.1214635372161865,3.723750591278076,-1.9686126708984373,-0.2693434953689575,0.3556286990642547,0.0272677633911371,-0.1409700512886047,-0.0160106141120195,-10.120312690734863,-0.0035331766286156,0.0957360733226952,3.1129973752938964,3.204474012330005,1.5345947704738905,0.4038982658396308,0.3179097441535577,6.08,0.12,0.147,0.137,0
1.0,1747142956.8835304,1.057718276977539,4.846004486083984,-1.0547332763671875,-0.2900188863277435,0.4009051620960235,0.1642218977212906,-0.0064080134034156,0.0413905531167984,-10.246870994567873,0.074472658779518,0.08523106718517,3.1208842648500137,2.504931575246804,1.716045422926932,0.4902669832512871,0.1817505485778945,6.08,0.12,0.147,0.137,0
1.0,1747142958.7726684,0.3244721591472626,5.891079425811768,-0.0743484497070312,-0.2151909172534942,0.3629140555858612,0.2086740285158157,-0.0403840504586696,-0.0548171550035476,-10.446624755859377,0.0405060840236891,0.0857725936475851,3.1136206064295777,2.6153374618955114,2.1254647953611894,0.4038327086066042,0.1389738922504843,6.08,0.12,0.147,0.137,0
1.0,1747142960.275525,0.2005601227283477,6.274831771850586,0.3523635864257812,-0.082382820546627,0.3500748872756958,0.636640727519989,-0.0706653594970703,0.0045679435133934,-9.512493133544922,0.0005912740080884,0.001419540079258,3.1176598924200607,2.541609787619103,2.4396869742455425,0.4444381502142632,1.3033227694683531,6.08,0.12,0.147,0.137,0
1.0,1747142960.78029,-2.049999999999999,7.050704155516199,2.0,-0.0914250016212463,0.4832871854305267,0.7410532832145691,-0.0971155390143394,0.0287857912480831,-9.629395484924316,0.0005002437482853,0.0007477878043331,3.1170624135356086,3.124278967471271,2.202133088279345,0.5584357556233601,2.687317483165833,6.08,0.12,0.147,0.137,0
1.0,1747142961.2841444,-3.2254282360512363,6.992760046192045,3.0,-0.1098445802927017,0.6286668181419373,0.7740708589553833,-0.1104613691568374,-2.561323344707489e-05,-9.822153091430664,0.0002984207030271,0.0004864390001027,3.116645654682092,2.8783374834168547,1.991918650462128,0.5575246678370174,3.950459414037073,6.08,0.12,0.147,0.137,0
1.0,1747142961.787855,-4.234553679141369,6.539253573852523,4.0,-0.137074813246727,0.8011148571968079,0.7692642211914062,-0.1126925498247146,-0.0210274029523134,-9.861761093139648,6.086256735199519e-05,0.0002328801981846,3.116473518761097,3.217731030565277,2.456879111388335,0.4474708955603625,5.0959031716692165,6.08,0.12,0.147,0.137,0
1.0,1747142962.291249,-4.944154131125643,5.745211330880874,5.0,-0.1664037257432937,0.9808166027069092,0.7549511790275574,-0.0961365699768066,-0.0122417993843555,-9.864763259887695,4.127653945304524e-05,5.996635879508885e-05,3.1166499471561795,3.4429104390115564,1.687769625441339,0.4712182687531033,6.170107922013633,6.08,0.12,0.147,0.137,0
1.0,1747142962.7954369,-5.240803378993181,4.710075989266278,6.0,-0.2157012075185775,1.183055758476257,0.734637975692749,0.0119760148227214,-0.1224685683846473,-9.891443252563477,-7.719108179706852e-05,-7.473684813077408e-05,3.116941771782812,2.810582143581623,2.117992795799858,0.4468992207154685,7.219850634716142,6.08,0.12,0.147,0.137,0
1.0,1747142963.299221,-5.045425660253547,3.570251060941675,7.0,-0.2677671015262604,1.3873913288116455,0.7140748500823975,-0.084866963326931,0.0408940054476261,-9.824689865112305,-9.257200445854856e-05,-7.424906397849591e-05,3.117237416489984,2.871243653870105,1.825184531972132,0.4148522386879759,8.297274300944196,6.08,0.12,0.147,0.137,0
1.0,1747142963.8023484,-4.325006043795975,2.486980847151574,8.0,-0.3225058317184448,1.5987991094589231,0.7041863799095154,0.0050218477845191,0.0154585894197225,-9.856646537780762,-0.0001361182697108,-0.0001019818675252,3.1175254206749767,2.79376722532764,2.14475892556511,0.5949374185122671,9.441158795150576,6.08,0.12,0.147,0.137,0
1.0,1747142964.3061028,-3.1000000000000028,1.630642496536482,9.0,-0.3735241889953613,1.814494013786316,0.6960455775260925,-0.0678005367517471,-0.0107478983700275,-9.883655548095703,-8.161235484142323e-05,-0.0001857254038763,3.117879717610859,3.032535924650667,1.5251845539070836,0.5089551314229832,10.661086922445698,6.08,0.12,0.147,0.137,0
1.0,1747142964.810356,-1.4463860707160447,1.1629685708181468,10.0,-0.4299245774745941,2.0406253337860107,0.6875244379043579,-0.0886698812246322,0.0021232883445918,-9.855474472045898,-0.0001640109097191,-0.0001354910609243,3.118096669994106,2.8085865518053064,1.833543991079756,0.4062448450268839,11.975605250173931,6.08,0.12,0.147,0.137,0
1.0,1747142965.3155825,0.5081646363876857,1.2190141791679752,11.0,-0.4806140661239624,2.2456443309783936,0.6875690221786499,-0.1137371882796287,-0.0023181419819593,-9.811967849731444,-5.334527508027745e-05,-0.000148247657743,3.118391359974702,2.939658939050423,2.2579355890378743,0.4684851005935364,13.25438572613576,6.08,0.12,0.147,0.137,0
1.0,1747142965.8195448,2.593921273001407,1.8907963846261515,12.0,-0.5219581127166748,2.4359548091888428,0.6905996799468994,-0.1121168881654739,0.0054025677964091,-9.84226894378662,-4.791901563186651e-05,-0.0001364189514256,3.118616425524017,3.192463873375114,1.876294289068972,0.5564519263197759,14.419598030492722,6.08,0.12,0.147,0.137,0
1.0,1747142966.322902,4.613824533754626,3.21444702973658,13.0,-0.5560802221298218,2.6496877670288086,0.6910537481307983,-0.092480793595314,0.0103461630642414,-9.836334228515623,-5.212162214623482e-05,-5.089730383468196e-05,3.118881549816669,3.4903502518591947,1.932617104498461,0.5330363280187727,15.556926023442898,6.08,0.12,0.147,0.137,0
1.0,1747142966.826318,6.362038562233158,5.162435552910105,14.0,-0.5996554493904114,2.8496367931365967,0.6944347023963928,-0.0766874104738235,0.057290956377983,-9.778406143188477,-2.4820916348384384e-06,-5.8629579819624114e-05,3.1190288932712376,2.821339239398128,1.875293637810869,0.5054447047781392,16.432250759725783,6.08,0.12,0.147,0.137,0
1.0,1747142967.3300986,7.644582446289123,7.641958604712762,15.0,-0.6220370531082153,3.0471742153167725,0.6980820894241333,-0.1631727516651153,0.0304823741316795,-9.816038131713867,-2.2396320281377348e-05,-0.000175267350416,3.119053685143557,3.487171388639771,2.150044195332749,0.5294087686158165,17.022958157151518,6.08,0.12,0.147,0.137,0
2.0,1747143013.725972,-0.1433616578578949,5.272681713104248,15.020393371582031,-0.1689727902412414,0.6955357789993286,-0.1597329527139663,0.0354142785072326,-0.0844703391194343,-9.890220642089844,0.1389009568620114,-0.1042036285955744,1.0825067130054604,2.617757845570643,1.6329786873599836,0.4782240784196259,0.3087454796587544,5.58,0.04,0.081,0.179,0
2.0,1747143016.1441643,2.465564250946045,4.939395427703857,13.846435546875,0.7844732403755188,-0.7026281356811523,0.0248118806630373,0.041386105120182,-0.004560156725347,-9.549073219299316,0.0389162272763152,0.2091194530967354,1.083418320425762,3.1224964502573367,2.449848887478862,0.5886239027086198,0.4939686500231878,5.58,0.04,0.081,0.179,0
2.0,1747143018.7285411,4.176987648010254,4.839751720428467,12.936737060546877,-0.026860911399126,0.4722238779067993,0.020490426570177,0.053443320095539,-0.0601061284542083,-9.618935585021973,0.0748304777815438,0.0284719729795406,1.0859558172908357,2.920066983000828,1.9460585471126843,0.4752898503028933,0.2469946116053699,5.58,0.04,0.081,0.179,0
2.0,1747143021.2289922,6.160027503967285,5.1044793128967285,11.981643676757812,0.6605178713798523,-0.3359078764915466,-0.0484826602041721,0.0652165040373802,-0.0357171148061752,-9.702675819396973,0.0619986413550729,0.131789580614922,1.0809022954892358,2.561245964468469,2.018512818831849,0.4445816768166202,0.1919939672290346,5.58,0.04,0.081,0.179,0
2.0,1747143023.248205,8.06496524810791,4.729757785797119,11.05890655517578,0.5374459028244019,0.1800742596387863,-0.1755757480859756,0.0952896773815155,-0.0848364904522895,-9.43574333190918,0.0458834639795437,0.1068806238681197,1.073965403211432,3.2418521657655264,1.5535311538525378,0.4955586723678827,0.2841149767993152,5.58,0.04,0.081,0.179,0
2.0,1747143027.350584,10.646484375,5.031088829040527,10.810752868652344,0.3453806042671203,-0.0487124137580394,0.855934739112854,0.125912994146347,0.0669039487838745,-9.775222778320312,0.0004862891822231,0.000414832010038,1.0680593382343508,3.3937134923851544,1.5992624480591746,0.5254575621402852,1.0374144670469254,5.58,0.04,0.081,0.179,0
2.0,1747143027.855208,12.0,5.0,9.0,0.3978612422943115,-0.0196852423250675,0.833859384059906,-0.0052756778895854,-0.0630215555429458,-9.87149143218994,0.0003630535778559,0.0003501083441397,1.0689957805765615,2.6692346757520107,2.0712084887003126,0.5133607392280038,2.558448445483235,5.58,0.04,0.081,0.179,0
2.0,1747143028.359599,14.0,5.0,8.0,0.4823481738567352,0.013461522758007,0.7928027510643005,0.0580528117716312,-0.0192506965249776,-9.91950798034668,0.0001575253369964,0.0001563271934714,1.069485335723919,3.211535651628269,2.100275293078857,0.5690769007310891,4.781464801034694,5.58,0.04,0.081,0.179,0
2.0,1747143028.864868,16.0,5.0,7.0,0.5850664973258972,0.0532868355512619,0.7484627366065979,0.0444979183375835,0.0445389486849308,-9.914648056030272,0.0001099909842611,3.409397615230787e-05,1.0696673308129772,3.3948517809555607,2.352305739064216,0.5830552523582935,7.003926606685129,5.58,0.04,0.081,0.179,0
2.0,1747143029.369352,18.0,5.0,6.0,0.6994132995605469,0.0864260196685791,0.7087302207946777,0.0290739573538303,0.0161554012447595,-9.855645179748535,9.161589525178183e-06,-0.0002280524094268,1.069664442997751,2.6091989794322354,2.121821946172858,0.4307609630875102,9.174915112842593,5.58,0.04,0.081,0.179,0
2.0,1747143029.87293,20.0,5.0,5.0,0.8237559199333191,0.1242761313915252,0.6862197518348694,0.0198097899556159,-0.0306774098426103,-9.819053649902344,-0.0001785824641265,-8.077080180075569e-05,1.0694761812054971,2.757856518997757,1.871588911028617,0.5479404479915968,11.285012441502989,5.58,0.04,0.081,0.179,0
2.0,1747143030.3765197,22.0,5.0,4.0,0.966929018497467,0.1794852465391159,0.6711302995681763,-0.006045825779438,-0.0033942773006856,-9.827188491821287,-0.0001878704714787,-0.0001614441721408,1.0691250786946318,3.457324878199838,2.3062998610233243,0.471159026570582,13.325566874992044,5.58,0.04,0.081,0.179,0
2.0,1747143030.8824978,24.0,5.0,3.0,1.0955941677093506,0.2254309356212616,0.6685139536857605,0.0560064017772674,-0.0965650156140327,-9.815680503845217,-0.0001396164536776,-0.0001607283949442,1.0686116400625938,3.1858132266535404,2.0631002968685745,0.5793774329104026,15.31784124838932,5.58,0.04,0.081,0.179,0
2.0,1747143031.3870652,26.0,5.0,2.0,1.227978229522705,0.2730902731418609,0.667576253414154,0.0390404649078846,0.0135522820055484,-9.840806007385254,-0.0001019066263673,-5.519471310974908e-05,1.0684884869324234,3.303366439613147,2.423491522757925,0.51563178814599,17.25832446435246,5.58,0.04,0.081,0.179,0
2.0,1747143031.8921597,28.0,5.0,1.0,1.3514878749847412,0.3141972124576568,0.6720378994941711,0.0512012280523777,-0.1203135102987289,-9.843748092651367,-0.0001288585405484,-0.0001074589172947,1.0679813100708857,3.1444724963931208,2.055709489415814,0.4556674396427808,19.15870981242348,5.58,0.04,0.081,0.179,0
2.0,1747143032.3976066,30.0,5.0,0.0,1.4721847772598269,0.3515832722187042,0.6775428652763367,0.0921769067645073,0.0437109842896461,-9.90585231781006,-7.575622038462845e-05,-3.784750579593071e-05,1.0674471033808597,3.044172796526841,1.783164971661744,0.5022463744221939,21.014062973162588,5.58,0.04,0.081,0.179,0
2.0,1747143032.9022691,32.0,5.0,-1.0,1.594043254852295,0.3908718228340149,0.6795448064804077,-0.0264949351549148,-0.035279057919979,-9.751863479614258,-4.8556336077724976e-05,-4.1607182267846544e-05,1.0670900514310135,3.493866805953363,2.243304070843541,0.5058306377164176,22.83074035657811,5.58,0.04,0.081,0.179,0
2.0,1747143033.4060917,34.0,5.0,-2.0,1.7086354494094849,0.4288042187690735,0.6851162314414978,0.0433614961802959,0.0401099249720573,-9.833386421203612,-7.944756773893433e-05,-2.863103840387192e-05,1.066762070753859,3.226260614523776,2.175164739511141,0.4692368559741831,24.59213939416991,5.58,0.04,0.081,0.179,0
2.0,1747143033.9120324,36.0,5.0,-3.0,1.81122887134552,0.4629077315330505,0.69305020570755,-0.0176796019077301,-0.0419771149754524,-9.824681282043455,-6.583725882182422e-05,-8.248699161345261e-05,1.0663314007543618,2.511682510427753,2.1359245996617666,0.4501871272225476,26.346396221446327,5.58,0.04,0.081,0.179,0
2.0,1747143034.415424,38.0,5.0,-4.0,1.9164129495620728,0.4934699833393097,0.6931334137916565,0.0672229677438736,-0.0145043889060616,-9.7498779296875,-0.0001219936930295,-5.568392706550163e-05,1.0658451020458353,3.2738121224164027,1.5864456482912974,0.4814601136542947,28.06176216773741,5.58,0.04,0.081,0.179,0
2.0,1747143034.919139,40.0,5.0,-5.0,2.020617961883545,0.5223256349563599,0.6948149800300598,0.1024306491017341,0.0375572852790355,-9.796628952026367,-9.307041779734376e-05,0.0001368670623951,1.065617872282456,3.2393007267919733,1.5228044799155946,0.5451509224305361,29.752118256035907,5.58,0.04,0.081,0.179,0
3.0,1747143107.14433,1.4097915887832642,5.260809421539307,-5.05047607421875,1.1788935661315918,-0.541000485420227,0.3892075717449188,0.0037070736289024,0.1381018906831741,-11.860864639282228,0.5272895173330535,0.264690311355173,0.0383099731914093,3.140570963949094,2.096633437054724,0.5627042541760927,1.592627661808507,9.92,0.01,0.176,0.108,0
3.0,1747143107.7536302,1.6771306991577148,5.11916446685791,-4.76446533203125,-0.3046088218688965,0.1275148242712021,0.0271462611854076,0.1577538251876831,-0.0044599939137697,-10.84618091583252,0.0883977645123423,0.0463808562630101,-0.0154905734757031,3.269947509935519,2.242392695372645,0.432515697906308,0.4170387696642427,9.92,0.01,0.176,0.108,0
3.0,1747143111.387709,4.574633121490479,3.870160818099976,-5.0908203125,0.7452626824378967,-0.441476434469223,0.088470883667469,-0.0085768587887287,0.0846649557352066,-10.109768867492676,0.2500252869586853,0.1101949695133075,0.0066111574763338,3.443109958494131,1.5316246965221436,0.4100956110499538,0.5960786580921652,9.92,0.01,0.176,0.108,0
3.0,1747143112.877652,5.718403339385986,3.0989646911621094,-5.0213775634765625,0.1558471173048019,-0.1992284953594207,0.0383652970194816,0.0459225364029407,-0.0199102070182561,-9.931364059448242,0.0340958847691,0.0418512286163596,-0.0091737061555565,3.1062325900306056,1.913303076633993,0.5645862199771534,0.299245199770974,9.92,0.01,0.176,0.108,0
3.0,1747143115.544928,8.063611030578613,1.9893406629562376,-4.9937896728515625,0.5737759470939636,-0.2194529771804809,0.0084513686597347,0.0201111957430839,0.0618323497474193,-9.909844398498535,0.1207867819767102,0.052145464800648,-0.0101802286425181,3.4560866218927986,1.67157314788614,0.5360077843946516,0.064796240946342,9.92,0.01,0.176,0.108,0
3.0,1747143117.7712123,9.878249168395996,1.0699838399887085,-5.0045166015625,0.4179625511169433,-0.2756433188915252,0.0059318044222891,0.0439330004155635,0.1524291187524795,-9.800704002380373,0.0630252022843406,0.0424602384520354,-0.0156792526618804,2.7397688424564213,2.2714198547826503,0.5181808883927416,0.1405041015255642,9.92,0.01,0.176,0.108,0
3.0,1747143120.144591,11.992405891418455,-0.0176913626492023,-5.005386352539063,0.5633447170257568,-0.2369202971458435,0.0171243604272604,0.1093269363045692,0.1395470350980758,-9.897732734680176,0.0937671088785682,0.0489118972025656,-0.017839529602507,2.81920817959605,2.2129502672918133,0.5784023655997644,0.0199916880530114,9.92,0.01,0.176,0.108,0
3.0,1747143122.3758168,13.97366428375244,-0.9654524922370912,-4.994697570800781,0.5093601942062378,-0.2873120009899139,0.0077711259946227,0.0173781365156173,0.0278228521347045,-9.835396766662598,0.0813028241392276,0.0451922894297785,-0.0227185623730462,3.319135734505073,1.6857802302713982,0.5990070453516644,0.0437631808523203,9.92,0.01,0.176,0.108,0
3.0,1747143124.6242335,15.971396446228027,-2.003612279891968,-4.994941711425781,0.5663344860076904,-0.2665931582450866,0.0032522822730243,-0.0203831382095813,0.0610782653093338,-9.867581367492676,0.0867640652239411,0.0481344020882822,-0.0263175699053176,3.167504164018527,1.986619861964695,0.5705002895769766,0.0292711143912239,9.92,0.01,0.176,0.108,0
3.0,1747143126.8104014,17.98937225341797,-2.9696478843688965,-4.997810363769531,0.551583468914032,-0.2856716215610504,0.0064613698050379,0.0720337405800819,0.0127995014190673,-9.8303804397583,0.0875285828969288,0.0440500349448623,-0.0305945773137842,3.2984383207495385,2.115237702253979,0.5258266829999112,0.0322334364832162,9.92,0.01,0.176,0.108,0
3.0,1747143128.972331,19.974103927612305,-4.000582218170166,-4.9979400634765625,0.5664765238761902,-0.2849683761596679,0.0057791201397776,0.0147358737885952,0.0962352529168129,-9.782551765441896,0.0856213913126894,0.0481839118086868,-0.0341766981215274,2.865639375706675,2.037116169753758,0.5867558454301178,0.0259843968871132,9.92,0.01,0.176,0.108,0
3.0,1747143131.1570368,21.981660842895508,-4.996550559997559,-4.9988555908203125,0.5844347476959229,-0.2837209105491638,0.0055021652951836,0.0202862042933702,0.0408994518220424,-9.857427597045898,0.0887789851611142,0.0469912883628925,-0.0389361225449502,2.968484401840192,1.7223627271862787,0.4575934361754633,0.0186958014539158,9.92,0.01,0.176,0.108,0
3.0,1747143133.3434515,24.00792694091797,-6.002798557281494,-5.000526428222656,0.580386221408844,-0.2820410430431366,0.0134515576064586,-0.0257982723414897,0.0215652510523796,-9.854327201843262,0.0909182093792021,0.0458146669684484,-0.0499293123447357,2.982439446562997,1.90993065626852,0.547856813243275,0.0084229117203245,9.92,0.01,0.176,0.108,0
3.0,1747143136.8754375,24.916709899902344,-6.68408203125,-5.1649932861328125,-1.6348901987075806,0.8318488597869873,-0.1928270906209945,0.1252266615629196,0.0456389337778091,-9.889341354370115,-0.3200827350157534,-0.0418575845365294,-0.2116811664226673,3.4449086669746745,2.087709265304224,0.4987560476507765,1.1404141302253403,9.92,0.01,0.176,0.108,0
3.0,1747143139.777236,29.08855056762696,-8.283159255981445,-4.925582885742188,1.008685827255249,-0.6185705661773682,-0.0340233854949474,0.1054014563560485,0.0367524921894073,-10.684300422668455,0.3610194998157201,0.0739506445628741,-0.1987444471997696,2.770245203433608,1.737053779380226,0.5516910532357645,1.1272352946139452,9.92,0.01,0.176,0.108,0
3.0,1747143140.6616914,30.22669219970703,-8.981735229492188,-4.946968078613281,0.2149159014225006,-0.3185006082057953,-0.1213921830058097,-0.0162370130419731,0.0732429400086402,-9.831235885620115,0.1376233447090574,0.045173509873959,-0.2082136881419745,2.909257223113519,2.1227132695437354,0.4559295592606264,0.2335280281586831,9.92,0.01,0.176,0.108,0
3.0,1747143144.0671425,30.879047393798828,-9.510750770568848,-5.1495208740234375,-1.781466364860535,0.7355027794837952,-0.269159197807312,0.1464126259088516,0.0362514704465866,-9.69542407989502,-0.326893730155083,-0.0774284555302668,-0.1572843043816933,2.753755673114735,2.2593818446597305,0.5732989037796494,1.2321753307126826,9.92,0.01,0.176,0.108,0
3.0,1747143147.0318377,34.990272521972656,-11.447883605957031,-4.914588928222656,1.099799871444702,-0.4603008329868316,-0.0370095409452915,0.0115700550377368,-0.009375125169754,-10.769450187683104,0.3665294844300059,0.0941752216787025,-0.1688963947650081,2.6892719562892475,1.9028723328541413,0.4179746623834557,1.0901992677677383,9.92,0.01,0.176,0.108,0
3.0,1747143147.8981135,36.19947052001953,-11.974523544311523,-4.9327239990234375,0.2125653475522995,-0.1527943313121795,-0.1250226944684982,0.0149793196469545,0.0464435629546642,-9.844717025756836,0.1374515467831047,0.0269856955940967,-0.1875638983017894,2.56272576438764,2.1836763438738047,0.5906244225620162,0.2120462177420469,9.92,0.01,0.176,0.108,0
3.0,1747143151.0299027,37.92121124267578,-13.048563957214355,-5.034019470214844,0.4868257343769073,-0.1716632395982742,0.020736550912261,0.0356168784201145,0.0447738505899906,-9.820704460144045,0.0836106346959287,0.0325302776009823,-0.1875360198552691,2.99957800306016,2.271048108308572,0.4595724801124848,0.0986075584055858,9.92,0.01,0.176,0.108,0
3.0,1747143155.2985609,40.0857048034668,-14.11966323852539,-4.279312133789063,-0.2383387684822082,-0.0014995788224041,0.7966691851615906,-0.0158498026430606,0.0132150426506996,-9.641823768615724,-0.0012980602542435,0.0003304717729392,-0.1893608732208406,3.0800329071166246,2.1746997850413194,0.4064739330837567,0.7355648200501034,9.92,0.01,0.176,0.108,0
4.0,1747143264.7554915,0.7829102873802185,1.5547562837600708,-12.020965576171877,0.9162713289260864,-0.5467010140419006,0.0897213742136955,-0.0283678174018859,0.0696754828095436,-10.49782943725586,0.3898651762210812,0.1024766953176818,-0.367701741150342,3.461654673745647,2.3446991931020618,0.4553928765328717,0.9009051228187892,5.64,0.08,0.128,0.198,1
4.0,1747143266.3961542,1.5468932390213013,2.699387788772583,-11.074295043945312,-0.1767772883176803,0.4546882510185241,0.3365675210952759,0.036465298384428,0.0376866608858108,-10.659314155578612,-0.0682233288722165,-0.0941634068577122,-0.4609559630957354,2.730230412295753,1.5169156885076236,0.5555830007263677,0.8366413625225846,5.64,0.08,0.128,0.198,1
4.0,1747143269.2956214,4.240917682647705,1.7216389179229736,-9.962249755859377,0.6527057886123657,-0.3348137140274048,-0.0870975703001022,0.07764932513237,0.1217534765601158,-10.060791015625,0.2028667597503622,0.0307698402667365,-0.4901301084942221,2.9093132395269192,1.6179468282804943,0.4840859644997495,0.3700693215603127,5.64,0.08,0.128,0.198,1
4.0,1747143271.6078076,5.757283687591553,2.04811429977417,-9.0345458984375,0.2047082781791687,0.4573968946933746,0.140773743391037,-0.0126920528709888,0.0523712933063507,-10.21360206604004,0.0003383516329656,-0.0446070602663579,-0.4824521215442304,2.6824483316580987,1.5721138720083374,0.584287131399155,0.2498391747720275,5.64,0.08,0.128,0.198,1
4.0,1747143274.2103813,8.115078926086426,2.0973961353302,-7.9712371826171875,0.5197896361351013,-0.3255711495876312,0.0108070513233542,0.0444787852466106,0.0080178529024124,-10.062137603759766,0.1212817682331755,-0.0136522584193777,-0.4792323773638184,2.7248542147811343,2.0124365739673227,0.5889980204632178,0.1534811586816464,5.64,0.08,0.128,0.198,1
4.0,1747143276.5863633,9.872146606445312,1.841839075088501,-7.01708984375,0.346819519996643,0.2813031673431396,0.0916618928313255,-0.0650704950094223,0.0539945624768734,-10.133994102478027,0.0486382901440178,-0.0130514715385479,-0.467055256019459,2.9588981369639566,1.5275736114065208,0.5171312776916319,0.2040917224478005,5.64,0.08,0.128,0.198,1
4.0,1747143279.0470896,12.016974449157717,2.176471948623657,-5.9926605224609375,0.5233947038650513,-0.1662322282791137,0.0481492690742015,-0.0747170448303222,0.1440379321575164,-10.221038818359377,0.0867258033553398,-0.0360211413156035,-0.4629087685891671,2.995475791696711,2.293880646542453,0.4335080682851016,0.1774382949247004,5.64,0.08,0.128,0.198,1
4.0,1747143281.272993,13.898829460144045,1.856027126312256,-5.031501770019531,0.4509905874729156,0.0803941115736961,0.1034795269370079,0.0010913219302892,0.0751548334956169,-10.24842643737793,0.0728735568779364,-0.0024874879141207,-0.4556721681086035,3.384913725244384,2.066698263725014,0.414640586197238,0.1787624904923187,5.64,0.08,0.128,0.198,1
4.0,1747143283.645518,15.960379600524902,2.0835320949554443,-4.002799987792969,0.5218128561973572,0.0031713347416371,0.0728593617677688,0.0079391943290829,0.0369600914418697,-10.165290832519531,0.075279601599198,-0.0364072905333551,-0.4514669475053867,2.6406086628060668,2.110458119599483,0.5092593381110803,0.092494469423055,5.64,0.08,0.128,0.198,1
4.0,1747143285.9151702,17.925565719604492,1.956530213356018,-3.0257720947265625,0.4970961511135101,-0.026180250570178,0.1109745427966117,0.0054944977164268,0.0018275305628776,-10.283488273620604,0.0781274965324469,-0.0094128381792187,-0.4485202972468269,3.08047953714364,1.7169416955511878,0.4006935287518275,0.0899682461508798,5.64,0.08,0.128,0.198,1
4.0,1747143288.2255478,19.946224212646484,1.988679051399231,-2.005828857421875,0.5097852945327759,0.0587234497070312,0.0929117426276207,0.0231468081474304,0.0951431691646575,-10.215298652648926,0.0755436618339189,-0.0269064288160807,-0.4435384166473348,3.089312169077276,2.2854437933942005,0.5911529087091842,0.0552627791696756,5.64,0.08,0.128,0.198,1
4.0,1747143290.4730752,21.931753158569336,2.026173114776612,-1.0213851928710938,0.519653856754303,-0.0244111139327287,0.1067869141697883,-0.0448662713170051,0.0394523218274116,-10.2698335647583,0.0759554350250656,-0.0232930781923875,-0.4400730874728819,3.4847596874645403,2.301055773407012,0.4866244276189153,0.0761576639380814,5.64,0.08,0.128,0.198,1
4.0,1747143292.7470765,23.9555606842041,1.9517958164215088,-0.01678466796875,0.4970836043357849,0.0268980115652084,0.1006310135126113,-0.0032036881893873,0.0585296675562858,-10.183011054992676,0.0807803786140027,-0.0174026835114496,-0.4367325125646231,3.4761546943626778,1.687055258271953,0.5370723769287172,0.0676773313724592,5.64,0.08,0.128,0.198,1
4.0,1747143295.017918,25.91527366638184,2.004756689071656,0.9783554077148438,0.5285772085189819,0.0198939926922321,0.0946039855480194,-0.0068910624831914,0.0421118885278701,-10.208961486816406,0.0736184524113304,-0.0217304018792928,-0.429973872858702,2.8861310816604795,1.5538875845972695,0.436884691152222,0.0875766297278645,5.64,0.08,0.128,0.198,1
4.0,1747143297.2448914,27.937219619750977,2.008871555328369,1.972694396972656,0.5121818780899048,-0.019456772133708,0.1011375933885574,0.0008344622328877,0.0514403507113456,-10.257208824157717,0.0780983469157002,-0.0196025808545662,-0.4244972361034589,2.8921438264076484,1.8892813578880567,0.4053675756539144,0.0690338800506184,5.64,0.08,0.128,0.198,1
4.0,1747143299.5174065,29.9298038482666,1.966285228729248,2.980682373046875,0.5272406935691833,0.0307637862861156,0.1068506017327308,0.0103482548147439,0.0690520331263542,-10.165197372436523,0.0790723445083634,-0.0173568881161849,-0.4212298275016642,2.5695394551391417,1.871283648691936,0.4004687032598644,0.0802331367398627,5.64,0.08,0.128,0.198,1
4.0,1747143301.794331,31.94475555419922,2.0203421115875244,3.989532470703125,0.5063048601150513,0.0054209739901125,0.1015327647328376,0.0272816326469182,0.0710921734571456,-10.161474227905272,0.0776228803412983,-0.0244177958936957,-0.4171387215091998,2.934386339612709,2.0549236876112493,0.4365758635455792,0.0597939751585031,5.64,0.08,0.128,0.198,1
4.0,1747143304.0653934,33.93706130981445,1.991910099983216,4.987800598144531,0.5113385915756226,-0.0074133444577455,0.0994862988591194,0.0477714017033577,0.0376003794372081,-10.19424819946289,0.0788720455644029,-0.0176290845986848,-0.4139590417206182,2.932036008676292,2.0900536277727824,0.5012704127714619,0.0646185005256624,5.64,0.08,0.128,0.198,1
4.0,1747143306.335024,35.94643783569336,1.9791624546051023,5.9833984375,0.5044732093811035,0.0319776087999343,0.1046616956591606,0.0130869215354323,0.0128269866108894,-10.168023109436035,0.0786125419476093,-0.0200253859016798,-0.40914285471734,3.231457242593222,2.2994342996730683,0.5202927408615742,0.0598224090181713,5.64,0.08,0.128,0.198,1
4.0,1747143308.6065767,37.9272346496582,2.003805160522461,6.986854553222656,0.5111504197120667,-0.004212808329612,0.0984476581215858,0.0709716901183128,0.0493171736598014,-10.145546913146973,0.0765712150538654,-0.0172891688898041,-0.4044347236748167,2.694577796548004,1.5732313911515998,0.5806312908244573,0.0740410577176076,5.64,0.08,0.128,0.198,1
4.0,1747143310.8581357,39.943450927734375,1.9907331466674805,7.986251831054687,0.5120226740837097,0.0086794747039675,0.093133844435215,-0.060913823544979,-0.003989890217781,-10.2042875289917,0.0788863134007738,-0.0180017283979692,-0.400800218317392,2.593320741826331,2.312396770217348,0.4540386133703223,0.0589294857786673,5.64,0.08,0.128,0.198,1
5.0,1747143433.9251008,0.5715652108192444,6.479048252105713,-5.001655578613281,0.7972500920295715,-0.7537762522697449,0.0699507445096969,0.0452222451567649,0.035011637955904,-10.393766403198242,0.3591770827559399,0.1424381915683467,-0.3776688714991412,3.0875534933892057,1.9089793863723985,0.5981556125458017,0.773356486229672,5.45,0.17,0.144,0.023,0
5.0,1747143438.2114327,1.7847886085510254,1.9883840084075928,-5.026397705078125,0.1390118300914764,0.5834843516349792,0.0369181670248508,-0.0578184612095356,0.0926786586642265,-9.880816459655762,-0.0026017164283306,-0.0193654491976819,-0.5036815744955486,2.697620997858092,2.204609192116296,0.5588225854045256,0.2171352415050821,5.45,0.17,0.144,0.023,0
5.0,1747143445.687,3.905360460281372,7.481057167053223,-5.023689270019531,0.4885264933109283,0.5490236878395081,0.0551041439175605,0.0784876942634582,0.0419070646166801,-9.889032363891602,-0.0082060174964835,-0.1419776648584926,-0.3888016304977184,2.5698582615902525,1.7036491626871737,0.5476986162163462,0.490850101319623,5.45,0.17,0.144,0.023,0
5.0,1747143448.2902927,6.149527072906494,0.6782525181770325,-4.901161193847656,0.2872191369533539,-1.5763195753097534,-0.1853685975074768,-0.0809813812375068,0.064731627702713,-10.621478080749512,0.2460926987375562,0.3532908380742183,-0.4285108479757026,3.1317999239316507,1.7253997763323787,0.5632500375850138,1.3338455161070792,5.45,0.17,0.144,0.023,0
5.0,1747143456.237731,8.303592681884766,7.6741156578063965,-4.999168395996094,-0.1068137735128402,1.0164825916290283,0.0330105237662792,-0.0271561294794082,-0.0177335515618324,-10.160688400268556,-0.0757552516262032,-0.2250892602627967,-0.4600902212330428,2.816623000564542,2.0641886453225924,0.5581512696080246,0.7393247785371152,5.45,0.17,0.144,0.023,0
5.0,1747143458.9268,10.639412879943848,0.4746476411819458,-4.87017822265625,0.2588318884372711,-1.7773655652999878,-0.2378559410572052,0.0024188538081943,0.2166893184185028,-10.904611587524414,0.3441486981282693,0.3440461238966018,-0.4641780901436309,3.0775691992813496,2.2888423767770085,0.4505334683222278,1.659036570863517,5.45,0.17,0.144,0.023,0
5.0,1747143464.2206705,12.095715522766112,5.7573418617248535,-4.85919189453125,-0.2587550282478332,-1.469761610031128,-0.2729468047618866,0.0862244591116905,0.2425519078969955,-10.52765941619873,0.1715299745571989,0.3174105310868479,-0.5181767860420898,3.418482120328642,2.1418231419926475,0.5602831628636817,1.2542677674585847,5.45,0.17,0.144,0.023,0
5.0,1747143471.636588,13.916093826293944,1.5153862237930298,-5.022735595703125,0.4840406477451324,-0.0131486104801297,0.019227959215641,0.0931095108389854,0.0246380921453237,-9.885406494140623,0.0856781256479964,0.0556793380158182,-0.5764609345496321,3.1297590993027136,1.5097415020056415,0.4940113647275908,0.4923491295691971,5.45,0.17,0.144,0.023,0
5.0,1747143474.135988,16.365312576293945,8.114678382873535,-4.913810729980469,0.2452585697174072,1.4801356792449951,-0.0188644956797361,0.0878363102674484,0.0849627405405044,-10.633021354675291,-0.136301895994774,-0.3585125708440662,-0.5892031354181113,2.8130042025314355,1.72636095141099,0.4792251256040328,1.1761759077240863,5.45,0.17,0.144,0.023,0
5.0,1747143476.8053243,18.42328643798828,0.1446567922830581,-4.7838287353515625,0.2156988829374313,-2.002164840698242,-0.3884862661361694,0.0413797721266746,0.2155194282531738,-11.156023025512695,0.3871382592114411,0.3695281764044352,-0.5813708374748169,3.418983638354596,2.335611381609733,0.5139610607275783,1.9152545111984207,5.45,0.17,0.144,0.023,0
5.0,1747143482.1734812,19.94687271118164,5.7319536209106445,-4.851036071777344,-0.2732074856758117,-1.5730421543121338,-0.2822433114051819,0.0206741727888584,0.1652815788984298,-10.630279541015623,0.1992358281659526,0.3173437071730713,-0.6533881245259467,3.335842626619832,1.80065761664842,0.574625918718136,1.2778710342794142,5.45,0.17,0.144,0.023,0
5.0,1747143491.4998226,22.32703399658203,2.0528931617736816,-5.004508972167969,-0.3952697515487671,0.2992989718914032,0.0106282867491245,0.045808345079422,0.1074158027768135,-9.822744369506836,-0.0280240592778482,-0.0312726301225509,-0.7089064271955423,3.010926731335894,1.95403167146234,0.4354549194829584,0.3313144311871193,5.45,0.17,0.144,0.023,0
5.0,1747143494.1059732,24.097644805908203,8.126615524291992,-4.949043273925781,0.7732048034667969,0.8694635033607483,0.0353443659842014,0.0508096553385257,0.0346394814550876,-10.311436653137209,-0.1359021377911944,-0.3005854464246358,-0.7386901276188034,2.7648398260793225,2.460995121715441,0.5998575234235319,1.1319865880958015,5.45,0.17,0.144,0.023,0
5.0,1747143496.6503525,26.300537109375,0.2414835840463638,-4.811805725097656,0.0664902403950691,-1.92962908744812,-0.3273889720439911,-0.00832449644804,0.1676667481660843,-11.015944480895996,0.3897956927761477,0.3293727255784695,-0.7189900150203553,2.9929640535771487,1.7649113122292617,0.4052729562946424,1.7939118218005927,5.45,0.17,0.144,0.023,0
5.0,1747143499.5081887,28.28515815734864,9.071979522705078,-4.7621612548828125,0.3660919368267059,2.0047922134399414,-0.1660556942224502,0.0877378433942794,-0.0245027430355548,-11.598397254943848,-0.3321366138014324,-0.4591327897819673,-0.7405788111761102,2.946549602749303,2.292675595272605,0.5630926710527506,2.104989687834729,5.45,0.17,0.144,0.023,0
5.0,1747143504.9054072,29.96465492248535,3.2935941219329834,-4.877540588378906,-0.288361132144928,1.5501322746276855,-0.092038370668888,0.0383581072092056,0.11185784637928,-10.888343811035156,-0.3060349400424976,-0.2419919648580827,-0.7741902819323322,2.745628483614193,1.586413647324573,0.5659186212134272,1.2998581977656898,5.45,0.17,0.144,0.023,0
5.0,1747143512.3844695,31.96027565002441,7.451064109802246,-5.026847839355469,0.4558569192886352,-0.1254824995994568,0.045608140528202,-0.0292585603892803,0.0177731812000274,-9.81401824951172,-0.0159680783712631,-0.0745156676601718,-0.8193065930939502,3.297549287111701,2.0150688923778324,0.5225079707394176,0.453605182521907,5.45,0.17,0.144,0.023,0
5.0,1747143514.8426917,34.37115478515625,0.8928114175796509,-4.9393463134765625,0.2847365438938141,-1.523356318473816,-0.114553079009056,-0.009128225967288,0.1770828515291214,-10.530354499816896,0.3478864837869919,0.178505891022542,-0.8375425945276217,3.0770876508913174,2.2649602091204626,0.4006005448902244,1.1693165958264886,5.45,0.17,0.144,0.023,0
5.0,1747143517.5112214,36.35468673706055,8.749693870544434,-4.803184509277344,0.1598809510469436,1.999261379241944,-0.1404991894960403,0.1114904955029487,0.0959895253181457,-11.382091522216797,-0.3486111087015226,-0.3905096790685066,-0.8431606017459073,3.2099323925674805,1.9346495941160309,0.4467798166452519,1.79609789807121,5.45,0.17,0.144,0.023,0
5.0,1747143522.8861046,37.82147216796875,3.2032229900360107,-4.892875671386719,-0.2783528864383697,1.556346416473389,-0.0860498920083046,0.0550779215991497,0.0644585341215133,-10.872175216674805,-0.3328843349518215,-0.1842404394233343,-0.873198987879593,3.4238126017746127,1.996617996308813,0.579716466791184,1.2211033422040178,5.45,0.17,0.144,0.023,0
5.0,1747143530.57523,40.13724899291992,7.494401454925537,-5.0193634033203125,0.3980017006397247,-0.2389586865901947,0.0464135780930519,-0.0037661027163267,0.1029061824083328,-9.868379592895508,-0.0074480543873242,-0.0846088224251425,-0.916931820674114,3.175522816020401,1.9294778624768096,0.5492047768769968,0.5134637534219585,5.45,0.17,0.144,0.023,0
6.0,1747143629.1422625,1.062763214111328,0.6576612591743469,-5.307106018066406,-0.914944589138031,1.081904649734497,0.2819968461990356,-0.1225139796733856,0.028523875400424,-10.214369773864746,0.1645860853413601,0.3475810247627597,-2.789452958124306,3.211416029768142,1.8828108974366269,0.5497355979158697,1.1854303990426092,4.28,0.02,0.101,0.161,0
6.0,1747143636.4747293,2.375366687774658,1.4114375114440918,-4.006919860839844,0.5307592153549194,-0.3290713727474212,0.0248046182096004,-0.0718169808387756,-0.0485508330166339,-9.828428268432615,-0.11921839483277,-0.0272500973716061,-2.779125996590685,2.994351053414995,1.6547685517500623,0.4547071670282508,0.293418046724646,4.28,0.02,0.101,0.161,0
6.0,1747143638.994125,2.091237783432007,2.485809803009033,-2.9256744384765625,-0.4237965643405914,0.5427020788192749,-0.0258415043354034,-0.0309118516743183,-0.0956955254077911,-10.156038284301758,0.0050091424519127,0.1094289828860733,-2.7743021778997643,2.7113314696431186,2.125706938694578,0.4714848923812607,0.0960200381475393,4.28,0.02,0.101,0.161,0
6.0,1747143640.863244,1.52720844745636,3.701746702194214,-2.0799789428710938,0.1740584522485733,0.326997846364975,0.2238525748252868,-0.0780694559216499,0.0230580233037471,-10.341930389404297,-0.0104990590879612,0.0684297347181444,-2.778920997084254,2.780081587651845,1.8020147113646376,0.54841106686762,0.2993440946878385,4.28,0.02,0.101,0.161,0
6.0,1747143643.1949413,1.401439547538757,4.914683818817139,-0.972686767578125,-0.3107281625270843,0.3931213915348053,0.0157341565936803,-0.1193733364343643,0.0317184813320636,-10.055227279663086,-0.0368257574494336,0.0640797063589966,-2.780985256612122,3.4387632448600067,1.9541567203779824,0.4437541765868249,0.2425739109127339,4.28,0.02,0.101,0.161,0
6.0,1747143645.169093,0.2466289699077606,5.908979415893555,-0.0741958618164062,-0.3843584656715393,0.3066524863243103,0.1971499919891357,0.0122574344277381,0.0235410500317811,-10.346063613891602,0.0205294752955877,0.0727071856547574,-2.782336550181005,3.373567136306952,2.089940908627976,0.5607697002289146,0.1110259626724812,4.28,0.02,0.101,0.161,0
6.0,1747143647.1011095,-0.7649571299552917,6.525129318237305,0.943145751953125,-0.307417094707489,0.2743353545665741,0.1777136772871017,-0.0493928901851177,-0.014451784081757,-10.22825050354004,0.0095855729861137,0.0439865643627395,-2.7883327038703705,3.138870378575072,1.6335357888793212,0.482722098004222,0.2049082035705613,4.28,0.02,0.101,0.161,0
6.0,1747143649.1599772,-1.894208908081055,7.013805389404297,1.9695892333984373,-0.4666708707809448,0.1283301413059234,0.1229233145713806,-0.1408674418926239,-0.0112636350095272,-10.26298713684082,0.0188148163338296,0.0485004510971098,-2.7900258140953555,2.812256233412664,2.104332336590249,0.5032818215469755,0.1629637934854625,4.28,0.02,0.101,0.161,0
6.0,1747143651.0708094,-3.132641315460205,6.971888542175293,2.925643920898437,-0.429471343755722,-0.0797191560268402,0.201319009065628,-0.1098627373576164,-0.0099725425243377,-10.270586013793944,0.0365993734701209,0.0252105579935459,-2.789801707424012,2.588737140426574,1.9726762217233005,0.4547399637774779,0.1207222382663834,4.28,0.02,0.101,0.161,0
6.0,1747143652.8998597,-4.062846660614014,6.4953389167785645,3.9161911010742174,-0.3596667051315307,-0.1526119858026504,0.2243013828992843,-0.0102835595607757,-0.0454579181969165,-10.3483247756958,0.0232626258653484,-0.0011896508846834,-2.789990549765615,2.99126500219067,2.401595373669025,0.5433605282965294,0.1960503222558655,4.28,0.02,0.101,0.161,0
6.0,1747143654.7922497,-4.790192127227783,5.816556453704834,4.934654235839844,-0.2938482463359833,-0.277519017457962,0.1908178776502609,-0.1442114263772964,-0.0820856466889381,-10.304302215576172,0.0155308732022452,-0.0058801196538496,-2.788352866785157,3.3577606619777294,2.0307469612160176,0.4108311191780268,0.1818364487353546,4.28,0.02,0.101,0.161,0
6.0,1747143656.6618772,-5.199535369873047,4.821530342102051,5.924522399902344,-0.0875383615493774,-0.431622177362442,0.2009838223457336,-0.0111666470766067,0.0111826248466968,-10.281719207763672,0.0111899070044951,-0.0261444278885592,-2.7868908533073875,3.2726916540796185,2.46485618531097,0.4802875682479856,0.1407905872538439,4.28,0.02,0.101,0.161,0
6.0,1747143658.5094645,-5.024147033691406,3.6554808616638175,6.914314270019531,0.1236202791333198,-0.432994931936264,0.2213311791419983,-0.0196408964693546,-0.0546115785837173,-10.33645725250244,-0.0156998348555114,-0.0453403556272467,-2.787666820373898,3.1213974590224813,2.146534306701024,0.5626952664692548,0.1227148858199081,4.28,0.02,0.101,0.161,0
6.0,1747143660.4034572,-4.297890186309815,2.6064486503601074,7.931915283203125,0.2480430901050567,-0.3717577457427978,0.1918693035840988,-0.124754324555397,-0.018388994038105,-10.285832405090332,-0.0388889700695455,-0.0428198684132925,-2.792028797723501,2.913399893467033,2.129342927815223,0.5585107432972468,0.1401547515854998,4.28,0.02,0.101,0.161,0
6.0,1747143662.4417608,-3.156574249267578,1.719402313232422,8.96148681640625,0.4180880784988403,-0.3090598583221435,0.1578873097896576,-0.0377696715295314,0.0505297407507896,-10.284249305725098,-0.0548396819259182,-0.0444212806605414,-2.799152224825843,2.901118836363189,1.7353727641598324,0.5631955763919207,0.1120812921526714,4.28,0.02,0.101,0.161,0
6.0,1747143664.5495462,-1.4849392175674438,1.18117094039917,9.97187042236328,0.5278059840202332,-0.1023497208952903,0.1290980279445648,0.0720645636320114,-0.0596050173044204,-10.259151458740234,-0.0855150174052436,-0.0364671091918753,-2.804971042101891,2.588518634300244,1.543781772744293,0.4921072445318372,0.0510778281500876,4.28,0.02,0.101,0.161,0
6.0,1747143666.6744404,0.4741185009479522,1.307132601737976,10.971824645996094,0.5488351583480835,0.0227481164038181,0.1214073896408081,-0.0597201213240623,-0.0574314258992672,-10.206656455993652,-0.1045435335781432,-0.0067315457565911,-2.809567223164345,2.983332978328228,2.059805947743925,0.5039193505656125,0.0985791372849821,4.28,0.02,0.101,0.161,0
6.0,1747143668.902297,2.5248401165008545,1.9300968647003167,11.985794067382812,0.5892971754074097,0.155987873673439,0.0996335297822952,-0.0522656925022602,-0.0329851657152175,-10.176198959350586,-0.1136945708557691,0.0082135547677582,-2.81350767593442,3.261186540944236,1.7408352841920922,0.4642634412062728,0.080737490913688,4.28,0.02,0.101,0.161,0
6.0,1747143671.1701171,4.626713275909424,3.242344379425049,12.996482849121094,0.4979053437709808,0.3524415493011474,0.0863303020596504,-0.0283812135457992,-0.0273054223507642,-10.179640769958496,-0.1267687481599322,0.0371390793614746,-2.8132464992677018,3.157087643942265,2.089518834691307,0.4638799933583374,0.0309314103182928,4.28,0.02,0.101,0.161,0
6.0,1747143673.481213,6.3310980796813965,5.218686103820801,13.999412536621094,0.3975597023963928,0.455737829208374,0.0786638483405113,-0.0103202275931835,0.0191443674266338,-10.201733589172363,-0.115459375367706,0.0697902989796766,-2.809125591208363,2.8225094097830574,2.435644804828161,0.4967954320505617,0.0642011140986994,4.28,0.02,0.101,0.161,0
6.0,1747143675.9178846,7.658524513244629,7.683199405670166,15.014923095703123,0.2658871114253998,0.5176370143890381,0.0359609685838222,-0.0109373535960912,0.0341335274279117,-10.169103622436523,-0.1066276081273597,0.0860114036223829,-2.8111310144992974,2.566568657583617,1.5014518701418966,0.4877524648507173,0.0460204702275474,4.28,0.02,0.101,0.161,0
7.0,1747143786.1017587,0.6282836198806763,9.36557388305664,-4.979835510253906,0.8065077662467957,-0.8191772699356079,0.0527160875499248,-0.0353446528315544,-0.0459810048341751,-10.621086120605469,-0.346271984172558,-0.2392095853826312,3.093979196253692,2.921299653627609,2.4192117614689543,0.5337005427169906,0.8931088463994271,5.96,0.0,0.192,0.066,0
7.0,1747143790.2542467,1.8211030960083008,4.975837230682373,-5.016990661621094,0.2542055249214172,0.466170996427536,0.0153799429535865,0.0232810750603675,-0.0173269286751747,-9.835853576660156,-0.0606761573929721,0.036886485857873,3.007176664169484,3.045792659437368,1.594065880030077,0.4603487909712275,0.1813191227125109,5.96,0.0,0.192,0.066,0
7.0,1747143797.8517914,3.830275774002075,10.633383750915527,-5.013702392578125,0.4936661720275879,0.4672309458255768,0.0244349297136068,-0.0348781272768974,0.0005795024335384,-9.937909126281738,-0.0660562711895888,0.1786803417810818,3.139125672203112,2.918201489904874,2.124721983371574,0.5417038731641473,0.6558727348935787,5.96,0.0,0.192,0.066,0
7.0,1747143800.4351842,6.191675186157227,3.71152400970459,-4.893867492675781,0.2802647650241852,-1.6044741868972778,-0.1869604289531707,-0.0108216572552919,-0.1308298856019973,-10.72499656677246,-0.1142228088663576,-0.3943971567099825,3.1155589508984547,2.784164820802028,2.0969035861055194,0.4992140452446551,1.3069712558687243,5.96,0.0,0.192,0.066,0
7.0,1747143803.0863028,8.65206241607666,12.044663429260254,-4.758148193359375,-0.0236786250025033,2.015361785888672,-0.2123339474201202,-0.1073160916566848,-0.0577846132218837,-11.591130256652832,-0.1305728786251812,0.5619283954998601,3.1091855318497585,2.883815122869285,2.394476072974628,0.5410140254067661,2.1597051256570574,5.96,0.0,0.192,0.066,0
7.0,1747143808.4674797,9.799235343933104,6.235914707183838,-4.891868591308594,-0.2431933581829071,1.6575098037719729,-0.1106898561120033,0.0056056305766105,-0.0014570897910743,-10.77628231048584,0.03692886643773,0.4035597665549174,-3.140199811271857,3.2443732264711485,1.9739819019440976,0.5503998073952225,1.2567752432732586,5.96,0.0,0.192,0.066,0
7.0,1747143817.961742,12.296799659729004,9.801681518554688,-5.0062255859375,-0.4510284960269928,-0.2095767557621002,-0.0065287258476018,0.004139557480812,0.0427556261420249,-9.75064754486084,-0.0160900970821578,-0.0410222635518287,-3.0959669549250903,3.1881707963665464,1.5268553543003702,0.474977478293641,0.3570140277612246,5.96,0.0,0.192,0.066,0
7.0,1747143820.5901346,14.163186073303224,3.965143203735352,-4.960029602050781,0.7713121771812439,-0.90098375082016,-0.0367740206420421,-0.0615806393325328,0.0393030866980552,-10.308009147644045,-0.1471638206110283,-0.2848962307654328,-3.128252895921034,3.155611597780276,1.9185343982650205,0.4283067392683445,1.0484063696904344,5.96,0.0,0.192,0.066,0
7.0,1747143823.0929327,16.29897689819336,11.768585205078123,-4.799644470214844,0.0039138188585639,1.8768117427825928,-0.1737655252218246,-0.1155736073851585,0.0741976648569107,-11.17905616760254,-0.1010802642991913,0.5138150485042438,-3.119441892675525,3.070603939172869,2.35859147900168,0.5025718226616837,1.8048332752888967,5.96,0.0,0.192,0.066,0
7.0,1747143825.90881,18.31475830078125,2.826211214065552,-4.743988037109375,0.4299521148204803,-2.100262403488159,-0.4845308363437652,-0.0395834557712078,-0.0585852637887001,-11.370020866394045,-0.1219548189385563,-0.549726633242442,-3.109462875774701,3.380455581677092,2.403446483965943,0.4217276430852523,2.211328243139895,5.96,0.0,0.192,0.066,0
7.0,1747143831.2694244,20.01926612854004,8.56333065032959,-4.835906982421875,-0.2680062353610992,-1.67530620098114,-0.2633005976676941,-0.0042270198464393,-0.0589661225676536,-10.814408302307127,0.0056745178670249,-0.3828467223325443,-3.13970676193226,2.6666081848119685,1.750624915771195,0.5595203720911107,1.4461384865942872,5.96,0.0,0.192,0.066,0
7.0,1747143838.6088412,21.946413040161133,4.498162746429443,-5.020332336425781,0.4379361569881439,0.0771887078881263,0.0092481393367052,-0.0640480145812034,-0.0023418776690959,-9.850783348083496,-0.0687256707892908,-0.0554938565704294,3.1086557722042705,3.001575271862378,2.372404550074849,0.4688100481894758,0.5050995894282064,5.96,0.0,0.192,0.066,0
7.0,1747143841.084779,24.41847038269043,11.120895385742188,-4.928535461425781,0.2454049438238144,1.517529010772705,-0.0331259481608867,-0.0333679988980293,0.0395281203091144,-10.60195255279541,-0.1309425435020631,0.4005184760390429,3.135443057888758,3.4792065441829143,2.276725526137329,0.4978748095651956,1.1985954727266526,5.96,0.0,0.192,0.066,0
7.0,1747143843.7113304,26.37716293334961,3.124630928039551,-4.75640869140625,0.1472775936126709,-1.999261498451233,-0.3447934091091156,-0.089220643043518,-0.1381445825099945,-11.233393669128418,-0.1245161119748467,-0.5031206511989084,3.135090201612007,3.49734599050269,1.681781725555609,0.5649453750738531,1.928366604144838,5.96,0.0,0.192,0.066,0
7.0,1747143849.0452693,27.83428192138672,8.630398750305176,-4.845703125,-0.2625726461410522,-1.6336532831192017,-0.2651217877864837,-0.0491083711385726,-0.0726954415440559,-10.745267868041992,0.0210549761376021,-0.3742625787033801,3.110668978782368,2.546646043473192,2.0109946203415925,0.5353815033464591,1.3881922022471052,5.96,0.0,0.192,0.066,0
7.0,1747143858.4873266,30.33031845092773,5.128891468048096,-5.015815734863281,-0.4241161048412323,0.2199384719133377,0.0173167698085308,-0.0478665716946125,-0.016082763671875,-9.805082321166992,-0.0233154916226058,0.0696336766997329,3.0668948252994626,3.074030344266978,2.24067260429404,0.5926928878668327,0.3549273545785911,5.96,0.0,0.192,0.066,0
7.0,1747143861.0503838,32.130279541015625,11.05634593963623,-4.970268249511719,0.7674933671951294,1.0114747285842896,-0.0078799203038215,-0.039073459804058,-0.0485451221466064,-10.284175872802734,-0.1278145156366499,0.3378020891625864,3.0933192550035296,2.5573746910339485,1.9056630617836248,0.4170340335417716,1.064764518558113,5.96,0.0,0.192,0.066,0
7.0,1747143863.6414125,34.31320571899414,3.254924058914185,-4.808052062988281,-0.0381053462624549,-1.83613395690918,-0.3463372886180877,0.0033378936350345,-0.078014962375164,-10.847779273986816,-0.1128659450561681,-0.4666006669292566,3.0861495458316024,2.5819008176029143,2.454245974384383,0.5379557520818465,1.783320462813747,5.96,0.0,0.192,0.066,0
7.0,1747143866.396322,36.27436447143555,12.129314422607422,-4.759124755859375,0.4945662021636963,2.100335121154785,-0.2385598272085189,-0.0878181159496307,0.024951834231615,-11.777017593383787,-0.0981965472663384,0.5911388095527836,3.072367029335082,2.956708856068885,2.017194964551188,0.5683855110935502,2.160388080125858,5.96,0.0,0.192,0.066,0
7.0,1747143871.8578677,38.0080680847168,6.414604187011719,-4.892051696777344,-0.3169925808906555,1.5297590494155884,-0.0967777594923973,-0.083214059472084,-0.0027182577177882,-10.722979545593262,0.0400475078439609,0.4196116094732887,3.0739501237121534,2.5208759907629013,2.1901842238451,0.5659850050698494,1.418739911354697,5.96,0.0,0.192,0.066,0
7.0,1747143873.3615232,40.0,10.0,-5.0,0.0108845178037881,-0.088867001235485,0.5751994848251343,-0.0048894677311182,0.0243412889540195,-9.47148895263672,0.0007748459874304,0.0048497102713205,3.058102414739285,2.519196485053204,2.1011088531179305,0.4362079786878957,3.191927973339234,5.96,0.0,0.192,0.066,0
8.0,1747143901.0822666,-1.3279058933258057,3.0118749141693115,-11.287353515625,-1.7574981451034546,0.1465190798044204,-0.4269281327724457,0.0900667905807495,0.0526277907192707,-8.55953311920166,-0.4230806132716388,-0.0964848365799989,0.1871507187598649,2.8386570261993107,1.929459443282052,0.4726418718327715,1.3586931655300185,3.62,0.1,0.141,0.19,1
8.0,1747143903.7088108,2.906825304031372,2.9027516841888428,-9.62384033203125,1.1695507764816284,-0.0094585670158267,-0.1295220851898193,-0.0171643383800983,0.0243527051061391,-11.2343111038208,0.3241855756281674,0.0824910219813372,0.1810351502878998,3.462176363865224,2.0704453380359125,0.5312076199826076,0.986552311216216,3.62,0.1,0.141,0.19,1
8.0,1747143904.6554525,4.303699493408203,2.9526944160461426,-9.249404907226562,0.2199667543172836,0.0696391090750694,0.3077485263347626,0.0984057784080505,0.0507718659937381,-10.09121799468994,0.1414247308534422,0.0317482294949476,0.1666213807751924,3.258366004545635,1.5906816239630523,0.4876506202542415,0.3958206769716621,3.62,0.1,0.141,0.19,1
8.0,1747143908.0583522,5.8155364990234375,2.972869396209717,-7.990127563476562,0.4381354749202728,-0.0844653248786926,-0.0940241664648056,0.0737049207091331,-0.0032718069851398,-9.756583213806152,0.0549659808214495,0.0331118537520611,0.161419472479299,3.072357093673896,2.2580374929037843,0.5746244084468708,0.186709179896075,3.62,0.1,0.141,0.19,1
8.0,1747143910.455623,7.982243537902832,3.0106568336486816,-7.008880615234375,0.5042944550514221,0.0365947298705577,0.1035218387842178,0.0183543097227811,-0.0063768960535526,-10.155159950256348,0.0889495776121179,0.0173998896664668,0.1606067541424935,2.546352564624279,2.19160723342342,0.4597727736346082,0.0225327622932664,3.62,0.1,0.141,0.19,1
8.0,1747143912.7707105,9.884570121765137,3.0446131229400635,-5.9946136474609375,0.4781608879566192,-0.0798397213220596,0.071754552423954,-0.0235991552472114,0.0416543111205101,-10.11739444732666,0.0682711514199148,0.0218541493312966,0.1573402058808517,2.7888652833219933,1.7340437691788742,0.5825673869161825,0.1238684799351943,3.62,0.1,0.141,0.19,1
8.0,1747143915.103706,11.94233512878418,2.962064743041992,-5.002815246582031,0.5284749269485474,0.0198023039847612,0.0748120248317718,0.1005556583404541,0.0646824836730957,-10.158526420593262,0.0826730593282577,0.0254285976116604,0.1566128933633701,2.674949528359833,2.2190277700292915,0.5328024834371252,0.0690814497975025,3.62,0.1,0.141,0.19,1
8.0,1747143917.3738835,13.925819396972656,3.038948774337769,-4.007728576660156,0.4975993037223816,-0.0228655952960252,0.0872388184070587,0.0688722878694534,0.0429565235972404,-10.192493438720703,0.0778682672087257,0.0171707625573016,0.1545773556930555,2.906831219454298,2.104749088631057,0.435766551256446,0.0841397634005866,3.62,0.1,0.141,0.19,1
8.0,1747143919.6846857,15.937169075012209,2.9962940216064453,-3.000038146972656,0.5195886492729187,-0.0249954741448164,0.0708745718002319,0.0482577867805957,0.018287643790245,-10.132282257080078,0.0810150098410737,0.0248833490698003,0.1535830357024338,3.2971989891323665,2.3624937822529333,0.4958761563364324,0.0629401371611683,3.62,0.1,0.141,0.19,1
8.0,1747143921.956576,17.936851501464844,2.989790678024292,-2.0095748901367188,0.5318345427513123,-0.0022335590329021,0.0836027711629867,-0.0774469077587127,0.0556983090937137,-10.161824226379396,0.0810937628183923,0.0235651913192455,0.1509340606148638,2.654227963855358,1.563369920998936,0.5458714927061874,0.0646810763947117,3.62,0.1,0.141,0.19,1
8.0,1747143924.3490014,19.97615623474121,3.0095818042755127,-0.964202880859375,0.5490500926971436,-0.0252476502209901,0.1052712053060531,0.0102545954287052,0.0894040763378143,-10.272509574890137,0.0908027035075192,0.0245412436522169,0.1473904563181341,3.181394921151602,1.625970648267868,0.4587857456491936,0.0440655177395951,3.62,0.1,0.141,0.19,1
8.0,1747143926.5548809,21.896949768066406,2.996983766555786,0.005615234375,0.4920436441898346,-0.0094285085797309,0.0895096734166145,0.0050114504992961,0.0345560126006603,-10.189330101013184,0.0753732608169745,0.0216232136673875,0.1455233605950405,3.058560545059609,2.208291068335288,0.4628229397564388,0.1032471734375505,3.62,0.1,0.141,0.19,1
8.0,1747143928.8488393,23.930395126342773,2.9899396896362305,1.0054779052734375,0.5234212279319763,-0.0042504733428359,0.0806946456432342,0.0005915090441703,0.0317703671753406,-10.201553344726562,0.0820734194212246,0.0234627265798742,0.1444512383921834,2.9578488047583407,1.9233918595525727,0.5921857581245956,0.0705411633561468,3.62,0.1,0.141,0.19,1
8.0,1747143931.0960083,25.924135208129883,2.997245073318481,1.989341735839844,0.5121803879737854,-0.000295917445328,0.0974878221750259,0.056704357266426,0.0625175535678863,-10.234781265258787,0.0799122716942518,0.0211124145175976,0.1428283007606964,3.0568093317777194,2.3189421036982507,0.5055089429477043,0.0766593429493392,3.62,0.1,0.141,0.19,1
8.0,1747143933.3843212,27.941625595092773,3.00203013420105,3.0017166137695312,0.4911440908908844,-0.0177511665970087,0.0728952512145042,0.0267955511808395,0.0297850668430328,-10.183635711669922,0.0787671752550301,0.0224014209961353,0.1404177017468979,2.6151012174078687,2.090417161098596,0.5085117287075084,0.0584349155555208,3.62,0.1,0.141,0.19,1
8.0,1747143935.654264,29.94891166687012,2.978325366973877,3.996673583984375,0.5053053498268127,0.0014533941866829,0.08320864289999,0.0259831342846155,-0.0411014854907989,-10.138636589050291,0.0813458454627088,0.0238354978606976,0.1384919828755796,3.077444214425213,2.32577496728791,0.5831589118431737,0.0555956162149138,3.62,0.1,0.141,0.19,1
8.0,1747143937.9018,31.93524169921875,2.997164249420166,4.987586975097656,0.5309000015258789,0.0003354595683049,0.0846249163150787,-0.020821476355195,-0.0108399614691734,-10.1552152633667,0.0809715057866161,0.0202203406325803,0.1355722046216544,2.5656387915313115,2.4206247975393533,0.4608463132665455,0.0659981983742895,3.62,0.1,0.141,0.19,1
8.0,1747143940.2330422,33.96212387084961,2.985321283340454,6.019874572753906,0.5452346801757812,-0.0196692142635583,0.1121124178171157,0.0367776155471801,0.0580019652843475,-10.306445121765137,0.0880980770178499,0.0239628665653894,0.1315444999828656,2.671097417923496,2.1843497778520726,0.4467102131766782,0.0452223896354296,3.62,0.1,0.141,0.19,1
8.0,1747143942.4413302,35.907169342041016,2.9821157455444336,7.003044128417969,0.4994016587734222,0.0132358502596616,0.0908970981836319,0.0797617733478546,-0.0017857309430837,-10.206727981567385,0.0765420998608359,0.0202481087185406,0.1296602159444995,2.825907410683181,2.211252691942609,0.557369861827121,0.0945867027248253,3.62,0.1,0.141,0.19,1
8.0,1747143944.7313986,37.93618392944336,3.002972364425659,8.000030517578125,0.5122502446174622,-0.019631253555417,0.0820857435464859,0.0272826664149761,0.0479337200522422,-10.207118034362791,0.0821682861429931,0.0211141982451359,0.1272937929745989,3.1288125454726505,2.206294716781909,0.4925479775029669,0.0638852623293638,3.62,0.1,0.141,0.19,1
8.0,1747143947.0000212,39.93890380859375,2.9707133769989014,8.993690490722656,0.4957178235054016,-0.0007826993241906,0.091932862997055,0.0392079763114452,-0.0407937839627265,-10.2103853225708,0.0787858645500903,0.0243027727810532,0.1243057147569687,2.8891266063094148,1.687499847488542,0.511297349044943,0.06804601971077,3.62,0.1,0.141,0.19,1
9.0,1747143960.887275,0.3941647112369537,-0.3303157985210418,-5.162277221679688,-2.076555252075196,-0.2759100198745727,-0.3626474142074585,0.1383737325668335,0.0140986405313014,-10.029501914978027,-0.4993928499810905,0.0643168898952947,0.0464570936843695,3.2695048873046018,1.9022058505478656,0.5534580528742945,1.6474675711726068,5.67,0.03,0.033,0.194,0
9.0,1747143963.5549357,3.101184844970703,1.3934661149978638,-3.7495040893554688,1.0376242399215698,0.4795176982879638,-0.0924755036830902,-0.0801906287670135,-0.0787861719727516,-10.884108543395996,0.3017486982738086,-0.0846663076802079,0.0483666215661489,2.649353339839469,1.8978756889773392,0.5604841823501752,0.9619114759648548,5.67,0.03,0.033,0.194,0
9.0,1747143965.9577503,1.6518055200576782,2.5004758834838867,-2.965179443359375,-1.060268521308899,0.0317372195422649,-0.0577320531010627,0.2500045299530029,0.0231634303927421,-10.194039344787598,-0.1963011096074835,-0.030046629112964,0.0558783698023203,3.136121475139804,2.4636300201236754,0.5331775334054618,0.4989242303322497,5.67,0.03,0.033,0.194,0
9.0,1747143968.7925773,1.956497311592102,3.846576452255249,-1.9628829956054688,0.6888916492462158,0.2708432674407959,-0.0148372976109385,0.0422863066196441,0.0549660101532936,-10.134011268615724,0.1172003434123736,-0.0509419018736105,0.0456417479359113,2.540285088767196,2.137410308676284,0.5428892136379682,0.1722682120119713,5.67,0.03,0.033,0.194,0
