mission_id,time,target_x,target_y,target_z,real_x,real_y,real_z,vx,vy,vz,ax,ay,az,roll,pitch,yaw,wind_x,wind_y,wind_z,erreur_m,erreur_ok,velocity,erreur_cumulee_m,battery_level,rain,fog,snow
1,1747142948.3873303,2.0,0.0,-5,2.298980951309204,-0.0555686317384243,-4.94622802734375,0.6935111284255981,0.15471328794956207,-0.27323421835899353,-0.02430303767323494,0.05443781241774559,-9.00921630859375,-0.13187272113330056,0.04281517381947524,-3.129089980264654,3.0673056037656616,1.7630270876048852,0.5360240059643151,0.30881856667367297,True,6.08,0.30881856667367297,100,0.12,0.147,0.137
1,1747142950.6732805,2.197817453308123,1.1779369011450798,-4,2.3048579692840576,1.3375966548919678,-3.8582687377929688,-0.46184492111206055,0.4461880922317505,0.16285479068756104,-0.11013013124465942,-0.018443312495946884,-10.637120246887207,0.0487755559085513,0.1284545564335811,-3.1173450031553425,2.7159784620962317,2.3176788771985013,0.5696466650362431,0.23882349070748765,True,6.08,0.5476420573811607,100,0.12,0.147,0.137
1,1747142952.5418017,2.1482208132215868,2.4646321509654174,-3,1.7708206176757812,2.4797489643096924,-2.9587783813476562,0.3397143483161926,0.25699296593666077,0.08037582784891129,-0.07380019873380661,-0.12385699152946472,-10.150059700012207,0.037489673010885606,0.08762032200470339,3.1225026482981564,3.144523462364096,2.327594262714614,0.432612576657299,0.3799455849039664,True,6.08,0.927587642285127,100,0.12,0.147,0.137
1,1747142954.8490076,1.8081204253903274,3.7673112991572864,-2,2.1214635372161865,3.723750591278076,-1.9686126708984375,-0.2693434953689575,0.35562869906425476,0.027267763391137123,-0.14097005128860474,-0.01601061411201954,-10.120312690734863,-0.0035331766286156277,0.09573607332269524,3.1129973752938964,3.204474012330005,1.5345947704738903,0.4038982658396308,0.31790974415355777,True,6.08,1.245497386438685,100,0.12,0.147,0.137
1,1747142956.8835304,1.169091277972464,4.978795995661454,-1,1.057718276977539,4.846004486083984,-1.0547332763671875,-0.29001888632774353,0.40090516209602356,0.1642218977212906,-0.00640801340341568,0.0413905531167984,-10.246870994567871,0.07447265877951804,0.08523106718517001,3.1208842648500137,2.504931575246804,1.716045422926932,0.4902669832512871,0.1817505485778945,True,6.08,1.4272479350165794,100,0.12,0.147,0.137
1,1747142958.7726684,0.2615553275524854,5.990213290134131,0,0.3244721591472626,5.891079425811768,-0.07434844970703125,-0.21519091725349426,0.3629140555858612,0.20867402851581573,-0.04038405045866966,-0.05481715500354767,-10.446624755859375,0.04050608402368913,0.08577259364758516,3.1136206064295777,2.6153374618955114,2.1254647953611894,0.40383270860660425,0.1389738922504843,True,6.08,1.5662218272670638,100,0.12,0.147,0.137
1,1747142960.275525,-0.8455795490339945,6.704726066290929,1,0.20056012272834778,6.274831771850586,0.35236358642578125,-0.08238282054662704,0.3500748872756958,0.636640727519989,-0.07066535949707031,0.004567943513393402,-9.512493133544922,0.0005912740080884307,0.001419540079258059,3.1176598924200607,2.541609787619103,2.4396869742455425,0.4444381502142632,1.3033227694683533,True,6.08,2.869544596735417,100,0.12,0.147,0.137
1,1747142960.7802901,-2.049999999999999,7.050704155516199,2,0.19253851473331451,6.421092510223389,0.6597442626953125,-0.09142500162124634,0.48328718543052673,0.7410532832145691,-0.09711553901433945,0.028785791248083115,-9.629395484924316,0.0005002437482853024,0.0007477878043331189,3.1170624135356086,3.124278967471271,2.2021330882793455,0.5584357556233601,2.687317483165833,False,6.08,5.55686207990125,100,0.12,0.147,0.137
1,1747142961.2841444,-3.2254282360512363,6.992760046192045,3,0.1716875284910202,6.640979290008545,1.014556884765625,-0.10984458029270172,0.6286668181419373,0.7740708589553833,-0.11046136915683746,-2.561323344707489e-05,-9.822153091430664,0.0002984207030271786,0.0004864390001027395,3.116645654682092,2.8783374834168547,1.9919186504621276,0.5575246678370174,3.950459414037073,False,6.08,9.507321493938322,100,0.12,0.147,0.137
1,1747142961.787855,-4.234553679141369,6.539253573852523,4,0.12682220339775085,6.967672348022461,1.3994064331054688,-0.137074813246727,0.8011148571968079,0.7692642211914062,-0.11269254982471466,-0.021027402952313423,-9.861761093139648,6.086256735199519e-05,0.000232880198184614,3.116473518761097,3.2177310305652775,2.456879111388335,0.4474708955603625,5.0959031716692165,False,6.08,14.603224665607538,100,0.12,0.147,0.137
1,1747142962.291249,-4.944154131125643,5.745211330880874,5,0.05603991076350212,7.3957085609436035,1.7837677001953125,-0.16640372574329376,0.9808166027069092,0.7549511790275574,-0.09613656997680664,-0.012241799384355545,-9.864763259887695,4.127653945304524e-05,5.996635879508885e-05,3.1166499471561795,3.4429104390115564,1.687769625441339,0.47121826875310335,6.170107922013633,False,6.08,20.77333258762117,100,0.12,0.147,0.137
1,1747142962.7954369,-5.240803378993181,4.710075989266278,6,-0.04466623067855835,7.945252895355225,2.1711578369140625,-0.21570120751857758,1.1830557584762573,0.734637975692749,0.011976014822721481,-0.12246856838464737,-9.891443252563477,-7.719108179706852e-05,-7.473684813077408e-05,3.1169417717828116,2.810582143581623,2.117992795799858,0.4468992207154685,7.219850634716142,False,6.08,27.99318322233731,100,0.12,0.147,0.137
1,1747142963.299221,-5.045425660253547,3.570251060941675,7,-0.17417018115520477,8.595502853393555,2.5432662963867188,-0.2677671015262604,1.3873913288116455,0.7140748500823975,-0.084866963326931,0.040894005447626114,-9.824689865112305,-9.257200445854856e-05,-7.424906397849591e-05,3.1172374164899836,2.871243653870105,1.825184531972132,0.41485223868797594,8.297274300944196,False,6.08,36.2904575232815,100,0.12,0.147,0.137
1,1747142963.8023484,-4.325006043795975,2.4869808471515746,8,-0.33539557456970215,9.367890357971191,2.9135894775390625,-0.3225058317184448,1.5987991094589233,0.7041863799095154,0.0050218477845191956,0.015458589419722557,-9.856646537780762,-0.00013611826971086192,-0.00010198186752529293,3.1175254206749767,2.79376722532764,2.14475892556511,0.5949374185122671,9.441158795150576,False,6.08,45.73161631843208,100,0.12,0.147,0.137
1,1747142964.3061028,-3.1000000000000028,1.630642496536482,9,-0.5259696245193481,10.249317169189453,3.277099609375,-0.37352418899536133,1.814494013786316,0.6960455775260925,-0.06780053675174713,-0.010747898370027542,-9.883655548095703,-8.161235484142323e-05,-0.00018572540387636535,3.117879717610859,3.032535924650667,1.5251845539070836,0.5089551314229832,10.661086922445698,False,6.08,56.39270324087778,100,0.12,0.147,0.137
1,1747142964.8103561,-1.4463860707160447,1.1629685708181468,10,-0.7555198073387146,11.294574737548828,3.6526870727539062,-0.4299245774745941,2.0406253337860107,0.6875244379043579,-0.08866988122463226,0.002123288344591856,-9.855474472045898,-0.00016401090971914642,-0.00013549106092439108,3.118096669994106,2.8085865518053064,1.8335439910797557,0.4062448450268839,11.975605250173933,False,6.08,68.3683084910517,100,0.12,0.147,0.137
1,1747142965.3155823,0.5081646363876857,1.2190141791679752,11,-0.9939185380935669,12.372812271118164,3.9989089965820312,-0.4806140661239624,2.2456443309783936,0.6875690221786499,-0.11373718827962875,-0.002318141981959343,-9.811967849731445,-5.334527508027745e-05,-0.0001482476577430576,3.118391359974702,2.939658939050423,2.2579355890378743,0.4684851005935364,13.25438572613576,False,6.08,81.62269421718747,100,0.12,0.147,0.137
1,1747142965.8195448,2.593921273001407,1.8907963846261513,12,-1.2390917539596558,13.480578422546387,4.324729919433594,-0.5219581127166748,2.4359548091888428,0.6905996799468994,-0.11211688816547394,0.00540256779640913,-9.842268943786621,-4.791901563186651e-05,-0.00013641895142564386,3.118616425524017,3.192463873375114,1.8762942890689713,0.5564519263197759,14.419598030492722,False,6.08,96.0422922476802,100,0.12,0.147,0.137
1,1747142966.322902,4.613824533754626,3.2144470297365793,13,-1.5337454080581665,14.842391014099121,4.6923980712890625,-0.5560802221298218,2.6496877670288086,0.6910537481307983,-0.09248079359531403,0.01034616306424141,-9.836334228515625,-5.212162214623482e-05,-5.089730383468196e-05,3.118881549816669,3.4903502518591947,1.932617104498461,0.5330363280187727,15.556926023442898,False,6.08,111.59921827112309,100,0.12,0.147,0.137
1,1747142966.826318,6.362038562233158,5.162435552910105,14,-1.8305929899215698,16.23624610900879,5.040626525878906,-0.5996554493904114,2.8496367931365967,0.6944347023963928,-0.07668741047382355,0.05729095637798309,-9.778406143188477,-2.4820916348384384e-06,-5.8629579819624114e-05,3.1190288932712376,2.821339239398128,1.8752936378108693,0.5054447047781392,16.432250759725783,False,6.08,128.03146903084888,100,0.12,0.147,0.137
1,1747142967.3300986,7.6445824462891245,7.641958604712762,15,-2.140110731124878,17.727584838867188,5.3916168212890625,-0.6220370531082153,3.0471742153167725,0.6980820894241333,-0.16317275166511536,0.030482374131679535,-9.816038131713867,-2.2396320281377348e-05,-0.00017526735041603145,3.119053685143557,3.487171388639771,2.150044195332749,0.5294087686158165,17.022958157151518,False,6.08,145.0544271880004,100,0.12,0.147,0.137
2,1747142969.061178,0,0,13,-3.291663408279419,23.589862823486328,6.603691101074219,-0.7017126679420471,3.7015223503112793,0.699302613735199,-0.06542547047138214,0.005856740288436413,-9.854583740234375,8.484161234228454e-05,-4.265800432876665e-05,3.1198805242231615,3.189661746689922,2.3989732774697603,0.4987720704138003,24.6623081554583,False,9.1,24.6623081554583,50,0.02,0.061,0.044
2,1747142969.5661132,2,0,12,-3.6441211700439453,25.463254928588867,6.948982238769531,-0.7254741787910461,3.8772616386413574,0.6996510028839111,-0.06087103486061096,0.05459023267030716,-9.808496475219727,-3.761771574688642e-05,-3.960238351627171e-05,3.119852393882113,3.2813983190524056,1.7688104164654916,0.4183737657526295,26.565884810499142,False,9.1,51.22819296595745,50,0.02,0.061,0.044
2,1747142970.0722048,4,0,11,-4.011940956115723,27.4235897064209,7.293983459472656,-0.7620713710784912,4.051687717437744,0.7006498575210571,-0.07183627784252167,0.061936985701322556,-9.884291648864746,7.399148052790772e-05,-6.648134397311235e-05,3.1198347450126054,2.6613987584997343,1.7356085544267532,0.5588783544216112,28.809356620186108,False,9.1,80.03754958614356,50,0.02,0.061,0.044
2,1747142970.5768542,6,0,10,-4.403674125671387,29.507755279541016,7.644523620605469,-0.8002942800521851,4.227207660675049,0.7002978324890137,-0.1319628804922104,0.008434638381004333,-9.811266899108887,2.1402872242004423e-05,2.1441777449543562e-05,3.119807568196052,2.5590915495187843,1.7920093732562754,0.4146740003923439,31.376620690003097,False,9.1,111.41417027614665,50,0.02,0.061,0.044
2,1747142971.0813322,8,0,9,-4.80460262298584,31.63947868347168,7.989013671875,-0.8231975436210632,4.403258800506592,0.7017143368721008,-0.09938476979732513,-0.04792328178882599,-9.873374938964844,-1.304688672701978e-05,2.4054097722788568e-05,3.1198900597670973,3.175846832575544,2.330790424609318,0.5187114206360691,34.14727738854286,False,9.1,145.56144766468952,50,0.02,0.061,0.044
2,1747142971.5864134,10,0,8,-5.228867530822754,33.89775848388672,8.340438842773438,-0.8531273007392883,4.579584121704102,0.7030622959136963,-0.08913757652044296,0.1166195496916771,-9.78836727142334,-4.303239593035821e-05,-8.488024815448793e-06,3.1197923099966043,3.0429794145890208,2.319758227711482,0.43859133632204733,37.16305067010687,False,9.1,182.7244983347964,50,0.02,0.061,0.044
2,1747142972.0911946,12,0,7,-5.661574363708496,36.197078704833984,8.685432434082031,-0.8857480883598328,4.735354423522949,0.7022983431816101,-0.009421132504940033,0.123426653444767,-9.756555557250977,1.3646202239595314e-06,-4.029349754301809e-05,3.119911515300849,2.883097034175088,1.6607006191239422,0.5417536362014753,40.31129368128251,False,9.1,223.03579201607891,50,0.02,0.061,0.044
2,1747142972.5948265,14,0,6,-6.15206241607666,38.79859924316406,9.062324523925781,-0.9266145825386047,4.918948650360107,0.7041224241256714,-0.0768594890832901,0.05585463345050812,-9.824843406677246,1.1343466777518306e-05,2.7409619237121735e-05,3.1198809970966908,2.5520337344376793,2.3483172461204878,0.484622605760329,43.827100683742906,False,9.1,266.8628926998218,50,0.02,0.061,0.044
2,1747142973.0985608,16,0,5,-6.614861965179443,41.26658248901367,9.410293579101562,-0.9421195983886719,5.071876525878906,0.7033421993255615,-0.09233709424734116,0.07381602376699448,-9.819783210754395,1.2259162110642475e-05,6.535811686576318e-05,3.119923915610489,3.4457815570653674,1.7960408673496255,0.41228486966289557,47.26323625695297,False,9.1,314.1261289567748,50,0.02,0.061,0.044
2,1747142973.6025941,18,0,4,-7.09874963760376,43.856449127197266,9.763725280761719,-0.9705898761749268,5.227988243103027,0.7021533846855164,-0.15926916897296906,0.13067874312400818,-9.802850723266602,-3.999777352267134e-05,-1.3884232288500808e-05,3.1200149901244147,2.9609356950912087,1.9750216774429221,0.4094242857513736,50.85819395662461,False,9.1,364.9843229133994,50,0.02,0.061,0.044
2,1747142974.1058905,20,0,3,-7.585480690002441,46.475765228271484,10.109519958496094,-0.992348849773407,5.374863624572754,0.7027965784072876,-0.10215042531490326,0.1488170027732849,-9.80575180053711,-1.1783650505613754e-06,-3.739036769526759e-07,3.1202071559367957,3.007828180547415,1.8702576061382947,0.5313227894997854,54.51147376921817,False,9.1,419.4957966826176,50,0.02,0.061,0.044
2,1747142974.6116745,22,0,2,-8.094255447387695,49.2160758972168,10.461067199707031,-1.0221987962722778,5.519106864929199,0.7024555206298828,-0.11414609104394913,0.06806568056344986,-9.75528335571289,2.171072022868916e-05,4.397519473414484e-06,3.120464173057045,2.763233761510281,1.6863317777474813,0.43855906602199374,58.3050254764646,False,9.1,477.8008221590822,50,0.02,0.061,0.044
2,1747142975.1152012,24,0,1,-8.616497039794922,52.030845642089844,10.812446594238281,-1.04636812210083,5.670013427734375,0.7038915753364563,-0.07811550796031952,0.12141795456409454,-9.795350074768066,1.8910614576943488e-05,-5.284964060310482e-05,3.1207002095575613,3.0327574553158616,2.0900168143941675,0.49427396005659147,62.18785159130929,False,9.1,539.9886737503915,50,0.02,0.061,0.044
2,1747142975.6186528,26,0,0,-9.14459228515625,54.86360168457031,11.157516479492188,-1.0827289819717407,5.802511215209961,0.7019131183624268,-0.012888357043266296,0.09347173571586609,-9.810790061950684,4.0535082090692036e-05,1.8855132636653363e-06,3.1205948242126693,2.6358835935168448,1.612247395984801,0.5164143358290677,66.10330801618926,False,9.1,606.0919817665808,50,0.02,0.061,0.044
2,1747142976.1231182,28,0,-1,-9.694379806518555,57.815086364746094,11.508323669433594,-1.0996778011322021,5.938088893890381,0.7041195034980774,-0.11328346282243729,0.13217835128307343,-9.791285514831543,1.6363223442836634e-05,-1.3239002457003615e-05,3.120628681470498,3.095865295849425,1.8963155060614898,0.41754738575334155,70.14206043010454,False,9.1,676.2340421966853,50,0.02,0.061,0.044
2,1747142976.6263528,30,0,-2,-10.246708869934082,60.77573776245117,11.852890014648438,-1.130005121231079,6.057305335998535,0.7047802805900574,-0.13892307877540588,0.20423877239227295,-9.787469863891602,-2.789437548949154e-05,3.9564454243991186e-05,3.1210029975210056,2.749790565068082,1.612981303969808,0.5903813999904477,74.1983182908441,False,9.1,750.4323604875294,50,0.02,0.061,0.044
2,1747142977.1313314,32,0,-3,-10.85326099395752,64.02266693115234,12.2216796875,-1.1529778242111206,6.202831268310547,0.7054187655448914,-0.09807734936475754,0.1903570592403412,-9.807554244995117,-2.268062326940484e-05,-0.00013966933795680816,3.1212190050599493,2.944410197213195,2.270835421568911,0.425083786369575,78.53027054138015,False,9.1,828.9626310289095,50,0.02,0.061,0.044
2,1747142977.6369114,34,0,-4,-11.44186019897461,67.17286682128906,12.572433471679688,-1.1779110431671143,6.331002712249756,0.7067139148712158,-0.12897475063800812,0.1606805920600891,-9.867238998413086,2.6733370983577516e-05,6.764210432996174e-05,3.1212581057510462,2.963696591673792,2.117422446968881,0.4270217218906563,82.77561383950614,False,9.1,911.7382448684157,50,0.02,0.061,0.044
2,1747142978.14095,36,0,-5,-12.04039192199707,70.38957977294922,12.9224853515625,-1.1885902881622314,6.465141773223877,0.7071096301078796,-0.1403495818376541,0.16045701503753662,-9.852995872497559,-7.123016206820092e-06,0.00011634148543463294,3.1214154583044653,3.3931920260838395,2.367835115044209,0.5109981599023647,87.08494518462095,False,9.1,998.8231900530366,50,0.02,0.061,0.044
2,1747142978.6462998,38,0,-6,-12.634092330932617,73.60891723632812,13.266441345214844,-1.1989036798477173,6.571046829223633,0.7085973024368286,-0.21541225910186768,0.15576234459877014,-9.843097686767578,-5.281374512844521e-05,-6.302238147723035e-05,3.1219085129879045,3.4472689437321575,1.6623458448459396,0.49447181920390715,91.39627872616377,False,9.1,1090.2194687792003,50,0.02,0.061,0.044
2,1747142979.152099,40,0,-7,-13.243844032287598,76.94344329833984,13.617408752441406,-1.2088559865951538,6.675844192504883,0.7095271348953247,-0.1401432901620865,0.1485377848148346,-9.828446388244629,-8.407575760895388e-05,-7.416541564310956e-05,3.1218798987464016,3.480173729740672,1.5718723208446712,0.4335160403744374,95.81376695237826,False,9.1,1186.0332357315785,50,0.02,0.061,0.044
3,1747143013.725972,0,5,15,-0.1433616578578949,5.272681713104248,15.020393371582031,-0.16897279024124146,0.6955357789993286,-0.15973295271396637,0.035414278507232666,-0.08447033911943436,-9.890220642089844,0.13890095686201145,-0.10420362859557449,1.0825067130054604,2.617757845570643,1.6329786873599836,0.4782240784196259,0.30874547965875443,True,5.58,0.30874547965875443,100,0.04,0.081,0.179
3,1747143016.1441643,2,5,14,2.465564250946045,4.939395427703857,13.846435546875,0.7844732403755188,-0.7026281356811523,0.0248118806630373,0.04138610512018204,-0.004560156725347042,-9.549073219299316,0.0389162272763152,0.20911945309673544,1.083418320425762,3.1224964502573367,2.4498488874788626,0.5886239027086198,0.4939686500231878,True,5.58,0.8027141296819422,100,0.04,0.081,0.179
3,1747143018.7285411,4,5,13,4.176987648010254,4.839751720428467,12.936737060546875,-0.026860911399126053,0.4722238779067993,0.020490426570177078,0.05344332009553909,-0.060106128454208374,-9.618935585021973,0.0748304777815438,0.028471972979540662,1.0859558172908355,2.9200669830008277,1.9460585471126843,0.4752898503028933,0.24699461160536995,True,5.58,1.0497087412873123,100,0.04,0.081,0.179
3,1747143021.2289922,6,5,12,6.160027503967285,5.1044793128967285,11.981643676757812,0.6605178713798523,-0.33590787649154663,-0.048482660204172134,0.06521650403738022,-0.03571711480617523,-9.702675819396973,0.061998641355072936,0.13178958061492202,1.0809022954892358,2.5612459644684695,2.018512818831849,0.4445816768166202,0.19199396722903467,True,5.58,1.241702708516347,100,0.04,0.081,0.179
3,1747143023.248205,8,5,11,8.06496524810791,4.729757785797119,11.058906555175781,0.5374459028244019,0.18007425963878632,-0.17557574808597565,0.0952896773815155,-0.08483649045228958,-9.43574333190918,0.04588346397954379,0.10688062386811976,1.073965403211432,3.2418521657655264,1.5535311538525378,0.49555867236788276,0.28411497679931524,True,5.58,1.5258176853156622,100,0.04,0.081,0.179
3,1747143027.350584,10,5,10,10.646484375,5.031088829040527,10.810752868652344,0.34538060426712036,-0.048712413758039474,0.855934739112854,0.12591299414634705,0.06690394878387451,-9.775222778320312,0.00048628918222315827,0.00041483201003803753,1.0680593382343508,3.3937134923851544,1.5992624480591746,0.5254575621402852,1.0374144670469254,True,5.58,2.5632321523625876,100,0.04,0.081,0.179
3,1747143027.855208,12,5,9,10.764725685119629,4.9965596199035645,11.240478515625,0.3978612422943115,-0.01968524232506752,0.833859384059906,-0.005275677889585495,-0.06302155554294586,-9.871491432189941,0.0003630535778559082,0.0003501083441397963,1.0689957805765617,2.6692346757520107,2.0712084887003126,0.5133607392280038,2.558448445483235,False,5.58,5.121680597845822,100,0.04,0.081,0.179
3,1747143028.359599,14,5,8,10.947422981262207,4.980684280395508,11.680191040039062,0.48234817385673523,0.01346152275800705,0.7928027510643005,0.05805281177163124,-0.019250696524977684,-9.91950798034668,0.00015752533699646144,0.00015632719347140393,1.069485335723919,3.211535651628269,2.100275293078857,0.5690769007310891,4.781464801034694,False,5.58,9.903145398880516,100,0.04,0.081,0.179
3,1747143028.864868,16,5,7,11.196998596191406,4.988001346588135,12.097648620605469,0.5850664973258972,0.0532868355512619,0.7484627366065979,0.04449791833758354,0.0445389486849308,-9.914648056030273,0.00010999098426117588,3.409397615230787e-05,1.0696673308129772,3.3948517809555607,2.352305739064216,0.5830552523582935,7.003926606685129,False,5.58,16.907072005565645,100,0.04,0.081,0.179
3,1747143029.369352,18,5,6,11.524993896484375,5.0169878005981445,12.500236511230469,0.6994132995605469,0.0864260196685791,0.7087302207946777,0.029073957353830338,0.01615540124475956,-9.855645179748535,9.161589525178185e-06,-0.0002280524094268223,1.0696644429977513,2.6091989794322354,2.121821946172858,0.4307609630875102,9.174915112842593,False,5.58,26.081987118408236,100,0.04,0.081,0.179
3,1747143029.87293,20,5,5,11.91854190826416,5.070751667022705,12.876327514648438,0.8237559199333191,0.12427613139152527,0.6862197518348694,0.019809789955615997,-0.03067740984261036,-9.819053649902344,-0.00017858246412652795,-8.077080180075569e-05,1.0694761812054971,2.757856518997757,1.871588911028617,0.5479404479915968,11.285012441502987,False,5.58,37.36699955991122,100,0.04,0.081,0.179
3,1747143030.3765197,22,5,4,12.42752742767334,5.159134864807129,13.268936157226562,0.966929018497467,0.1794852465391159,0.6711302995681763,-0.006045825779438019,-0.003394277300685644,-9.827188491821289,-0.00018787047147871583,-0.00016144417214086388,1.0691250786946318,3.457324878199838,2.3062998610233243,0.471159026570582,13.325566874992045,False,5.58,50.69256643490327,100,0.04,0.081,0.179
3,1747143030.8824978,24,5,3,12.963367462158203,5.266072750091553,13.618766784667969,1.0955941677093506,0.2254309356212616,0.6685139536857605,0.056006401777267456,-0.09656501561403275,-9.815680503845215,-0.0001396164536776399,-0.0001607283949442852,1.0686116400625938,3.1858132266535404,2.0631002968685745,0.5793774329104026,15.31784124838932,False,5.58,66.01040768329258,100,0.04,0.081,0.179
3,1747143031.3870652,26,5,2,13.573118209838867,5.397572040557861,13.969306945800781,1.227978229522705,0.27309027314186096,0.667576253414154,0.0390404649078846,0.013552282005548477,-9.840806007385254,-0.00010190662636731095,-5.519471310974908e-05,1.0684884869324234,3.303366439613147,2.423491522757925,0.51563178814599,17.25832446435246,False,5.58,83.26873214764504,100,0.04,0.081,0.179
3,1747143031.8921595,28,5,1,14.230586051940918,5.548199653625488,14.310104370117188,1.3514878749847412,0.31419721245765686,0.6720378994941711,0.0512012280523777,-0.12031351029872894,-9.843748092651367,-0.0001288585405484748,-0.00010745891729473359,1.0679813100708855,3.1444724963931208,2.055709489415814,0.4556674396427808,19.15870981242348,False,5.58,102.42744196006852,100,0.04,0.081,0.179
3,1747143032.3976066,30,5,0,14.958344459533691,5.722133636474609,14.656669616699219,1.4721847772598267,0.3515832722187042,0.6775428652763367,0.0921769067645073,0.04371098428964615,-9.905852317810059,-7.575622038462845e-05,-3.784750579593071e-05,1.0674471033808597,3.0441727965268415,1.783164971661744,0.5022463744221939,21.014062973162588,False,5.58,123.4415049332311,100,0.04,0.081,0.179
3,1747143032.9022691,32,5,-1,15.741662979125977,5.914962291717529,15.002250671386719,1.594043254852295,0.3908718228340149,0.6795448064804077,-0.026494935154914856,-0.035279057919979095,-9.751863479614258,-4.8556336077724976e-05,-4.1607182267846544e-05,1.0670900514310135,3.493866805953363,2.243304070843541,0.5058306377164176,22.83074035657811,False,5.58,146.2722452898092,100,0.04,0.081,0.179
3,1747143033.4060917,34,5,-2,16.624792098999023,6.136913776397705,15.366142272949219,1.7086354494094849,0.4288042187690735,0.6851162314414978,0.043361496180295944,0.04010992497205734,-9.833386421203613,-7.944756773893433e-05,-2.863103840387192e-05,1.066762070753859,3.2262606145237753,2.175164739511141,0.46923685597418313,24.59213939416991,False,5.58,170.86438468397913,100,0.04,0.081,0.179
3,1747143033.9120324,36,5,-3,17.49940299987793,6.362389087677002,15.708404541015625,1.81122887134552,0.46290773153305054,0.69305020570755,-0.017679601907730103,-0.04197711497545242,-9.824681282043457,-6.583725882182422e-05,-8.248699161345261e-05,1.0663314007543618,2.511682510427753,2.1359245996617666,0.45018712722254767,26.346396221446327,False,5.58,197.21078090542545,100,0.04,0.081,0.179
3,1747143034.415424,38,5,-4,18.442062377929688,6.607490062713623,16.059051513671875,1.9164129495620728,0.4934699833393097,0.6931334137916565,0.0672229677438736,-0.01450438890606165,-9.7498779296875,-0.00012199369302954045,-5.568392706550163e-05,1.0658451020458353,3.2738121224164027,1.5864456482912974,0.4814601136542947,28.061762167737406,False,5.58,225.27254307316286,100,0.04,0.081,0.179
3,1747143034.919139,40,5,-5,19.41896629333496,6.862507343292236,16.404220581054688,2.020617961883545,0.5223256349563599,0.6948149800300598,0.10243064910173416,0.03755728527903557,-9.796628952026367,-9.307041779734376e-05,0.0001368670623951333,1.0656178722824559,3.2393007267919733,1.5228044799155946,0.5451509224305361,29.752118256035907,False,5.58,255.02466132919878,100,0.04,0.081,0.179
4,1747143036.7285862,0,-5,-11,23.37932014465332,7.892124176025391,17.66327667236328,2.3798773288726807,0.6143413782119751,0.6972041726112366,0.04456240311264992,-0.08918701857328415,-9.82221508026123,-3.490917406831982e-05,-7.542205520269337e-05,1.064193479635308,3.3395158535701817,1.6862789885257425,0.576084320228331,39.17119995344406,False,6.79,39.17119995344406,50,0.06,0.199,0.08
4,1747143037.2345734,2,-5,-10,24.60340690612793,8.210309028625488,18.017837524414062,2.4823806285858154,0.6443844437599182,0.6959446668624878,-0.02239111438393593,-0.00016596715431660414,-9.811168670654297,-4.377335733128913e-05,-5.161332570906428e-05,1.063549953910803,2.9636773050571925,2.206555008166881,0.5292208427979734,38.346127417775065,False,6.79,77.51732737121912,50,0.06,0.199,0.08
4,1747143037.7390544,4,-5,-9,25.878597259521484,8.541234016418457,18.371627807617188,2.585585594177246,0.6691390872001648,0.6938910484313965,0.0326496884226799,0.06370901316404343,-9.819572448730469,0.0001141046227624257,0.00010691966638375276,1.0632386438621417,3.461613960696257,1.7921508212575556,0.47311918258358443,37.566528260813136,False,6.79,115.08385563203225,50,0.06,0.199,0.08
4,1747143038.242492,6,-5,-8,27.180334091186523,8.87816333770752,18.719955444335938,2.679375171661377,0.6913442611694336,0.6956673860549927,-0.0010820385068655014,0.032040081918239594,-9.826273918151855,0.00015361436972097825,0.00021193001401601774,1.0628298855674576,3.2706422194597757,1.906416184033696,0.5868399100094506,36.81257921946878,False,6.79,151.89643485150103,50,0.06,0.199,0.08
4,1747143038.74638,8,-5,-7,28.556190490722656,9.233733177185059,19.07317352294922,2.7792117595672607,0.7145850658416748,0.6930152177810669,0.030916254967451096,0.05255470052361488,-9.869967460632324,6.745341209452262e-05,8.791355452395755e-05,1.062330569884552,3.079018385643877,1.5954584115318866,0.5303930893723947,36.12432013488967,False,6.79,188.0207549863907,50,0.06,0.199,0.08
4,1747143039.253257,10,-5,-6,30.06073760986328,9.62285327911377,19.442703247070312,2.8820900917053223,0.7430536150932312,0.6914341449737549,0.03566650301218033,0.048771932721138,-9.803360939025879,1.0402589685091457e-05,8.082276920648034e-05,1.0615220853108536,3.0754088512293607,1.8758019172608396,0.4640266420021574,35.547041789616664,False,6.79,223.56779677600736,50,0.06,0.199,0.08
4,1747143039.758844,12,-5,-5,31.51173973083496,9.996468544006348,19.78673553466797,2.977330446243286,0.7637003064155579,0.6918036341667175,-0.022111978381872177,0.0023388804402202368,-9.803289413452148,-2.144465237606702e-05,0.00013331514991051966,1.0608326395072665,2.643789312970424,1.7404467214928316,0.4417431352466873,34.92827385630139,False,6.79,258.4960706323087,50,0.06,0.199,0.08
4,1747143040.262532,14,-5,-4,33.03881072998047,10.387746810913086,20.1378173828125,3.075239419937134,0.7866309285163879,0.6942687034606934,0.007144327275454998,0.02930060587823391,-9.858179092407227,-2.4698766284897745e-05,-1.1936429784719538e-05,1.0601249938754809,2.9019830258186348,1.9584113380710853,0.4177446942314821,34.37867498806187,False,6.79,292.87474562037056,50,0.06,0.199,0.08
4,1747143040.7666926,16,-5,-3,34.61513900756836,10.791330337524414,20.489341735839844,3.1718509197235107,0.8074510097503662,0.6929492950439453,-7.994566112756729e-05,0.07684013992547989,-9.861547470092773,-1.7663774175341797e-05,2.2849900543374064e-05,1.059599956228474,2.6545068457606313,1.7540313213068273,0.4218165778653381,33.876816398283054,False,6.79,326.7515620186536,50,0.06,0.199,0.08
4,1747143041.270107,18,-5,-2,36.21055221557617,11.198877334594727,20.836212158203125,3.268293619155884,0.831471860408783,0.6970512866973877,0.032175980508327484,-0.03639563173055649,-9.781368255615234,-1.8022451210946422e-05,-6.225035004051661e-05,1.0592585181977747,3.3169979107036847,2.022728889982631,0.5787927989365791,33.39940754911586,False,6.79,360.15096956776944,50,0.06,0.199,0.08
4,1747143041.775291,20,-5,-1,37.88294219970703,11.625153541564941,21.190719604492188,3.3662543296813965,0.8525116443634033,0.6959988474845886,-0.006099489517509937,0.04400782659649849,-9.733288764953613,-1.8623513617963147e-05,3.840337302339664e-05,1.058733396539528,3.2848514253084593,1.582983717537624,0.4339414918963622,32.99429327268378,False,6.79,393.1452628404532,50,0.06,0.199,0.08
4,1747143042.2787786,22,-5,0,39.5731201171875,12.055320739746094,21.539230346679688,3.4602503776550293,0.8760508298873901,0.6963064670562744,-0.018844202160835266,-0.016092367470264435,-9.795825958251953,-1.51941625520342e-05,-3.097341863958841e-05,1.0585927253704321,2.8611884305013056,2.315568767766605,0.5722218036295856,32.61344753496693,False,6.79,425.75871037542015,50,0.06,0.199,0.08
4,1747143042.7819774,24,-5,1,41.43702697753906,12.529642105102539,21.91199493408203,3.558326244354248,0.9014683365821838,0.6939932107925415,-0.04433631896972656,0.01831424981355667,-9.877140998840332,-5.895126439643697e-06,7.954032139983433e-06,1.0576839980842971,2.8568835237285044,1.8001377645595293,0.46204102551391346,32.38286266332057,False,6.79,458.1415730387407,50,0.06,0.199,0.08
4,1747143043.2851057,26,-5,2,43.25465774536133,12.991257667541504,22.26593780517578,3.6541430950164795,0.9245278835296631,0.6951653361320496,0.03641572967171669,0.02726205810904503,-9.832871437072754,-3.838773675499028e-06,3.228895914139838e-05,1.0572365564773405,3.3529905108493643,1.8284840184568014,0.5763343655897887,32.12657469280971,False,6.79,490.2681477315504,50,0.06,0.199,0.08
4,1747143043.78863,28,-5,3,45.11936950683594,13.463544845581055,22.617355346679688,3.746645450592041,0.9486970901489258,0.6915051341056824,-0.05724106356501579,0.021916721016168594,-9.7860746383667,4.4916757410244754e-05,-3.671452201175207e-05,1.0569352730298855,3.068695073880715,2.4800660374456465,0.4925950601644635,31.918896149056735,False,6.79,522.1870438806071,50,0.06,0.199,0.08
4,1747143044.2921777,30,-5,4,46.99772262573242,13.937886238098145,22.962310791015625,3.8386027812957764,0.9684090614318848,0.6937988996505737,0.03260575979948044,0.07260504364967346,-9.790201187133789,2.051828499198189e-06,-4.231746898699459e-05,1.0564143228565182,3.1524875452858363,2.1433817233447323,0.5768682928697155,31.73539569886518,False,6.79,553.9224395794723,50,0.06,0.199,0.08
4,1747143044.7977822,32,-5,5,48.95802307128906,14.433586120605469,23.314483642578125,3.932556390762329,0.9963324666023254,0.6936262845993042,-0.027646489441394806,0.03983417898416519,-9.845783233642578,-3.7696489886044395e-05,4.889687976265629e-06,1.055997874973922,3.200920734472233,2.2991299140439554,0.4700419846890232,31.633196599262988,False,6.79,585.5556361787353,50,0.06,0.199,0.08
4,1747143045.3021379,34,-5,6,50.92973709106445,14.931107521057129,23.66204833984375,4.029127597808838,1.0161091089248657,0.6927571892738342,0.016411419957876205,0.004246449563652277,-9.716190338134766,-4.4563103016918137e-05,-1.4264415729676781e-05,1.0553872698472107,3.486699329911102,1.9100311399958025,0.5127714981346568,31.55650482147034,False,6.79,617.1121410002056,50,0.06,0.199,0.08
4,1747143045.807655,36,-5,7,52.98314666748047,15.448769569396973,24.015884399414062,4.115200042724609,1.0418792963027954,0.6939512491226196,0.016742531210184097,0.042020559310913086,-9.802531242370605,-7.62984308855739e-05,-0.00012638982035527693,1.0549575014707993,2.6124619834925507,2.1210499371019367,0.46937307223871466,31.56136514040024,False,6.79,648.6735061406058,50,0.06,0.199,0.08
4,1747143046.3122241,38,-5,8,55.04560470581055,15.968290328979492,24.36456298828125,4.209313869476318,1.0611830949783325,0.6947275996208191,-0.0015732760075479746,0.006639822386205196,-9.834033012390137,-3.852237627482378e-05,-6.060101357526116e-05,1.0541752995784015,3.4524914057624843,1.7215437490590584,0.5328766493654429,31.59146658362904,False,6.79,680.2649727242349,50,0.06,0.199,0.08
4,1747143046.8175817,40,-5,9,57.346527099609375,16.54665756225586,24.743408203125,4.3065385818481445,1.086910367012024,0.6932574510574341,-0.05246468633413315,-0.02813045307993889,-9.895922660827637,-2.376917730713601e-05,-1.6115990742252633e-05,1.0534960820480692,2.521599527865164,1.631255143703882,0.4459746931348046,31.827902167325192,False,6.79,712.0928748915601,50,0.06,0.199,0.08
5,1747143055.6392343,0,-4,15,101.81617736816406,27.118019104003906,-1.2401123046875,5.674170017242432,1.1353873014450073,-1.9956129789352417,-0.016447581350803375,-0.03727860003709793,-10.856879234313965,0.019585825238731536,0.00867495341907783,1.0384101321387023,2.9606298439666907,1.5305753835003537,0.5535862110562334,107.69682601865043,False,8.22,107.69682601865043,100,0.02,0.192,0.187
5,1747143056.1447353,2,-4,14,104.67839813232422,27.668737411499023,-1.3546981811523438,5.709001541137695,1.071096658706665,-1.6681429147720337,-0.06177487596869469,-0.053333885967731476,-9.301067352294922,0.010060323873630574,0.00466447548989203,1.0249508109405658,3.297211019645145,2.267448029170832,0.4881827613874341,108.54275253784954,False,8.22,216.23957855649996,100,0.02,0.192,0.187
5,1747143056.6493742,4,-4,13,0.5232512950897217,-0.08907845616340637,-1.8279190063476562,0.41027435660362244,-0.132384791970253,-1.0875784158706665,-0.00622829794883728,-0.06475219130516052,-8.576092720031738,0.005163634664479065,0.0024425471088482284,1.0141806482403992,3.2284556515362723,2.208576353715374,0.4947996558564018,15.724193808839503,False,8.22,231.96377236533948,100,0.02,0.192,0.187
5,1747143057.1545544,6,-4,12,0.57743901014328,-0.18419073522090912,-2.3741836547851562,0.5008721351623535,-0.13351204991340637,-0.5044106841087341,-0.05210630223155022,-0.05543822795152664,-8.366832733154297,0.0024621342201918317,0.0013961075882107502,1.0059043278729354,2.7238282771442783,2.3080555301196495,0.45313513476661443,15.829773333038682,False,8.22,247.79354569837815,100,0.02,0.192,0.187
5,1747143057.6594694,8,-4,11,0.8214488625526428,-0.2329808622598648,-2.7195053100585938,0.5763313174247742,-0.12292537093162537,0.07532606273889542,-0.034960731863975525,-0.12794364988803864,-8.577292442321777,0.0013604869599954058,0.0014159910514851162,0.9999162254967916,2.7374287710504475,2.4869553600251093,0.5500188131613144,15.935710074225533,False,8.22,263.72925577260366,100,0.02,0.192,0.187
5,1747143058.1630733,10,-4,10,1.0876814126968384,-0.2609042227268219,-2.7773895263671875,0.6130478978157043,-0.1014709398150444,0.49474620819091797,-0.06472481787204742,-0.021016081795096397,-9.06055736541748,0.0007596258983259728,0.0014672473500659563,0.9956612016814241,3.115427776096013,2.160134648004962,0.45979264479427995,16.0209844560729,False,8.22,279.75024022867655,100,0.02,0.192,0.187
5,1747143058.6673992,12,-4,9,1.356926441192627,-0.2682652771472931,-2.6028823852539062,0.635066032409668,-0.06725257635116577,0.7446745038032532,-0.006069760769605637,-0.011400435119867325,-9.527161598205566,0.0003729757084121916,0.0013272934276449076,0.992773636909631,3.041497416338944,1.907438187978246,0.5290296053489523,16.181092004743206,False,8.22,295.93133223341977,100,0.02,0.192,0.187
5,1747143059.1717222,14,-4,8,1.629397988319397,-0.2513931691646576,-2.281097412109375,0.653784990310669,-0.02291405200958252,0.8435763716697693,-0.03148883208632469,-0.044570956379175186,-9.710551261901855,0.00014645459395420206,0.0011891406173431414,0.9907100751447138,2.6775699103745474,1.6382655266827402,0.5679844581913114,16.51619845184913,False,8.22,312.4475306852689,100,0.02,0.192,0.187
5,1747143059.6756427,16,-4,7,1.9028576612472534,-0.20689751207828522,-1.8958511352539062,0.6740518808364868,0.018996963277459145,0.8510183691978455,-0.11157673597335815,-0.09346233308315277,-9.81811809539795,-1.6893463517359e-05,0.0013536444491513708,0.989313597449316,3.1499494161645325,2.2813125541753783,0.494587222353439,17.095415058533426,False,8.22,329.5429457438023,100,0.02,0.192,0.187
5,1747143060.181862,18,-4,6,2.1857874393463135,-0.11628086119890213,-1.4850540161132812,0.685594916343689,0.08552700281143188,0.8140026926994324,-0.14503516256809235,-0.0359405055642128,-9.95508861541748,-0.0003388788787376843,0.0012139146273766363,0.9884823238626411,3.259865773174541,2.0114021632218053,0.42514911272039513,17.922015145813273,False,8.22,347.46496088961555,100,0.02,0.192,0.187
5,1747143060.6863048,20,-4,5,2.496533155441284,0.047498222440481186,-1.059814453125,0.712342381477356,0.17804259061813354,0.7657271027565002,-0.05484403669834137,0.037637919187545776,-9.916847229003906,-0.0005902264733454014,0.0012646420857223542,0.9878057620320243,3.338628073921349,2.468021690128125,0.4777523831129716,18.959824488784903,False,8.22,366.42478537840043,100,0.02,0.192,0.187
5,1747143061.1909132,22,-4,4,2.808140754699707,0.2821371257305145,-0.6731338500976562,0.7372005581855774,0.2990667223930359,0.7308474779129028,0.007816087454557419,-0.051923055201768875,-9.851038932800293,-0.0007883846124407097,0.0013192231423807656,0.9874626827505442,3.0081504178179808,1.7131517095755637,0.5564504400011776,20.211440810489155,False,8.22,386.63622618888957,100,0.02,0.192,0.187
5,1747143061.6946204,24,-4,3,3.1326372623443604,0.5978279113769531,-0.3090972900390625,0.7700620293617249,0.44079408049583435,0.7037675380706787,0.05642580986022949,-0.03599098324775696,-9.889147758483887,-0.0009444391326314215,0.0014049547168701237,0.9872528575515843,2.943385121407288,2.146583997506355,0.4202496679614513,21.62260331233221,False,8.22,408.2588295012218,100,0.02,0.192,0.187
5,1747143062.198123,26,-4,2,3.4887053966522217,1.0169122219085693,0.0490264892578125,0.8075312376022339,0.609771728515625,0.6856150031089783,-0.03729163110256195,-0.03512753173708916,-9.85846996307373,-0.0012122344387606081,0.0013039376745454575,0.9871967108248844,2.918634759646845,1.6393677473313923,0.43568669019314493,23.14593032480371,False,8.22,431.4047598260255,100,0.02,0.192,0.187
5,1747143062.701423,28,-4,1,3.8716204166412354,1.530392050743103,0.39279937744140625,0.8559038639068604,0.7834026217460632,0.6796573400497437,-0.04253107309341431,-0.03990545496344566,-9.846269607543945,-0.001348920378586881,0.0012107630786247522,0.9872385627277135,3.4722231713278116,1.9753070249728117,0.4298308606345266,24.761515102061143,False,8.22,456.16627492808664,100,0.02,0.192,0.187
5,1747143063.2051585,30,-4,0,4.309223175048828,2.167850971221924,0.7382888793945312,0.9291537404060364,0.9855223894119263,0.6787664890289307,-0.016981549561023712,-0.03164604306221008,-9.794784545898438,-0.0016978215267212185,0.0012870817896579547,0.9872824772416535,3.0734678487927316,1.8239251644874939,0.502370410194157,26.4311079968678,False,8.22,482.59738292495445,100,0.02,0.192,0.187
5,1747143063.7086287,32,-4,-1,4.800377368927002,2.9249277114868164,1.0773468017578125,1.0220988988876343,1.2172892093658447,0.6789413094520569,-0.1099010482430458,0.0632491260766983,-9.743136405944824,-0.001933681698205793,0.001111222326362266,0.987391988677151,2.824894525175253,1.648868650790654,0.5637357083233356,28.14408401097591,False,8.22,510.74146693593036,100,0.02,0.192,0.187
5,1747143064.2140388,34,-4,-2,5.373936176300049,3.839265823364258,1.4244384765625,1.137750267982483,1.4713430404663086,0.6841930747032166,-0.02340119704604149,-0.01855962909758091,-9.780471801757812,-0.0021693121007514493,0.0010444415736903263,0.9877123659136826,3.253974481521462,1.7291594045374339,0.5691207947075309,29.87695428867661,False,8.22,540.618421224607,100,0.02,0.192,0.187
5,1747143064.7174907,36,-4,-3,6.077759742736816,4.971154689788818,1.7952499389648438,1.291562795639038,1.7699295282363892,0.6868784427642822,0.02459907904267311,0.01797395572066307,-9.770825386047363,-0.002535212806652783,0.0010254274886365084,0.9881000192982923,2.6986938742997326,1.7926863405582343,0.4599107662571935,31.604058290963895,False,8.22,572.2224795155709,100,0.02,0.192,0.187
5,1747143065.222402,38,-4,-4,6.861980438232422,6.220274925231934,2.1516876220703125,1.4723443984985352,2.0796425342559814,0.6869134902954102,-0.013598378747701645,-0.026066403836011887,-9.884145736694336,-0.0028328136392520324,0.0007996413634763704,0.9886041447795771,2.9219377111741283,1.9078916727224546,0.5620467806291719,33.34476784108532,False,8.22,605.5672473566561,100,0.02,0.192,0.187
5,1747143065.72715,40,-4,-5,7.7640700340271,7.620666027069092,2.5042037963867188,1.6872532367706299,2.405963659286499,0.6851462721824646,-0.031236760318279266,0.030345387756824493,-9.84609603881836,-0.0033061867639222,0.0006088808830546508,0.9893006724803103,2.634922858408791,1.7932380875352387,0.5604442605109311,35.07859937770452,False,8.22,640.6458467343607,100,0.02,0.192,0.187
6,1747143067.8781512,0,6,-5,13.82394790649414,15.77623462677002,4.064628601074219,3.1681792736053467,3.9899981021881104,0.660974383354187,-0.04597178474068642,0.013362787663936615,-9.903916358947754,-0.004848550374175001,-0.0011942633223087972,0.9889200221724445,3.0891538294976457,2.2053756566778926,0.4148184803682829,19.20530632076806,False,9.4,19.20530632076806,50,0.06,0.012,0.082
6,1747143068.3822577,2,1,-5,15.968659400939941,18.209718704223633,4.445671081542969,3.6774284839630127,4.388567924499512,0.6553026437759399,0.02413329854607582,0.11884380877017975,-9.936173439025879,-0.00438767967113806,-0.0005757150921966982,0.9874923472710306,2.537535500281071,1.577811134078343,0.5000325097044228,24.093952882801727,False,9.4,43.29925920356979,50,0.06,0.012,0.082
6,1747143068.8857186,4,6,-5,18.61894416809082,20.9658145904541,4.851959228515625,4.321353912353516,4.788751602172852,0.6393131017684937,0.07561654597520828,0.07835635542869568,-9.9234037399292,-0.005730496989897106,-0.003038158341897606,0.9839511248544269,3.3369075077773247,2.085940696929866,0.47716233933089214,23.124667253518258,False,9.4,66.42392645708804,50,0.06,0.012,0.082
6,1747143069.3907347,6,1,-5,21.56821632385254,23.73869514465332,5.245819091796875,5.0393877029418945,5.150723457336426,0.630199670791626,0.11849477887153625,0.08137067407369614,-9.899104118347168,-0.0057781707501191526,-0.0036370349279154835,0.97935170822677,2.871092292169656,2.4046334220481262,0.44340339340704427,29.400585457598943,False,9.4,95.82451191468698,50,0.06,0.012,0.082
6,1747143069.8940804,8,6,-5,24.91660499572754,26.597434997558594,5.6454925537109375,5.832467555999756,5.493691444396973,0.6341612935066223,0.1496475785970688,0.12289292365312576,-9.933653831481934,-0.005790688380915926,-0.004307820696738024,0.9743929438433275,2.705508955802494,2.2245570610941447,0.5741357625526173,28.701086473707587,False,9.4,124.52559838839457,50,0.06,0.012,0.082
6,1747143070.3970556,10,1,-5,28.827373504638672,29.612436294555664,6.063560485839844,6.72486686706543,5.793290615081787,0.6144979000091553,0.18941698968410492,0.07890243828296661,-9.94431209564209,-0.005664778192036667,-0.005241646714399151,0.9655125625590398,3.482975913977068,2.237490017421914,0.5012084340972235,35.993664364954746,False,9.4,160.51926275334932,50,0.06,0.012,0.082
6,1747143070.9006698,12,6,-5,33.206214904785156,32.635746002197266,6.491546630859375,7.704123020172119,6.053320407867432,0.6249382495880127,0.24979576468467712,0.1432311236858368,-9.9386625289917,-0.005587799946017381,-0.006129233722959444,0.9517174748325083,3.102955718646559,1.8450498489929505,0.5924691693036738,35.93357983350275,False,9.4,196.45284258685206,50,0.06,0.012,0.082
6,1747143071.4043882,14,1,-5,38.268280029296875,35.73032760620117,6.952568054199219,8.822527885437012,6.253479957580566,0.6389488577842712,0.4126582741737366,0.24824541807174683,-10.002089500427246,-0.005309370864387692,-0.00711193814028591,0.9281114791651269,2.8530196558469223,2.1705718629701543,0.5640997307083722,44.022823106937295,False,9.4,240.47566569378935,50,0.06,0.012,0.082
6,1747143071.909671,16,6,-5,43.864524841308594,38.72346496582031,7.432014465332031,10.01991081237793,6.360675811767578,0.6514219045639038,0.5557777881622314,0.06031641364097595,-9.93799114227295,-0.004800049433513928,-0.007737878998942588,0.8882285626113264,2.9506755433786287,2.1060481513206106,0.5599995363576751,44.741612483988526,False,9.4,285.21727817777787,50,0.06,0.012,0.082
6,1747143072.4155326,18,1,-5,49.88276290893555,41.765567779541016,7.906005859375,10.956082344055176,6.489988803863525,0.6671293377876282,0.6319571733474731,0.09179899841547012,-9.934629440307617,-0.0014821549716976712,-0.0020449539136086943,0.8613836028591242,2.837595726591732,2.3643473269890816,0.5646522922394736,53.33767031224715,False,9.4,338.554948490025,50,0.06,0.012,0.082
6,1747143072.9213336,20,6,-5,56.369754791259766,45.05945587158203,8.380775451660156,11.656736373901367,6.709481716156006,0.6758562326431274,0.9330319166183472,0.057204972952604294,-9.781967163085938,-0.00164196153571022,-0.002957210135443251,0.849303563419601,3.1357575118386096,2.393033698929307,0.41264606712213225,55.0222255842871,False,9.4,393.5771740743121,50,0.06,0.012,0.082
6,1747143073.4251018,22,1,-5,66.16375732421875,46.65445327758789,9.137008666992188,14.46781063079834,5.085141658782959,0.9574269652366638,1.0254244804382324,0.09060095995664597,-10.235363006591797,0.00031207511397469235,-0.0031177749521880136,2.9863665683492915,3.2981588195565585,1.994493218146778,0.5015697046158152,65.0739700580697,False,9.4,458.6511441323818,50,0.06,0.012,0.082
6,1747143073.928993,24,6,-5,73.88343048095703,48.7900505065918,9.851852416992188,14.723784446716309,4.847908973693848,0.9904332160949707,1.3378182649612427,0.025563810020685196,-10.00055980682373,0.0052749955539808146,-0.0007205872293345027,3.0140240942989522,2.540314298549019,1.6383783801101313,0.5957179099030548,67.37894759582748,False,9.4,526.0300917282093,50,0.06,0.012,0.082
6,1747143074.4329348,26,1,-5,81.69178009033203,50.9794807434082,10.449882507324219,14.440494537353516,4.798127174377441,0.8825828433036804,1.42439866065979,-0.00023187324404716492,-9.827658653259277,0.0009859322594505397,0.00015515187745356705,3.0244534883032106,3.3240734926238376,1.9123073377794895,0.5133111081779006,76.40825697855395,False,9.4,602.4383487067632,50,0.06,0.012,0.082
6,1747143074.937452,28,6,-5,89.42137908935547,53.04692840576172,10.989990234375,14.129488945007324,4.719391345977783,0.9181582927703857,1.5421884059906006,0.07748594880104065,-9.842162132263184,0.005011889883179946,0.00021989001470158553,3.0437510400676806,3.330037264643736,2.129205602430641,0.5141572433504691,79.00429779037714,False,9.4,681.4426464971403,50,0.06,0.012,0.082
6,1747143075.441782,30,1,-5,96.9333724975586,55.1589241027832,11.542701721191406,13.651089668273926,4.639796733856201,0.9106429815292358,1.7153223752975464,-0.03611095994710922,-9.768768310546875,0.0006779920854231787,0.0002695770861033385,3.0589221280754337,3.4439237987978206,1.5395055803147473,0.5057107835891279,87.67511844362842,False,9.4,769.1177649407688,50,0.06,0.012,0.082
6,1747143075.945235,32,6,-5,103.51049041748047,57.49399948120117,12.136474609375,12.730377197265625,4.725376605987549,1.0146065950393677,1.9390132427215576,0.008786149322986603,-9.74220085144043,-9.78607564853692e-05,0.000201999066118959,3.055823147357061,3.432785905813577,2.466842067339287,0.5238523535654108,89.77216152213484,False,9.4,858.8899264629036,50,0.06,0.012,0.082
6,1747143076.4504285,34,1,-5,109.35950469970703,59.891510009765625,12.779472351074219,11.6412935256958,4.851618766784668,1.1555424928665161,2.254304885864258,-0.0026755905710160732,-9.677997589111328,-5.42645015900553e-06,5.73928065741578e-05,3.054827995012093,2.7906368891375912,2.08691071862384,0.48638900087049697,97.27987734828875,False,9.4,956.1698038111924,50,0.06,0.012,0.082
6,1747143076.9553628,36,6,-5,115.02503204345703,62.540077209472656,13.500556945800781,10.432750701904297,4.991711139678955,1.2359917163848877,2.1633405685424805,0.014092645607888699,-9.654863357543945,-5.389455964066768e-05,1.4687304640054064e-06,3.053989707377012,3.1826887453758763,1.720697773239572,0.5889003520729629,98.91413765295312,False,9.4,1055.0839414641455,50,0.06,0.012,0.082
6,1747143077.4589133,38,1,-5,146.47088623046875,56.09660720825195,14.195518493652344,21.526626586914062,0.4121004045009613,1.3319311141967773,2.4002556800842285,-0.045021902769804,-9.616277694702148,0.0008636722503694847,-0.0008554262050507615,-2.7721562426341806,3.0372827781144442,1.841621402248752,0.5313803584733328,123.16670498037952,False,9.4,1178.250646444525,50,0.06,0.012,0.082
6,1747143077.9644122,40,6,-5,158.00230407714844,55.905582427978516,14.863456726074219,21.41383171081543,-0.2740686535835266,1.3825170993804932,2.608311891555786,0.02736731618642807,-9.660201072692871,0.006557934591342981,0.0017508593239299454,-2.6451857974591753,3.0174118838072825,1.7813637150924309,0.5310179748766173,129.65210309941057,False,9.4,1307.9027495439357,50,0.06,0.012,0.082
7,1747143107.14433,0,6,-5,1.4097915887832642,5.260809421539307,-5.05047607421875,1.1788935661315918,-0.541000485420227,0.3892075717449188,0.0037070736289024353,0.13810189068317413,-11.860864639282227,0.5272895173330535,0.26469031135517307,0.038309973191409316,3.140570963949094,2.0966334370547233,0.5627042541760927,1.5926276618085067,False,9.92,1.5926276618085067,100,0.01,0.176,0.108
7,1747143107.7536302,2,5,-5,1.6771306991577148,5.11916446685791,-4.76446533203125,-0.3046088218688965,0.1275148242712021,0.02714626118540764,0.1577538251876831,-0.004459993913769722,-10.84618091583252,0.08839776451234235,0.04638085626301014,-0.015490573475703163,3.269947509935519,2.242392695372645,0.43251569790630806,0.41703876966424275,True,9.92,2.0096664314727493,100,0.01,0.176,0.108
7,1747143111.387709,4,4,-5,4.5746331214904785,3.8701608180999756,-5.0908203125,0.7452626824378967,-0.441476434469223,0.08847088366746902,-0.008576858788728714,0.0846649557352066,-10.109768867492676,0.2500252869586853,0.11019496951330755,0.006611157476333839,3.443109958494131,1.5316246965221436,0.41009561104995385,0.5960786580921652,True,9.92,2.6057450895649144,100,0.01,0.176,0.108
7,1747143112.877652,6,3,-5,5.718403339385986,3.0989646911621094,-5.0213775634765625,0.15584711730480194,-0.19922849535942078,0.03836529701948166,0.04592253640294075,-0.019910207018256187,-9.931364059448242,0.03409588476910002,0.0418512286163596,-0.009173706155556538,3.1062325900306056,1.9133030766339933,0.5645862199771534,0.299245199770974,True,9.92,2.9049902893358883,100,0.01,0.176,0.108
7,1747143115.544928,8,2,-5,8.063611030578613,1.9893406629562378,-4.9937896728515625,0.5737759470939636,-0.21945297718048096,0.008451368659734726,0.020111195743083954,0.06183234974741936,-9.909844398498535,0.12078678197671029,0.052145464800648036,-0.010180228642518191,3.4560866218927986,1.67157314788614,0.5360077843946516,0.06479624094634205,True,9.92,2.96978653028223,100,0.01,0.176,0.108
7,1747143117.7712123,10,1,-5,9.878249168395996,1.0699838399887085,-5.0045166015625,0.41796255111694336,-0.27564331889152527,0.005931804422289133,0.04393300041556358,0.15242911875247955,-9.800704002380371,0.06302520228434064,0.04246023845203548,-0.015679252661880406,2.7397688424564213,2.2714198547826503,0.5181808883927416,0.1405041015255642,True,9.92,3.1102906318077945,100,0.01,0.176,0.108
7,1747143120.144591,12,0,-5,11.992405891418457,-0.017691362649202347,-5.0053863525390625,0.5633447170257568,-0.2369202971458435,0.0171243604272604,0.10932693630456924,0.13954703509807587,-9.897732734680176,0.09376710887856829,0.048911897202565675,-0.017839529602507037,2.81920817959605,2.2129502672918133,0.5784023655997644,0.019991688053011467,True,9.92,3.130282319860806,100,0.01,0.176,0.108
7,1747143122.3758168,14,-1,-5,13.973664283752441,-0.9654524922370911,-4.994697570800781,0.5093601942062378,-0.28731200098991394,0.007771125994622707,0.01737813651561737,0.02782285213470459,-9.835396766662598,0.08130282413922767,0.045192289429778584,-0.022718562373046276,3.319135734505073,1.6857802302713982,0.5990070453516644,0.043763180852320394,True,9.92,3.1740455007131265,100,0.01,0.176,0.108
7,1747143124.6242335,16,-2,-5,15.971396446228027,-2.0036122798919678,-4.994941711425781,0.5663344860076904,-0.26659315824508667,0.0032522822730243206,-0.020383138209581375,0.0610782653093338,-9.867581367492676,0.08676406522394114,0.04813440208828226,-0.02631756990531763,3.167504164018527,1.986619861964695,0.5705002895769766,0.02927111439122395,True,9.92,3.2033166151043506,100,0.01,0.176,0.108
7,1747143126.8104014,18,-3,-5,17.98937225341797,-2.9696478843688965,-4.997810363769531,0.551583468914032,-0.2856716215610504,0.006461369805037975,0.07203374058008194,0.012799501419067383,-9.8303804397583,0.08752858289692884,0.04405003494486231,-0.030594577313784205,3.2984383207495385,2.115237702253979,0.5258266829999112,0.032233436483216256,True,9.92,3.235550051587567,100,0.01,0.176,0.108
7,1747143128.972331,20,-4,-5,19.974103927612305,-4.000582218170166,-4.9979400634765625,0.5664765238761902,-0.28496837615966797,0.00577912013977766,0.0147358737885952,0.0962352529168129,-9.782551765441895,0.08562139131268948,0.04818391180868686,-0.034176698121527446,2.865639375706675,2.037116169753758,0.5867558454301178,0.025984396887113213,True,9.92,3.26153444847468,100,0.01,0.176,0.108
7,1747143131.1570368,22,-5,-5,21.981660842895508,-4.996550559997559,-4.9988555908203125,0.5844347476959229,-0.2837209105491638,0.005502165295183659,0.020286204293370247,0.040899451822042465,-9.857427597045898,0.08877898516111428,0.04699128836289252,-0.03893612254495028,2.968484401840192,1.7223627271862787,0.4575934361754633,0.018695801453915858,True,9.92,3.280230249928596,100,0.01,0.176,0.108
7,1747143133.3434517,24,-6,-5,24.00792694091797,-6.002798557281494,-5.000526428222656,0.580386221408844,-0.2820410430431366,0.013451557606458664,-0.025798272341489792,0.021565251052379608,-9.854327201843262,0.09091820937920211,0.045814666968448485,-0.04992931234473579,2.9824394465629975,1.9099306562685197,0.547856813243275,0.008422911720324519,True,9.92,3.2886531616489205,100,0.01,0.176,0.108
7,1747143136.8754375,26,-7,-5,24.916709899902344,-6.68408203125,-5.1649932861328125,-1.6348901987075806,0.8318488597869873,-0.19282709062099457,0.12522666156291962,0.04563893377780914,-9.889341354370117,-0.32008273501575346,-0.041857584536529484,-0.21168116642266735,3.4449086669746745,2.0877092653042237,0.4987560476507765,1.1404141302253405,True,9.92,4.4290672918742615,100,0.01,0.176,0.108
7,1747143139.777236,28,-8,-5,29.088550567626953,-8.283159255981445,-4.9255828857421875,1.008685827255249,-0.6185705661773682,-0.034023385494947433,0.10540145635604858,0.03675249218940735,-10.684300422668457,0.3610194998157201,0.07395064456287413,-0.19874444719976964,2.770245203433608,1.737053779380226,0.5516910532357645,1.1272352946139452,True,9.92,5.556302586488207,100,0.01,0.176,0.108
7,1747143140.6616914,30,-9,-5,30.22669219970703,-8.981735229492188,-4.946968078613281,0.2149159014225006,-0.3185006082057953,-0.12139218300580978,-0.016237013041973114,0.07324294000864029,-9.831235885620117,0.13762334470905743,0.045173509873959065,-0.20821368814197458,2.909257223113519,2.1227132695437354,0.4559295592606264,0.23352802815868315,True,9.92,5.78983061464689,100,0.01,0.176,0.108
7,1747143144.0671425,32,-10,-5,30.879047393798828,-9.510750770568848,-5.1495208740234375,-1.7814663648605347,0.7355027794837952,-0.269159197807312,0.14641262590885162,0.03625147044658661,-9.69542407989502,-0.326893730155083,-0.07742845553026687,-0.15728430438169339,2.753755673114735,2.2593818446597305,0.5732989037796494,1.2321753307126826,True,9.92,7.022005945359573,100,0.01,0.176,0.108
7,1747143147.0318377,34,-11,-5,34.990272521972656,-11.447883605957031,-4.914588928222656,1.0997998714447021,-0.46030083298683167,-0.03700954094529152,0.011570055037736893,-0.009375125169754028,-10.769450187683105,0.36652948443000594,0.09417522167870258,-0.1688963947650081,2.6892719562892475,1.9028723328541415,0.4179746623834557,1.0901992677677383,True,9.92,8.11220521312731,100,0.01,0.176,0.108
7,1747143147.8981137,36,-12,-5,36.19947052001953,-11.974523544311523,-4.9327239990234375,0.2125653475522995,-0.15279433131217957,-0.12502269446849823,0.014979319646954536,0.04644356295466423,-9.844717025756836,0.1374515467831047,0.02698569559409679,-0.1875638983017894,2.5627257643876393,2.1836763438738047,0.5906244225620162,0.2120462177420469,True,9.92,8.324251430869358,100,0.01,0.176,0.108
7,1747143151.0299027,38,-13,-5,37.92121124267578,-13.048563957214355,-5.034019470214844,0.48682573437690735,-0.17166323959827423,0.02073655091226101,0.03561687842011452,0.044773850589990616,-9.820704460144043,0.08361063469592873,0.03253027760098237,-0.18753601985526916,2.9995780030601598,2.271048108308572,0.45957248011248486,0.09860755840558584,True,9.92,8.422858989274944,100,0.01,0.176,0.108
7,1747143155.2985609,40,-14,-5,40.0857048034668,-14.11966323852539,-4.2793121337890625,-0.23833876848220825,-0.0014995788224041462,0.7966691851615906,-0.015849802643060684,0.013215042650699615,-9.641823768615723,-0.0012980602542435056,0.0003304717729392512,-0.1893608732208406,3.0800329071166246,2.1746997850413194,0.4064739330837567,0.7355648200501034,True,9.92,9.158423809325047,100,0.01,0.176,0.108
8,1747143157.031083,0,-8,-5,39.319366455078125,-13.99656867980957,-2.8906326293945312,-0.5052295923233032,0.06614169478416443,0.7385576963424683,0.08105817437171936,0.07091288268566132,-9.869579315185547,0.00020782087409178045,1.634743186760885e-05,-0.18841801310322628,3.215670510703365,2.1424437639513694,0.5037224211854096,39.82989888343393,False,7.77,39.82989888343393,50,0.03,0.179,0.058
8,1747143157.5362458,2,-7,-5,39.039947509765625,-13.961945533752441,-2.504364013671875,-0.5604151487350464,0.06243223324418068,0.7095375657081604,0.07688470929861069,0.07781679928302765,-9.87108325958252,0.0001213797126241684,-3.147909623875765e-05,-0.1884068627366037,3.223967666866873,1.679752754254836,0.44610095519684534,37.77108147931939,False,7.77,77.60098036275332,50,0.03,0.179,0.058
8,1747143158.0407,4,-6,-5,38.744712829589844,-13.928625106811523,-2.1389923095703125,-0.6173325777053833,0.06848680227994919,0.6932920217514038,0.055775236338377,-0.005274921655654907,-9.845852851867676,4.7448212550998914e-05,-4.399897910731701e-05,-0.18830842392813996,2.7542640781115217,2.266709828823923,0.42626748347188276,35.75253180824716,False,7.77,113.35351217100049,50,0.03,0.179,0.058
8,1747143158.5445259,6,-5,-5,38.399532318115234,-13.8956880569458,-1.7513275146484375,-0.668057918548584,0.06894708424806595,0.6864824295043945,0.013154271990060806,0.09608052670955658,-9.883136749267578,-3.332935679757552e-05,-1.18472511227053e-05,-0.1882811956781835,2.9574564611784,2.3239649220517147,0.5236753354232004,33.75524897488037,False,7.77,147.10876114588086,50,0.03,0.179,0.058
