mission_id,time,real_x,real_y,real_z,vx,vy,vz,ax,ay,az,roll,pitch,yaw,wind_x,wind_y,wind_z,erreur_m,velocity,rain,fog,snow,is_attack
1,1745178855.0110407,0.0,0.0,-5.0,0.2748912274837494,-0.0028969699051231,0.3345122337341308,-0.0517120510339736,0.0188126526772975,-15.449379920959473,0.0163911250900686,0.0020489629014455,-3.1196290586680497,2.709812048585534,1.7384816941020105,0.4271646775547645,2.542877896773282,5.92,0.04,0.191,0.197,1
1,1745178855.013157,2.0,0.0,-5.0,0.2748912274837494,-0.0028969699051231,0.3345122337341308,-0.0889592543244361,-0.0302369520068168,-15.738588333129885,0.0163911250900686,0.0020489629014455,-3.1196290586680497,3.098013969788321,1.6279949912669358,0.4989192946828409,3.498653917880778,5.92,0.04,0.191,0.197,1
1,1745178855.0150647,4.0,0.0,-5.0,0.2748912274837494,-0.0028969699051231,0.3345122337341308,-0.0889592543244361,-0.0302369520068168,-15.738588333129885,0.0163911250900686,0.0020489629014455,-3.1196290586680497,3.2967383332577125,1.7965595467717423,0.4598644627635626,5.100483357124786,5.92,0.04,0.191,0.197,1
1,1745178855.0184307,6.0,0.0,-5.0,0.2748912274837494,-0.0028969699051231,0.3345122337341308,-0.0773545205593109,-0.0998971983790397,-15.87862491607666,0.0141036014424461,0.001748300922136,-3.119636203828865,2.927465425312552,2.2845934712270206,0.4998799358575954,6.91297922140023,5.92,0.04,0.191,0.197,1
1,1745178855.0200982,8.0,0.0,-5.0,0.2748912274837494,-0.0028969699051231,0.3345122337341308,-0.1567774713039398,-0.0179135799407959,-15.996201515197754,0.0141036014424461,0.001748300922136,-3.119636203828865,2.92917995281461,1.724429012779371,0.4943554768247164,8.80702179824234,5.92,0.04,0.191,0.197,1
1,1745178855.0217056,10.0,0.0,-5.0,0.2748912274837494,-0.0028969699051231,0.3345122337341308,-0.1567774713039398,-0.0179135799407959,-15.996201515197754,0.0141036014424461,0.001748300922136,-3.119636203828865,3.387472869089555,2.2241583323052883,0.4116159284836884,10.739552327444573,5.92,0.04,0.191,0.197,1
1,1745178855.0236757,12.0,0.0,-5.0,0.2748912274837494,-0.0028969699051231,0.3345122337341308,-0.0094454567879438,-0.0302784889936447,-16.237716674804688,0.0141036014424461,0.001748300922136,-3.119636203828865,3.001587025792844,1.5875048759959245,0.5743646712171248,12.6930034047551,5.92,0.04,0.191,0.197,1
1,1745178855.0258138,14.0,0.0,-5.0,0.2748912274837494,-0.0028969699051231,0.3345122337341308,-0.0607793219387531,0.0661676079034805,-16.23349380493164,0.0141036014424461,0.001748300922136,-3.119636203828865,3.49553964914038,2.363642034777139,0.5326815527952293,14.65901383696492,5.92,0.04,0.191,0.197,0
1,1745178855.8386564,16.0,0.0,-5.0,4.09981107711792,0.0492601133882999,-1.6342839002609253,-0.0326266698539257,0.0135084744542837,-10.316366195678713,0.3865564305830062,0.0223438906835064,-3.120746513301147,3.286583854218718,1.6033394482374717,0.4851598109254814,14.975409751774183,5.92,0.04,0.191,0.197,0
1,1745178856.3468263,18.0,0.0,-5.0,5.377077579498291,0.0701429918408393,-1.3251959085464478,0.0248464122414588,0.0142527893185615,-9.098419189453123,0.2251121191060943,0.0300521755928161,-3.121899507509122,2.929297064086724,2.244982349255279,0.4218704007064346,14.707238244236468,5.92,0.04,0.191,0.197,0
1,1745178857.3616796,24.190888303297257,2.759490867822624,-5.0,6.548035144805908,0.7081063389778137,-0.4796303808689117,0.1479772478342056,0.0101259294897317,-9.175277709960938,-0.0080919798554085,-0.0427646536049634,-3.1141950100007594,2.909625846704846,1.929693769787189,0.5700500242694437,14.61090179165942,5.92,0.04,0.191,0.197,0
1,1745178857.3643827,21.74418155521036,2.549893760522878,-5.0,6.548035144805908,0.7081063389778137,-0.4796303808689117,0.1097894236445427,0.0176865328103303,-9.166089057922363,-0.0080919798554085,-0.0427646536049634,-3.1141950100007594,2.616557448151734,1.537343550560832,0.4097394589878159,12.162563781227671,5.92,0.04,0.191,0.197,0
1,1745178857.3679185,18.974654505888928,2.199838963917893,-5.0,6.548035144805908,0.7081063389778137,-0.4796303808689117,0.0881956964731216,-0.0389097407460212,-9.155505180358888,-0.0080919798554085,-0.0427646536049634,-3.1141950100007594,3.106642324109365,2.2328275725163875,0.4287461075316811,9.374839114355613,5.92,0.04,0.191,0.197,0
1,1745178857.3706784,16.471920844312002,1.4070665469094623,-5.0,6.548035144805908,0.7081063389778137,-0.4796303808689117,0.0961366519331932,-0.0154090672731399,-9.194129943847656,-0.0096379258915164,-0.042448523947878,-3.11429442723824,3.113395839081765,1.6409393855397196,0.5480810100347384,6.779137009090206,5.92,0.04,0.191,0.197,0
1,1745178857.372287,9.755460739135742,0.5116491913795471,-4.7900238037109375,6.548035144805908,0.7081063389778137,-0.4796303808689117,0.1741099059581756,-0.0290363244712352,-9.159452438354492,-0.0096379258915164,-0.042448523947878,-3.11429442723824,2.933650705330775,1.5312923990299487,0.4772532467172687,2.31167285566285,5.92,0.04,0.191,0.197,1
1,1745178857.3740835,9.755460739135742,0.5116491913795471,-4.7900238037109375,6.548035144805908,0.7081063389778137,-0.4796303808689117,0.1741099059581756,-0.0290363244712352,-9.159452438354492,-0.0096379258915164,-0.042448523947878,-3.11429442723824,3.227155150095746,1.529001854445375,0.584239185932286,0.604710135644678,5.92,0.04,0.191,0.197,1
1,1745178857.376675,9.755460739135742,0.5116491913795471,-4.7900238037109375,6.548035144805908,0.7081063389778137,-0.4796303808689117,0.1792599707841873,-0.0088013727217912,-9.17868709564209,-0.0096379258915164,-0.042448523947878,-3.11429442723824,2.6675183170352854,2.411313563135269,0.5098140379180225,1.8405209329682648,5.92,0.04,0.191,0.197,1
1,1745178857.378457,6.0,0.0,-5.0,6.548035144805908,0.7081063389778137,-0.4796303808689117,0.0079092532396316,0.0497943758964538,-9.120305061340332,-0.0096379258915164,-0.042448523947878,-3.11429442723824,3.3171715417330345,2.1294219035784456,0.4807387738687234,3.795966314555141,5.92,0.04,0.191,0.197,1
1,1745178857.3800955,4.0,0.0,-5.0,6.565328598022461,0.7238619327545166,-0.4553967416286468,0.0079092532396316,0.0497943758964538,-9.120305061340332,-0.0107861929383743,-0.0422127812393957,-3.1143704853566225,3.070230136241153,2.1719324603449417,0.566483209950669,6.041453150121126,5.92,0.04,0.191,0.197,1
1,1745178857.381604,2.0,0.0,-5.0,6.565328598022461,0.7238619327545166,-0.4553967416286468,0.0778572782874107,-0.0069826114922761,-9.216901779174805,-0.0107861929383743,-0.0422127812393957,-3.1143704853566225,2.6168674861686507,2.206413296846499,0.5494766667898188,8.03481342361269,5.92,0.04,0.191,0.197,1
1,1745178857.3833694,0.0,0.0,-5.0,6.565328598022461,0.7238619327545166,-0.4553967416286468,0.0778572782874107,-0.0069826114922761,-9.216901779174805,-0.0107861929383743,-0.0422127812393957,-3.1143704853566225,2.8354652558973927,1.9293856359418264,0.5265567690095663,10.03081738142136,5.92,0.04,0.191,0.197,1
2,1745178887.5720243,0.0,0.0,-5.0,0.0780612006783485,0.2310958355665207,-0.0137476557865738,-0.0407537259161472,-0.0509993284940719,-16.07161521911621,0.0455099519543657,0.0212978065422278,2.852131216148881,3.322704296319107,1.8698977699681607,0.5381371435887031,2.7583935862517226,9.67,0.2,0.083,0.182,1
2,1745178887.5745485,2.0,0.0,-5.0,0.0780612006783485,0.2310958355665207,-0.0137476557865738,-0.0961149483919143,-0.08070869743824,-16.216407775878906,0.0455099519543657,0.0212978065422278,2.852131216148881,3.016956562703664,1.588729099746565,0.5639509981414996,3.498273786075429,9.67,0.2,0.083,0.182,1
2,1745178887.5767658,4.0,0.0,-5.0,0.0780612006783485,0.2310958355665207,-0.0137476557865738,0.0223341658711433,-0.0719785541296005,-16.319751739501953,0.0455099519543657,0.0212978065422278,2.852131216148881,2.9265575207594727,1.9168784098248768,0.4689381138439162,4.986692670298662,9.67,0.2,0.083,0.182,1
2,1745178887.5801556,6.0,0.0,-5.0,0.0780612006783485,0.2310958355665207,-0.0137476557865738,0.0438695773482322,-0.0319151245057582,-16.32747459411621,0.0449454543457678,0.0218276620031938,2.8521121494759014,3.0920203005030715,2.031748336193992,0.4222676960105435,6.74509363120174,9.67,0.2,0.083,0.182,1
2,1745178887.581938,8.0,0.0,-5.0,0.0780612006783485,0.2310958355665207,-0.0137476557865738,-0.0248261392116546,-0.0990112274885177,-16.303007125854492,0.0449454543457678,0.0218276620031938,2.8521121494759014,2.610384849253197,2.422323146144739,0.4715881443976938,8.609615113310591,9.67,0.2,0.083,0.182,1
2,1745178887.584241,10.0,0.0,-5.0,0.0780612006783485,0.2310958355665207,-0.0137476557865738,-0.0248261392116546,-0.0990112274885177,-16.303007125854492,0.0449454543457678,0.0218276620031938,2.8521121494759014,2.6764302531417545,2.068020124374819,0.5153578753316613,10.52400383433102,9.67,0.2,0.083,0.182,1
2,1745178887.586182,12.0,0.0,-5.0,0.0780612006783485,0.2310958355665207,-0.0137476557865738,-0.0781692862510681,0.016886506229639,-16.38531494140625,0.0449454543457678,0.0218276620031938,2.8521121494759014,2.514026335378864,2.1148161924097604,0.5841855683140786,12.46530549207206,9.67,0.2,0.083,0.182,1
2,1745178887.588184,14.0,0.0,-5.0,0.0923109650611877,0.2275866717100143,-0.1251618713140487,0.0046438090503215,0.011412801221013,-16.362895965576172,0.0449454543457678,0.0218276620031938,2.8521121494759014,2.863040973439502,1.585290023053355,0.426574564185912,14.423405027005684,9.67,0.2,0.083,0.182,0
2,1745178888.3987494,16.0,0.0,-5.0,5.141056537628174,0.2451298236846923,-1.6783514022827148,-0.0466499254107475,-0.0790628790855407,-11.044096946716309,0.7024474700746354,-0.1604745564081597,2.822014176689298,2.619864222133573,2.2589949496165067,0.4058385192902506,14.90225455832567,9.67,0.2,0.083,0.182,0
2,1745178888.8060827,18.0,0.0,-5.0,7.192444324493408,0.3030300736427307,-1.2039028406143188,0.0532186962664127,-0.0367062240839004,-9.608003616333008,0.5475389267080911,-0.0563594108754555,2.865611335291623,3.496865773887761,2.4799710584889554,0.4451620984104415,14.784304751708977,9.67,0.2,0.083,0.182,0
2,1745178889.416558,22.15826182084052,1.4642681989592696,-5.0,9.17770767211914,0.6345394849777222,-0.564498245716095,0.2126957774162292,-0.0105065051466226,-9.58588695526123,0.311484947498085,-0.0033351713523835,2.907051333566562,3.1555656617141707,1.820860521008416,0.4669931623556303,14.429785956689544,9.67,0.2,0.083,0.182,0
2,1745178889.4190176,21.72958504959637,1.3043169350111907,-5.0,9.17770767211914,0.6345394849777222,-0.564498245716095,0.2126957774162292,-0.0105065051466226,-9.58588695526123,0.3081371180785741,-0.0008714792291911,2.9071672520594385,2.8980109497686715,1.8807210050036285,0.5995250493262217,13.996506996432018,9.67,0.2,0.083,0.182,0
2,1745178889.4207618,19.01112278495337,2.2592290439835736,-5.0,9.17770767211914,0.6345394849777222,-0.564498245716095,0.3557396829128265,0.0021457774564623,-9.46475887298584,0.3081371180785741,-0.0008714792291911,2.9071672520594385,2.915314608328877,2.3073964432735243,0.4777791709937624,11.355828917141968,9.67,0.2,0.083,0.182,0
2,1745178889.4233856,17.144507484023514,2.804333089932924,-5.0,9.276239395141602,0.6385234594345093,-0.5472850799560547,0.3194274306297302,-0.0156260505318641,-9.38699722290039,0.3081371180785741,-0.0008714792291911,2.9071672520594385,2.752560987287133,1.7066387608490032,0.5965357168972053,9.269848167025756,9.67,0.2,0.083,0.182,0
2,1745178889.4254224,12.0,0.0,-5.0,9.276239395141602,0.6385234594345093,-0.5472850799560547,0.2785748839378357,-0.083854816854,-9.66603660583496,0.3081371180785741,-0.0008714792291911,2.9071672520594385,3.4455928373792943,1.8492081816002568,0.5683399779057061,4.078954853271621,9.67,0.2,0.083,0.182,1
2,1745178889.4275844,8.081719398498535,0.9544652104377748,-4.38848876953125,9.276239395141602,0.6385234594345093,-0.5472850799560547,0.2785748839378357,-0.083854816854,-9.66603660583496,0.3048080692449325,0.0015033238282824,2.907279266826789,3.061129946498525,1.7606589278748856,0.4153982718299862,2.2281719612772823,9.67,0.2,0.083,0.182,1
2,1745178889.4294071,8.081719398498535,0.9544652104377748,-4.38848876953125,9.276239395141602,0.6385234594345093,-0.5472850799560547,0.2618032097816467,-0.0478993467986583,-9.570679664611816,0.3048080692449325,0.0015033238282824,2.907279266826789,3.231425597132564,1.825810679496206,0.5684401829785022,1.136498078756138,9.67,0.2,0.083,0.182,1
2,1745178889.4321034,8.081719398498535,0.9544652104377748,-4.38848876953125,9.276239395141602,0.6385234594345093,-0.5472850799560547,0.2753682136535644,0.0624557435512542,-9.650941848754885,0.3048080692449325,0.0015033238282824,2.907279266826789,3.1029560680970496,2.0232240197546587,0.4560718351401474,2.370338684030308,9.67,0.2,0.083,0.182,1
2,1745178889.4336944,4.0,0.0,-5.0,9.276239395141602,0.6385234594345093,-0.5472850799560547,0.2753682136535644,0.0624557435512542,-9.650941848754885,0.3048080692449325,0.0015033238282824,2.907279266826789,3.4187760956770825,1.9486470284684287,0.4567011401657151,4.236199130235106,9.67,0.2,0.083,0.182,1
2,1745178889.4357505,2.0,0.0,-5.0,9.276239395141602,0.6385234594345093,-0.5472850799560547,0.3672012984752655,-0.0377135761082172,-9.694525718688965,0.3048080692449325,0.0015033238282824,2.907279266826789,2.956495880713044,2.0740469275665605,0.536713679699719,6.186457844760507,9.67,0.2,0.083,0.182,1
2,1745178889.4374254,0.0,0.0,-5.0,9.276239395141602,0.6385234594345093,-0.5472850799560547,0.3488964736461639,-0.0558939687907695,-9.66834831237793,0.3048080692449325,0.0015033238282824,2.907279266826789,3.3340296957810605,2.3106554420022034,0.5137343017332878,8.16082950802141,9.67,0.2,0.083,0.182,1
3,1745178899.505708,0.0,0.0,-5.0,0.1832062155008316,0.073867492377758,0.3045254051685333,-0.1201046928763389,-0.1323071271181106,-8.565526962280273,0.0220337345669074,-0.0002054147141091,2.92597033345362,2.9213553194225925,1.5473634902151288,0.4766714039314014,2.851537737797543,5.02,0.01,0.124,0.019,1
3,1745178899.5081265,2.0,0.0,-5.0,0.1832062155008316,0.073867492377758,0.3045254051685333,-0.0954906716942787,-0.0826136767864227,-8.578869819641113,0.0220337345669074,-0.0002054147141091,2.92597033345362,3.16650998839876,2.2810028496749304,0.4598658638916257,3.796546566257776,5.02,0.01,0.124,0.019,1
3,1745178899.5110512,4.0,0.0,-5.0,0.1832062155008316,0.073867492377758,0.3045254051685333,0.0093865767121315,-0.022093404084444,-8.637665748596191,0.0220337345669074,-0.0002054147141091,2.92597033345362,2.766350442574596,1.5208439118458228,0.4430297055641383,5.356889413591052,5.02,0.01,0.124,0.019,1
3,1745178899.5141568,6.0,0.0,-5.0,0.1832062155008316,0.073867492377758,0.3045254051685333,-0.0411846190690994,0.0090904831886291,-8.569666862487793,0.0220337345669074,-0.0002054147141091,2.92597033345362,2.577918602538365,1.6966852238504253,0.5634116311137678,7.139941354739832,5.02,0.01,0.124,0.019,1
3,1745178899.5164535,8.0,0.0,-5.0,0.1832062155008316,0.073867492377758,0.3045254051685333,0.0326802432537078,-0.0824880003929138,-11.80531406402588,0.0181988214727056,-6.688051029112109e-06,2.925955105833006,2.5040911752612605,2.2483140468172107,0.4759658926092904,9.014502809850592,5.02,0.01,0.124,0.019,1
3,1745178899.519482,10.0,0.0,-5.0,0.1832062155008316,0.073867492377758,0.3045254051685333,-0.0345037467777729,-0.0070160441100597,-13.42678928375244,0.0181988214727056,-6.688051029112109e-06,2.925955105833006,2.849543883882395,2.160581519445155,0.4817004771852361,10.933606873693805,5.02,0.01,0.124,0.019,1
3,1745178899.521377,12.0,0.0,-5.0,0.1832062155008316,0.073867492377758,0.3045254051685333,-0.0345037467777729,-0.0070160441100597,-13.42678928375244,0.0181988214727056,-6.688051029112109e-06,2.925955105833006,2.619688094501868,1.6265905299355448,0.4041939857558794,12.877354449892438,5.02,0.01,0.124,0.019,1
3,1745178899.52307,14.0,0.0,-5.0,0.1832062155008316,0.073867492377758,0.3045254051685333,-0.051382727921009,-0.1183487400412559,-14.31743621826172,0.0156278307733892,0.0001258699077073,2.925938870624677,3.2506355523192565,1.5023943651208207,0.4565932289474459,14.836062684817854,5.02,0.01,0.124,0.019,0
3,1745178900.5366645,16.0,0.0,-5.0,3.978654146194458,0.182518646121025,-1.7224295139312744,0.02172577008605,-0.0097072459757328,-9.411561965942385,0.2707598532041708,-0.0326270591960935,2.929635353747205,2.654348302930118,1.5675774468681594,0.5806577237047694,14.722196662972102,5.02,0.01,0.124,0.019,0
3,1745178901.0445971,18.0,0.0,-5.0,4.851954460144043,0.1828181445598602,-1.2818448543548584,-0.0071960277855396,-0.0059857070446014,-8.737128257751465,0.150115179520706,0.0051915577936189,2.931080084880198,2.904584520531685,2.204247050934013,0.5185933530206301,14.52370910769842,5.02,0.01,0.124,0.019,0
3,1745178901.4519477,20.0,0.0,-5.0,5.262509346008301,0.1648815721273422,-0.8938443064689636,0.0434010662138462,-0.0677429139614105,-8.825286865234375,0.0724259566150451,0.0258392633735857,2.929015415115987,2.776450759524933,2.067165333649697,0.5946726051704467,14.597485809490111,5.02,0.01,0.124,0.019,0
3,1745178901.5556896,20.764893864751222,2.770608794275123,-5.0,5.356991291046143,0.1577855050563812,-0.7948779463768005,0.0013798289000988,-0.0185528974980115,-8.959783554077148,0.0415795550696359,-0.0069420401898734,2.928293557117624,3.292729750417396,2.290383965762471,0.440011280004788,14.982760519208565,5.02,0.01,0.124,0.019,0
3,1745178901.557704,20.393809360889456,2.765411227543492,-5.0,5.356991291046143,0.1577855050563812,-0.7948779463768005,0.1108988150954246,0.0173260569572448,-8.928893089294434,0.0415795550696359,-0.0069420401898734,2.928293557117624,2.849335584373188,1.6119759092617154,0.4718939424314955,14.616985334311137,5.02,0.01,0.124,0.019,0
3,1745178901.5595748,18.988201369551344,1.812658265616392,-5.0,5.3780517578125,0.1603729128837585,-0.7732501029968262,0.1108988150954246,0.0173260569572448,-8.928893089294434,0.0415795550696359,-0.0069420401898734,2.928293557117624,3.4694845794017333,2.3598556688094416,0.4921665812177594,12.923293975815763,5.02,0.01,0.124,0.019,0
3,1745178901.562898,12.0,0.0,-5.0,5.3780517578125,0.1603729128837585,-0.7732501029968262,0.0573321916162967,-0.0234334785491228,-8.94989013671875,0.0415795550696359,-0.0069420401898734,2.928293557117624,2.93086619373861,2.0281670053404057,0.5165789042420916,5.831086199781683,5.02,0.01,0.124,0.019,1
3,1745178901.5648658,10.0,0.0,-5.0,5.3780517578125,0.1603729128837585,-0.7732501029968262,0.1079059243202209,-0.0166618172079324,-8.925472259521484,0.0379138410160895,-0.0139221988106562,2.92828971154325,3.264251271064895,2.2131442435890367,0.4878411458565183,3.839440928180624,5.02,0.01,0.124,0.019,1
3,1745178901.5671215,6.184935092926025,0.1060366854071617,-4.581260681152344,5.3780517578125,0.1603729128837585,-0.7732501029968262,0.13833749294281,0.0031470390968024,-8.941863059997559,0.0379138410160895,-0.0139221988106562,2.92828971154325,2.930961919746111,2.421059620721405,0.4681335187701614,1.865756418371003,5.02,0.01,0.124,0.019,1
3,1745178901.569853,6.184935092926025,0.1060366854071617,-4.581260681152344,5.3780517578125,0.1603729128837585,-0.7732501029968262,0.0428008064627647,-0.01659513451159,-9.003009796142578,0.0379138410160895,-0.0139221988106562,2.92828971154325,3.1593475697743814,2.480444631005826,0.4340286955302508,0.4698801808936977,5.02,0.01,0.124,0.019,1
3,1745178901.6715689,4.0,0.0,-5.0,5.427239894866943,0.2174665629863739,-0.7419215440750122,-0.0316083952784538,-0.0530190505087375,-11.135730743408203,-0.126626153408864,-0.01890010332497,2.9339625819806407,2.939030469373212,1.738970039650507,0.4171770034796964,2.7886231552196263,5.02,0.01,0.124,0.019,1
3,1745178901.673506,2.0,0.0,-5.0,5.427239894866943,0.2174665629863739,-0.7419215440750122,-0.0316083952784538,-0.0530190505087375,-11.135730743408203,-0.126626153408864,-0.01890010332497,2.9339625819806407,2.751391646497891,2.407365710847805,0.4218718438264155,4.778932339900472,5.02,0.01,0.124,0.019,1
3,1745178901.6759908,0.0,0.0,-5.0,5.427239894866943,0.2174665629863739,-0.7419215440750122,0.0208070278167724,-0.009135965257883,-11.138032913208008,-0.126626153408864,-0.01890010332497,2.9339625819806407,2.5871899179949445,2.075789733724547,0.5719236301337235,6.774951624688263,5.02,0.01,0.124,0.019,1
4,1745178929.6691964,0.0,0.0,-5.0,0.6165546178817749,-0.0383597575128078,0.0244405008852481,0.0328009873628616,0.0565848052501678,-9.749553680419922,-0.0358363739275856,-0.0166606029211178,-1.0445781234043086,2.54567513594786,2.2449331911297703,0.5791957819849816,3.30552461142708,5.05,0.17,0.109,0.054,0
4,1745178929.671286,2.0,0.0,-5.0,0.6165546178817749,-0.0383597575128078,0.0244405008852481,-0.1316727250814438,0.1011700332164764,-9.718655586242676,-0.0358363739275856,-0.0166606029211178,-1.0445781234043086,2.820458591999072,2.4741058849353648,0.4807444379125982,4.727928811935738,5.05,0.17,0.109,0.054,0
4,1745178929.673381,4.0,0.0,-5.0,0.6124889850616455,-0.0415786765515804,0.0256856381893157,-0.1316727250814438,0.1011700332164764,-9.718655586242676,-0.0354949408546315,-0.0171978709128079,-1.0445840719119095,2.811621640064065,2.1363450658066085,0.4297127651123534,6.451004782858926,5.05,0.17,0.109,0.054,0
4,1745178929.6770525,6.0,0.0,-5.0,0.6124889850616455,-0.0415786765515804,0.0256856381893157,0.1293165981769561,0.0561983436346054,-9.739066123962402,-0.0354949408546315,-0.0171978709128079,-1.0445840719119095,3.453263217076667,1.979653655940692,0.5929374553981575,8.305768517000258,5.05,0.17,0.109,0.054,0
4,1745178929.680271,8.0,0.0,-5.0,0.6124889850616455,-0.0415786765515804,0.0256856381893157,-0.0113767925649881,0.0318576097488403,-9.794140815734863,-0.0354949408546315,-0.0171978709128079,-1.0445840719119095,2.630023243504936,2.3687100107386008,0.4065698098102367,10.21548425712245,5.05,0.17,0.109,0.054,0
4,1745178929.6819165,10.0,0.0,-5.0,0.6124889850616455,-0.0415786765515804,0.0256856381893157,-0.0113767925649881,0.0318576097488403,-9.794140815734863,-0.0351444226297529,-0.017719242589552,-1.044597946917153,2.883703876064927,2.2619536101242472,0.4179626765191878,12.154276883346064,5.05,0.17,0.109,0.054,0
4,1745178930.8966782,15.513002010334798,2.939857069627584,-5.0,4.291368007659912,0.6926419138908386,-1.5677238702774048,-0.0545973740518093,0.0554569698870182,-8.777591705322266,-0.0970587607679865,0.2083971577263743,-1.0284893529183723,3.0519046200970834,2.348787246239633,0.4609773643454063,14.966695225681242,5.05,0.17,0.109,0.054,0
4,1745178931.2019389,16.49392202923884,2.084051197710621,-5.0,4.700423240661621,0.6995489001274109,-1.1995340585708618,-0.0227927677333354,-0.1243036836385726,-8.575151443481445,-0.1190769697611756,0.1299241626222828,-1.037307264703603,2.618533529910489,1.6981595882485916,0.4258352425271054,14.574995957290904,5.05,0.17,0.109,0.054,0
4,1745178931.2044716,16.0,0.0,-5.0,4.700423240661621,0.6995489001274109,-1.1995340585708618,-0.0333513058722019,-0.0214621387422084,-8.526280403137207,-0.1190769697611756,0.1299241626222828,-1.037307264703603,2.7061923585161787,2.2045679996552643,0.4685752643145299,14.03772056301588,5.05,0.17,0.109,0.054,0
4,1745178931.5099406,18.0,0.0,-5.0,5.053562164306641,0.5079473257064819,-0.8300724625587463,-0.0699780136346817,-0.0047180019319057,-8.592028617858887,-0.1813800912806918,0.0276248813934996,-1.0465992890324205,2.622455677125381,1.9136083515932565,0.4651041583274606,14.548614190250143,5.05,0.17,0.109,0.054,0
4,1745178931.8157544,20.0,0.0,-5.0,5.309461116790772,0.2415084391832351,-0.5054631233215332,0.0064593032002449,-0.00326510053128,-8.88007926940918,-0.1277766931428954,0.0058408266522238,-1.0481578018509727,3.27488675457882,2.401623325954624,0.5201382805459877,14.954728203813714,5.05,0.17,0.109,0.054,0
4,1745178931.81801,18.0,0.0,-5.0,5.309461116790772,0.2415084391832351,-0.5054631233215332,0.0064593032002449,-0.00326510053128,-8.88007926940918,-0.1277766931428954,0.0058408266522238,-1.0481578018509727,3.3474556816745915,2.3277141737184897,0.5578467052221349,12.959991862985952,5.05,0.17,0.109,0.054,0
4,1745178931.8208747,16.0,0.0,-5.0,5.309461116790772,0.2415084391832351,-0.5054631233215332,-0.0851359441876411,-0.0632340461015701,-8.809000015258789,-0.1277766931428954,0.0058408266522238,-1.0481578018509727,3.1041222604380545,1.5191465506446993,0.4888093361795462,10.967172950554886,5.05,0.17,0.109,0.054,0
4,1745178931.824728,14.0,0.0,-5.0,5.334987163543701,0.2180331647396087,-0.4714390635490417,-0.0529630407691001,-0.0196107346564531,-8.867990493774414,-0.126517304032807,0.0051981114503999,-1.048199550829554,3.1711152846876747,1.943219651888398,0.4194885710961955,8.778690462977968,5.05,0.17,0.109,0.054,0
4,1745178931.8268418,12.0,0.0,-5.0,5.334987163543701,0.2180331647396087,-0.4714390635490417,-0.0529630407691001,-0.0196107346564531,-8.867990493774414,-0.126517304032807,0.0051981114503999,-1.048199550829554,2.6854026185839284,2.1371519930309613,0.5748352999531355,6.796108398599,5.05,0.17,0.109,0.054,1
4,1745178931.8300872,10.0,0.0,-5.0,5.334987163543701,0.2180331647396087,-0.4714390635490417,0.0129721239209175,0.0384490340948104,-8.852813720703125,-0.1253106803498859,0.0045489336019592,-1.04823335501636,3.280225552723792,1.6629811930359637,0.4893624190925468,4.827915956832245,5.05,0.17,0.109,0.054,1
4,1745178931.8326004,8.0,0.0,-5.0,5.334987163543701,0.2180331647396087,-0.4714390635490417,0.0931162536144256,-0.0576093271374702,-8.790441513061523,-0.1253106803498859,0.0045489336019592,-1.04823335501636,3.3483444521279004,1.731318010071324,0.5994211284129665,2.9035246868182387,5.05,0.17,0.109,0.054,1
4,1745178931.8361914,5.280420780181885,1.007855772972107,-4.8637237548828125,5.334987163543701,0.2180331647396087,-0.4714390635490417,-0.018710471689701,-0.0328875966370105,-8.777545928955078,-0.1253106803498859,0.0045489336019592,-1.04823335501636,2.975514117539121,1.847435756104648,0.5381927570237222,1.2458485974188398,5.05,0.17,0.109,0.054,1
4,1745178931.839233,5.280420780181885,1.007855772972107,-4.8637237548828125,5.334987163543701,0.2180331647396087,-0.4714390635490417,-0.0245162155479192,-0.0425537526607513,-8.81933879852295,-0.1253106803498859,0.0045489336019592,-1.04823335501636,2.563653752587541,1.97133790740792,0.4449089365329602,1.63518251226523,5.05,0.17,0.109,0.054,1
4,1745178931.8428023,2.0,0.0,-5.0,5.334987163543701,0.2180331647396087,-0.4714390635490417,-0.0372366085648536,-0.0676393881440162,-8.785711288452148,-0.1237448623889687,0.0036704881527204,-1.0482642061830127,2.639854834649992,2.493961755969414,0.4688765109625179,3.434458468106081,5.05,0.17,0.109,0.054,1
4,1745178931.845308,0.0,0.0,-5.0,5.334987163543701,0.2180331647396087,-0.4714390635490417,-0.1188607215881347,-0.033972717821598,-8.786179542541504,-0.1237448623889687,0.0036704881527204,-1.0482642061830127,3.3970188953599822,2.009443853950331,0.4668612581837779,5.377470417387074,5.05,0.17,0.109,0.054,1
5,1745178938.2540302,0.0,0.0,-5.0,0.4851188361644745,0.0255196578800678,0.3452191948890686,0.0029649771749973,0.0285589564591646,-8.75514030456543,0.0086077639846721,0.0464231490595434,-1.0639652080747073,3.071421193922331,1.95195527777174,0.4390951155693045,3.712501254146831,4.41,0.13,0.198,0.14,1
5,1745178938.25621,2.0,0.0,-5.0,0.4851188361644745,0.0255196578800678,0.3452191948890686,0.0109283234924077,0.1120179295539856,-8.679315567016602,0.0086077639846721,0.0464231490595434,-1.0639652080747073,2.7414845442946785,1.91618087890036,0.4864978219737335,5.30614210581937,4.41,0.13,0.198,0.14,1
5,1745178938.259086,4.0,0.0,-5.0,0.4851188361644745,0.0255196578800678,0.3452191948890686,0.0164090748876333,0.0450615137815475,-8.732748985290527,0.0086077639846721,0.0464231490595434,-1.0639652080747073,3.225830505027236,1.6502471165306314,0.5881350037785312,7.108278450669799,4.41,0.13,0.198,0.14,1
5,1745178938.2617147,6.0,0.0,-5.0,0.5017041563987732,0.0329991802573204,0.3868318498134613,-0.0157449394464492,0.0690943673253059,-8.748238563537598,0.0072806963262375,0.0395768035979875,-1.0642958212345155,2.755180494637781,1.6521843118505346,0.4371995736193552,8.977210755933653,4.41,0.13,0.198,0.14,1
5,1745178938.2642653,8.0,0.0,-5.0,0.5017041563987732,0.0329991802573204,0.3868318498134613,0.021180035546422,0.0786647349596023,-8.71463394165039,0.0072806963262375,0.0395768035979875,-1.0642958212345155,3.1231347394942297,1.8408672632053111,0.5361361673232647,10.902936634268974,4.41,0.13,0.198,0.14,1
5,1745178938.265991,10.0,0.0,-5.0,0.5017041563987732,0.0329991802573204,0.3868318498134613,0.021180035546422,0.0786647349596023,-8.71463394165039,0.0072806963262375,0.0395768035979875,-1.0642958212345155,2.786565363255172,1.6047034681719938,0.5350697704485938,12.851371193196393,4.41,0.13,0.198,0.14,1
5,1745178938.2681627,12.0,0.0,-5.0,0.5017041563987732,0.0329991802573204,0.3868318498134613,-0.0131595088168978,-0.0061607472598552,-10.96483325958252,0.0072806963262375,0.0395768035979875,-1.0642958212345155,2.534501524227099,2.196752204250539,0.4349187438642053,14.813556488559785,4.41,0.13,0.198,0.14,1
5,1745178939.7890418,16.50660533737327,1.0369087689397194,-5.0,4.399344444274902,0.5587304830551147,-1.2687740325927734,-0.0755409523844719,0.0121851684525609,-8.708714485168457,-0.0680636970572552,0.0605191130030073,-1.0602488443768403,3.443376434172977,2.125505586622835,0.4168024069719566,14.808960841513697,4.41,0.13,0.198,0.14,0
5,1745178940.6005387,20.4625405039667,2.0068563385014544,-5.0,4.865785598754883,0.666296124458313,-0.4353305399417877,0.0314209833741188,-0.0378196910023689,-8.855569839477539,-0.0256396461101572,-0.0244552096617974,-1.0626741871642915,2.6008499427134986,2.044726922182556,0.5196438756826165,14.685158964303588,4.41,0.13,0.198,0.14,0
5,1745178940.906282,22.216662251723,2.5929220788633973,-5.0,4.91339921951294,0.6865061521530151,-0.2101087421178817,-0.0723063796758651,-0.0668192356824874,-9.036527633666992,-0.0069016046787543,-0.033545062063257,-1.0645205827837398,3.459279888356198,2.27840845053292,0.4613626168745073,14.884209277586976,4.41,0.13,0.198,0.14,0
5,1745178941.0096643,22.666645144774705,2.387758277013836,-5.0,4.918212890625,0.696539044380188,-0.1443911045789718,0.0179667733609676,-0.015443617478013,-9.195951461791992,-0.0106676495347103,-0.0391834573845295,-1.0647891859787966,3.099844335908604,1.900885065494729,0.5026377913909421,14.771316785663902,4.41,0.13,0.198,0.14,0
5,1745178941.011719,18.0,0.0,-5.0,4.918212890625,0.696539044380188,-0.1443911045789718,-0.0252515915781259,-0.0353502705693244,-9.147339820861816,-0.0106676495347103,-0.0391834573845295,-1.0647891859787966,2.622198194245237,1.8045003493293224,0.5356855201432669,10.05432178872099,4.41,0.13,0.198,0.14,0
5,1745178941.014023,16.0,0.0,-5.0,4.918212890625,0.696539044380188,-0.1443911045789718,-0.0252515915781259,-0.0353502705693244,-9.147339820861816,-0.0106676495347103,-0.0391834573845295,-1.0647891859787966,2.611085508843026,1.9299193512195647,0.5886233352870853,8.062620335125615,4.41,0.13,0.198,0.14,0
5,1745178941.0158846,14.0,0.0,-5.0,4.918212890625,0.696539044380188,-0.1443911045789718,0.0354186594486236,-0.0241672173142433,-9.148606300354004,-0.0106676495347103,-0.0391834573845295,-1.0647891859787966,3.054156850870962,1.582882968566441,0.4594036099607901,6.076372824770757,4.41,0.13,0.198,0.14,0
5,1745178941.017566,12.0,0.0,-5.0,4.918212890625,0.696539044380188,-0.1443911045789718,0.0652782842516899,-0.0244663618505001,-8.983068466186523,-0.0106676495347103,-0.0391834573845295,-1.0647891859787966,2.832752049050512,2.30184710334149,0.472718907930856,4.103506639795285,4.41,0.13,0.198,0.14,1
5,1745178941.0203743,7.979115009307861,0.8175832033157349,-5.052993774414063,4.918212890625,0.696539044380188,-0.1443911045789718,-0.0174408890306949,-0.0208120513707399,-9.16593074798584,-0.0113770077413853,-0.0397768435268738,-1.064809357404717,2.547432779892161,2.42679213610746,0.4491343241875656,2.1806482476721074,4.41,0.13,0.198,0.14,1
5,1745178941.0222757,7.979115009307861,0.8175832033157349,-5.052993774414063,4.918212890625,0.696539044380188,-0.1443911045789718,-0.0174408890306949,-0.0208120513707399,-9.16593074798584,-0.0113770077413853,-0.0397768435268738,-1.064809357404717,2.7385525618898594,1.8902524823344435,0.4451337335805952,0.8195650171321843,4.41,0.13,0.198,0.14,1
5,1745178941.0241752,7.979115009307861,0.8175832033157349,-5.052993774414063,4.918212890625,0.696539044380188,-0.1443911045789718,0.0141130946576595,-0.0980325490236282,-9.2085542678833,-0.0113770077413853,-0.0397768435268738,-1.064809357404717,3.0234097144696577,1.7214705792164309,0.43962973353543,2.141995997787653,4.41,0.13,0.198,0.14,1
5,1745178941.0278308,4.0,0.0,-5.0,4.918212890625,0.696539044380188,-0.1443911045789718,-0.0260259211063385,-0.0015477929264307,-9.125395774841309,-0.0113770077413853,-0.0397768435268738,-1.064809357404717,3.332463854443158,2.1287906589855887,0.589029901843027,4.062586231918009,4.41,0.13,0.198,0.14,1
5,1745178941.0311344,2.0,0.0,-5.0,4.9191575050354,0.6973780989646912,-0.1222746074199676,-0.0916285589337349,0.0145658832043409,-9.134678840637209,-0.0123766018848374,-0.0405465071898382,-1.0647980118106048,3.416969625579683,2.0688837072349235,0.4558175947626671,6.2296789606711975,4.41,0.13,0.198,0.14,1
5,1745178941.0329692,0.0,0.0,-5.0,4.9191575050354,0.6973780989646912,-0.1222746074199676,-0.0259009804576635,0.0886419862508773,-9.177595138549805,-0.0123766018848374,-0.0405465071898382,-1.0647980118106048,3.448657209629116,2.364856751433237,0.4359793185048009,8.215497382201818,4.41,0.13,0.198,0.14,1
6,1745179380.5155573,-0.0402866005897522,0.0093400785699486,-2.6348800659179688,0.0143611915409564,-0.0410767421126365,0.2078349292278289,-0.0723921209573745,-0.050696462392807,-15.21374225616455,0.004723294341255,0.0013096243878152,-3.0497862152407267,2.839658846686529,2.1792351041934586,0.4068981572675421,2.365481462587894,7.29,0.18,0.194,0.094,1
6,1745179380.517244,2.0,0.0,-5.0,0.0143611915409564,-0.0410767421126365,0.2078349292278289,-0.0826927497982978,-0.0342717915773391,-15.82951831817627,0.004723294341255,0.0013096243878152,-3.0497862152407267,3.27219039535553,2.2326530352623104,0.5886261298334948,3.123563502188801,7.29,0.18,0.194,0.094,1
6,1745179380.519229,4.0,0.0,-5.0,0.0143611915409564,-0.0410767421126365,0.2078349292278289,-0.0826927497982978,-0.0342717915773391,-15.82951831817627,0.0047321116349828,0.0014123292411057,-3.049867977321881,3.152225226561309,1.6436891586354363,0.4115174523293761,4.68164451390374,7.29,0.18,0.194,0.094,1
6,1745179380.5205712,6.0,0.0,-5.0,0.0143611915409564,-0.0410767421126365,0.2078349292278289,-0.0974295437335968,-0.044251799583435,-16.066884994506836,0.0047321116349828,0.0014123292411057,-3.049867977321881,3.205502039776257,1.956330873061909,0.4599258286508809,6.486828327998514,7.29,0.18,0.194,0.094,1
6,1745179380.5226605,8.0,0.0,-5.0,0.0143611915409564,-0.0410767421126365,0.2078349292278289,-0.0974295437335968,-0.044251799583435,-16.066884994506836,0.0047321116349828,0.0014123292411057,-3.049867977321881,3.380661746615149,1.6156340309059525,0.4879246123596714,8.380935995417397,7.29,0.18,0.194,0.094,1
6,1745179380.525518,10.0,0.0,-5.0,0.0143611915409564,-0.0410767421126365,0.2078349292278289,-0.1072005182504654,-0.0199690982699394,-16.272567749023438,0.0047321116349828,0.0014123292411057,-3.049867977321881,3.43531943158011,2.2587747109435083,0.4932257843091754,10.315097409217326,7.29,0.18,0.194,0.094,1
6,1745179380.5268655,12.0,0.0,-5.0,0.0143611915409564,-0.0410767421126365,0.2078349292278289,-0.0201057493686676,-0.0851992666721344,-16.371185302734375,0.0047321116349828,0.0014123292411057,-3.049867977321881,3.116709861500488,1.687146982899047,0.4094640213812969,12.270386341269008,7.29,0.18,0.194,0.094,1
6,1745179380.5295165,14.0,0.0,-5.0,0.0143611915409564,-0.0410767421126365,0.2078349292278289,-0.0104426443576812,-0.074707493185997,-16.402578353881836,0.0047481376413936,0.0015280194729824,-3.0499383331116645,3.037589816320642,1.9652932848188829,0.4576359931996256,14.238101255657654,7.29,0.18,0.194,0.094,1
6,1745179380.5310495,16.0,0.0,-5.0,0.0143611915409564,-0.0410767421126365,0.2078349292278289,-0.0104426443576812,-0.074707493185997,-16.402578353881836,0.0047481376413936,0.0015280194729824,-3.0499383331116645,2.6355142039707653,2.0571287542331267,0.5604321280645534,16.213718690316515,7.29,0.18,0.194,0.094,1
6,1745179380.5334532,18.0,0.0,-5.0,0.0143611915409564,-0.0410767421126365,0.2078349292278289,-0.0275226160883903,-0.0390918664634227,-16.358997344970703,0.0047481376413936,0.0015280194729824,-3.0499383331116645,2.6329506581660835,2.0248864957055663,0.5687546710088228,18.194664607270948,7.29,0.18,0.194,0.094,1
6,1745179380.5793564,20.0,0.0,-5.0,0.0233550649136304,-0.0328240543603897,-0.0995207875967025,0.0404185876250267,-0.0336197204887867,-16.12559700012207,0.024292100124378,0.0042044182575636,-3.0501381286436096,3.1403095014163847,2.398610169931748,0.4386797175849905,20.177035988993552,7.29,0.18,0.194,0.094,1
6,1745179380.6287446,18.0,0.0,-5.0,0.0419546514749527,-0.0308034364134073,-0.2677965760231018,-0.0001646131277084,0.0544890090823173,-15.49277114868164,0.0817578925470836,0.0093464127532267,-3.0499724216441924,2.869717907327825,2.255240357601648,0.472429344676081,18.19000176320369,7.29,0.18,0.194,0.094,1
6,1745179380.67666,16.0,0.0,-5.0,0.0935068652033805,-0.0281103570014238,-0.4847763478755951,0.0086516253650188,-0.0058150459080934,-16.078662872314453,0.178334478477877,0.01794531623884,-3.048948191868252,2.6431482193998184,1.911508748845729,0.5978517893303056,16.203333920550982,7.29,0.18,0.194,0.094,1
6,1745179381.5983143,14.0,0.0,-5.0,5.621888637542725,0.0031237723305821,-1.2332168817520142,0.083988256752491,-0.0572720021009445,-9.686654090881348,0.3602535357409135,0.0714385626530915,-3.036971442360985,2.7152911171272773,1.6124747262366286,0.5197839581087468,11.701573194239703,7.29,0.18,0.194,0.094,1
6,1745179381.5999503,12.0,0.0,-5.0,5.797823905944824,-0.0809106826782226,-1.204099416732788,-0.0069421529769897,-0.033455491065979,-9.684718132019045,0.3529884783089805,0.058632524657308,-3.047393683747193,2.8194690973198817,2.07885960014148,0.5577792735528493,9.372891637821883,7.29,0.18,0.194,0.094,0
6,1745179381.604442,14.014867295283242,2.125280190375479,-5.0,5.797823905944824,-0.0809106826782226,-1.204099416732788,-0.0312195122241973,-0.0986801832914352,-9.683855056762695,0.3529884783089805,0.058632524657308,-3.047393683747193,3.131941584152998,2.077135691692583,0.5752111283991105,11.580968692070412,7.29,0.18,0.194,0.094,0
6,1745179381.606002,10.952904329949751,1.988331490948231,-5.0,5.797823905944824,-0.0809106826782226,-1.204099416732788,0.0183673799037933,-0.0264774952083826,-9.7268705368042,0.3529884783089805,0.058632524657308,-3.047393683747193,3.039877383201313,2.245033584216745,0.4762407425252835,8.580493807044439,7.29,0.18,0.194,0.094,0
6,1745179381.6120944,6.0,0.0,-5.0,5.797823905944824,-0.0809106826782226,-1.204099416732788,0.0163562782108783,-0.0401311740279197,-9.84748363494873,0.3512384299317788,0.0548181022888259,-3.050015811681961,3.188864766577628,2.140429076298348,0.4148306642172927,3.499869967362447,7.29,0.18,0.194,0.094,0
6,1745179381.6142333,2.6998326778411865,-0.0503524504601955,-3.835762023925781,5.797823905944824,-0.0809106826782226,-1.204099416732788,0.1571105122566223,0.0531592294573783,-9.840248107910156,0.3512384299317788,0.0548181022888259,-3.050015811681961,3.295242218145284,1.546704377577925,0.4869455515429932,1.745972651506993,7.29,0.18,0.194,0.094,0
6,1745179381.615386,2.6998326778411865,-0.0503524504601955,-3.835762023925781,5.797823905944824,-0.0809106826782226,-1.204099416732788,0.1571105122566223,0.0531592294573783,-9.840248107910156,0.3512384299317788,0.0548181022888259,-3.050015811681961,2.6678224016575705,1.7396187018658626,0.5161797813299763,1.3593201282902811,7.29,0.18,0.194,0.094,0
6,1745179381.617522,0.0,0.0,-5.0,5.797823905944824,-0.0809106826782226,-1.204099416732788,0.0656511485576629,-0.0167530551552772,-9.79990005493164,0.3512384299317788,0.0548181022888259,-3.050015811681961,3.263713719520042,1.5635836548959383,0.4370793669882582,2.9405921040735747,7.29,0.18,0.194,0.094,0
7,1745179389.4629605,0.0,0.0,-5.0,0.1367993205785751,0.0399874188005924,0.2241411954164505,-0.0165465772151947,-0.0216311141848564,-9.001851081848145,-0.0014950751693781,0.0004662770832019,-3.118487506420651,2.733198876673619,2.4623125464709186,0.498470382052149,2.806651702497694,5.4,0.06,0.136,0.044,0
7,1745179389.4648802,2.0,0.0,-5.0,0.1474166810512542,0.047695729881525,0.2568188011646271,0.0012513883411884,0.0232603512704372,-9.03670883178711,-0.0014950751693781,0.0004662770832019,-3.118487506420651,3.011710665170929,2.344713591384716,0.597299633045473,3.1473291906733816,5.4,0.06,0.136,0.044,0
7,1745179389.4664,4.0,0.0,-5.0,0.1474166810512542,0.047695729881525,0.2568188011646271,-0.0155139695852994,-0.0608488097786903,-8.954593658447266,-0.0014950751693781,0.0004662770832019,-3.118487506420651,2.548636351847072,2.3607261021100188,0.472246583496329,4.454117743560423,5.4,0.06,0.136,0.044,0
7,1745179389.4693143,6.0,0.0,-5.0,0.1474166810512542,0.047695729881525,0.2568188011646271,-0.0155139695852994,-0.0608488097786903,-8.954593658447266,-0.0014950751693781,0.0004662770832019,-3.118487506420651,2.9737386236454126,1.9894214682436893,0.4593806179975166,6.145945713438644,5.4,0.06,0.136,0.044,0
7,1745179389.4718394,8.0,0.0,-5.0,0.1474166810512542,0.047695729881525,0.2568188011646271,-0.1355782449245453,-0.0544227138161659,-11.619837760925291,-0.0005048546021275,0.000111832513273,-3.118485596100192,3.411133011192567,1.7757422444029405,0.5412514973146554,7.981612152414439,5.4,0.06,0.136,0.044,0
7,1745179389.473311,10.0,0.0,-5.0,0.1474166810512542,0.047695729881525,0.2568188011646271,-0.0190596356987953,-0.0826690196990966,-13.145467758178713,-0.0005048546021275,0.000111832513273,-3.118485596100192,3.31171941987074,1.6398671048602644,0.43149805904804,9.881276050723656,5.4,0.06,0.136,0.044,0
7,1745179389.4751482,16.166953577651228,1.8594604478498336,-5.0,0.1474166810512542,0.047695729881525,0.2568188011646271,-0.0190596356987953,-0.0826690196990966,-13.145467758178713,-0.0005048546021275,0.000111832513273,-3.118485596100192,3.1701233508401576,1.85605740853267,0.4043517179932244,15.98321957418072,5.4,0.06,0.136,0.044,0
7,1745179389.4779563,14.0,0.0,-5.0,0.1474166810512542,0.047695729881525,0.2568188011646271,-0.0898248553276062,-0.1039727628231048,-13.879021644592283,-0.0005048546021275,0.000111832513273,-3.118485596100192,2.523406022671199,1.9943999871270708,0.5374029815471417,13.76613904000228,5.4,0.06,0.136,0.044,1
7,1745179389.4791954,16.0,0.0,-5.0,0.1474166810512542,0.047695729881525,0.2568188011646271,-0.0667724162340164,0.0517711266875267,-14.25241470336914,-0.0005048546021275,0.000111832513273,-3.118485596100192,2.701023890227205,1.5336503139351574,0.5372361394322114,15.730227840298754,5.4,0.06,0.136,0.044,1
7,1745179389.4821968,18.0,0.0,-5.0,0.1474166810512542,0.047695729881525,0.2568188011646271,-0.0615549869835376,-0.0587748996913433,-14.552030563354492,-0.0005048546021275,0.000111832513273,-3.118485596100192,2.855618393981221,1.699363714720849,0.589485832772924,17.702360061493074,5.4,0.06,0.136,0.044,1
7,1745179389.4835188,20.0,0.0,-5.0,0.1474166810512542,0.047695729881525,0.2568188011646271,-0.0615549869835376,-0.0587748996913433,-14.552030563354492,0.0005142979892155,-0.0002531571764782,-3.118487979473942,2.5638482502955218,1.710589019822402,0.486684544392846,19.68011777367656,5.4,0.06,0.136,0.044,1
7,1745179389.4861531,18.0,0.0,-5.0,0.1474166810512542,0.047695729881525,0.2568188011646271,-0.0851860344409942,-0.047459315508604,-14.702872276306152,0.0005142979892155,-0.0002531571764782,-3.118487979473942,2.832145031754174,2.147508970580269,0.5734671636374911,17.702360061493074,5.4,0.06,0.136,0.044,1
7,1745179389.4873838,16.0,0.0,-5.0,0.1474166810512542,0.047695729881525,0.2568188011646271,-0.0851860344409942,-0.047459315508604,-14.702872276306152,0.0005142979892155,-0.0002531571764782,-3.118487979473942,2.5592827305323755,1.8700516257616329,0.4858846633710731,15.730227840298754,5.4,0.06,0.136,0.044,1
7,1745179389.4895074,14.0,0.0,-5.0,0.1474166810512542,0.047695729881525,0.2568188011646271,-0.0141091495752334,-0.0595546439290046,-14.159342765808104,0.0005142979892155,-0.0002531571764782,-3.118487979473942,3.0248208496312827,2.400413508277533,0.4774337819708855,13.76613904000228,5.4,0.06,0.136,0.044,1
7,1745179389.492417,12.0,0.0,-5.0,0.1474166810512542,0.047695729881525,0.2568188011646271,-0.0516277626156806,-0.0548511743545532,-13.751760482788086,0.0001075101619091,-0.0002025021295859,-3.11849227190001,3.2737607127829773,2.060706584125823,0.4521094747148111,11.814105985204296,5.4,0.06,0.136,0.044,1
7,1745179389.4947724,10.0,0.0,-5.0,0.1474166810512542,0.047695729881525,0.2568188011646271,-0.0485235191881656,-0.0419236458837986,-13.49834156036377,0.0001075101619091,-0.0002025021295859,-3.11849227190001,3.338276371176742,1.5992191373494389,0.5539333285479594,9.881276050723656,5.4,0.06,0.136,0.044,1
7,1745179389.4964342,8.0,0.0,-5.0,0.1474166810512542,0.047695729881525,0.2568188011646271,-0.0485235191881656,-0.0419236458837986,-13.49834156036377,0.0001075101619091,-0.0002025021295859,-3.11849227190001,3.282679035614952,1.5636864573875666,0.5944037997101292,7.981612152414439,5.4,0.06,0.136,0.044,1
7,1745179389.4989295,6.0,0.0,-5.0,0.155625581741333,0.0541394092142581,0.2291139960289001,0.0079071819782257,0.0312234349548816,-13.36537742614746,0.0001075101619091,-0.0002025021295859,-3.11849227190001,2.5190577482188603,1.971950276033972,0.5251716359784223,6.139099967989814,5.4,0.06,0.136,0.044,1
7,1745179389.543909,4.0,0.0,-5.0,0.1658645868301391,0.0611017532646656,0.0928705632686615,0.0744812190532684,-0.0064838174730539,-15.934733390808104,0.0143258900145035,0.003879369559217,-3.1184341000287668,2.5054437780029875,2.0993822005841625,0.4317595915180191,4.4430190752418905,5.4,0.06,0.136,0.044,1
7,1745179389.5914347,2.0,0.0,-5.0,0.1954411566257476,0.06595940887928,-0.119631752371788,0.0381918102502822,-0.0955314487218856,-16.263994216918945,0.0914214612526005,0.0088406833738352,-3.117940089109742,2.715686005870595,2.404704618978191,0.4525278720665982,3.1454637225740414,5.4,0.06,0.136,0.044,1
7,1745179389.6390345,0.0,0.0,-5.0,0.3240678608417511,0.0707699283957481,-0.510124921798706,0.0214731972664594,-0.0053743831813335,-16.229230880737305,0.1710471350283981,0.0136647415243269,-3.117057945051093,3.226156015837998,1.9970032353693044,0.5765103473420151,2.8455381253846594,5.4,0.06,0.136,0.044,1
8,1745179405.594439,1.208954691886902,0.4639560580253601,-3.321205139160156,-0.2915284037590027,-0.5535454154014587,-0.7915356755256653,-0.0477329865097999,-0.0936631634831428,-8.975747108459473,0.0702921360676966,-0.1063183623503432,-3.106494811756193,3.270124345313738,2.015800487056365,0.4875754211443006,2.1201836844000232,6.16,0.08,0.039,0.13,1
8,1745179405.5962498,1.208954691886902,0.4639560580253601,-3.321205139160156,-0.2915284037590027,-0.5535454154014587,-0.7915356755256653,-0.1126284599304199,-0.1129594594240188,-8.992301940917969,0.0702921360676966,-0.1063183623503432,-3.106494811756193,3.379745300128569,2.260077117209289,0.4977204027961812,1.9129453959923808,6.16,0.08,0.039,0.13,1
8,1745179405.5997765,4.0,0.0,-5.0,-0.2915284037590027,-0.5535454154014587,-0.7915356755256653,-0.0546939298510551,-0.0267207100987434,-8.974099159240723,0.0702921360676966,-0.1063183623503432,-3.106494811756193,2.616680541597027,1.961277030837579,0.5435160541480922,3.289915093205422,6.16,0.08,0.039,0.13,1
8,1745179405.6029124,6.0,0.0,-5.0,-0.3063446879386902,-0.5845214128494263,-0.7849234938621521,-0.0687356740236282,-0.0993286594748497,-9.050705909729004,0.0702921360676966,-0.1063183623503432,-3.106494811756193,3.056081363208067,1.9643182596756168,0.4337951955174714,5.176313961045751,6.16,0.08,0.039,0.13,1
8,1745179405.6043615,8.0,0.0,-5.0,-0.3063446879386902,-0.5845214128494263,-0.7849234938621521,-0.0687356740236282,-0.0993286594748497,-9.050705909729004,0.0789133674611263,-0.1207123572173322,-3.10736860789439,2.5441695297094444,2.274293603252183,0.5213239446275576,7.098987548552088,6.16,0.08,0.039,0.13,1
8,1745179405.6088183,10.0,0.0,-5.0,-0.3063446879386902,-0.5845214128494263,-0.7849234938621521,-0.0868628844618797,-0.010208012536168,-8.983076095581055,0.0789133674611263,-0.1207123572173322,-3.10736860789439,3.3028010961681704,1.7499909467318815,0.5133739192672917,9.05522071545901,6.16,0.08,0.039,0.13,1
8,1745179405.6108327,12.0,0.0,-5.0,-0.3063446879386902,-0.5845214128494263,-0.7849234938621521,-0.1037906780838966,0.0493108853697776,-10.345815658569336,0.0789133674611263,-0.1207123572173322,-3.10736860789439,3.0315165807511075,1.915400452230824,0.4145164706270873,11.027167369585827,6.16,0.08,0.039,0.13,1
8,1745179405.6146195,14.0,0.0,-5.0,-0.3063446879386902,-0.5845214128494263,-0.7849234938621521,-0.0686905607581138,-0.1065533608198165,-11.57603359222412,0.0854814674004013,-0.131712965920823,-3.1081096121231724,3.348721489684672,1.8316133974485544,0.4238118612340752,13.007683044571728,6.16,0.08,0.039,0.13,0
8,1745179405.61649,16.0,0.0,-5.0,-0.3063446879386902,-0.5845214128494263,-0.7849234938621521,-0.0686905607581138,-0.1065533608198165,-11.57603359222412,0.0854814674004013,-0.131712965920823,-3.1081096121231724,3.0796899972543264,1.9499930278455773,0.5056192698939029,14.993372408474992,6.16,0.08,0.039,0.13,0
8,1745179405.674439,20.95517650439404,1.7668416939272509,-5.0,-0.3008739948272705,-0.5971626043319702,-0.8633201718330383,0.0123703889548778,0.0325320959091186,-15.323246955871582,0.1474497611722764,-0.1597785193080928,-3.117014557901272,3.2288948991623787,1.7278727366957174,0.5565889740294533,20.279767644117506,6.16,0.08,0.039,0.13,0
8,1745179405.7219777,24.805531823706414,1.591577020803996,-5.0,-0.2180423587560653,-0.5610015392303467,-1.0588816404342651,0.1213233843445777,-0.0764065682888031,-15.223048210144045,0.2967101149412275,-0.1553422785176666,-3.140198382199653,3.050457048257098,2.467865670865386,0.4533733950639237,24.22861907795919,6.16,0.08,0.039,0.13,0
8,1745179405.7692685,18.0,0.0,-5.0,-0.1128639951348304,-0.5326366424560547,-1.201538324356079,0.0883677080273628,-0.0405110530555248,-14.100886344909668,0.4635715535675585,-0.1425220492494424,3.117938356249868,3.3270364922192366,2.084788242308199,0.461480342366877,17.452539855185172,6.16,0.08,0.039,0.13,0
8,1745179406.7014508,16.0,0.0,-5.0,4.140423774719238,0.2835700511932373,-0.4848503172397613,-0.0324737466871738,-0.0199139062315225,-8.900919914245605,0.4645819375288313,-0.1259060458914216,-3.107609899412177,3.400095390746804,1.708645688244979,0.4947338318162969,15.300985826901623,6.16,0.08,0.039,0.13,0
8,1745179406.703375,14.0,0.0,-5.0,4.34682559967041,0.3492996990680694,-0.3929038047790527,-0.0324737466871738,-0.0199139062315225,-8.900919914245605,0.4396156109530961,-0.1237246255124947,-3.105093383639625,2.611813038057886,2.089607770523686,0.5558343302711262,13.129885441170412,6.16,0.08,0.039,0.13,0
8,1745179406.7051008,12.0,0.0,-5.0,4.34682559967041,0.3492996990680694,-0.3929038047790527,0.0283731948584318,-0.0720725953578949,-8.796224594116211,0.4351871832806416,-0.1237784952023265,-3.1047038073400484,2.502713088572294,1.8830127213649053,0.4667833877445398,11.170215355641838,6.16,0.08,0.039,0.13,1
8,1745179406.7063775,10.0,0.0,-5.0,4.34682559967041,0.3492996990680694,-0.3929038047790527,0.0283731948584318,-0.0720725953578949,-8.796224594116211,0.4351871832806416,-0.1237784952023265,-3.1047038073400484,3.1047475453426348,1.5269164565722722,0.559619279580895,9.227867060408634,6.16,0.08,0.039,0.13,1
8,1745179406.7098565,8.0,0.0,-5.0,4.34682559967041,0.3492996990680694,-0.3929038047790527,0.0370981879532337,0.0533497668802738,-8.817217826843262,0.4351871832806416,-0.1237784952023265,-3.1047038073400484,3.301227306601086,2.345905095836627,0.4107627438403767,7.3166488147055855,6.16,0.08,0.039,0.13,1
8,1745179406.713062,6.0,0.0,-5.0,4.34682559967041,0.3492996990680694,-0.3929038047790527,0.0215823929756879,-0.0524637885391712,-8.735235214233398,0.4351871832806416,-0.1237784952023265,-3.1047038073400484,2.5047238077735825,1.8502747906522108,0.4153375685286091,5.4692933063505205,6.16,0.08,0.039,0.13,1
8,1745179406.7156825,4.0,0.0,-5.0,4.34682559967041,0.3492996990680694,-0.3929038047790527,0.0215823929756879,-0.0524637885391712,-8.735235214233398,0.4292202624281513,-0.1241931402486026,-3.104190486536341,2.5217449545457087,1.6775655108342116,0.4576789347294678,3.78060691742061,6.16,0.08,0.039,0.13,1
8,1745179406.7172449,2.0,0.0,-5.0,4.34682559967041,0.3492996990680694,-0.3929038047790527,0.0561375841498374,0.0009746765717864,-8.74119758605957,0.4292202624281513,-0.1241931402486026,-3.104190486536341,3.1860840583667422,1.8360403246765604,0.5228332123507606,2.5831778988692444,6.16,0.08,0.039,0.13,1
8,1745179406.718509,0.0,0.0,-5.0,4.34682559967041,0.3492996990680694,-0.3929038047790527,0.0561375841498374,0.0009746765717864,-8.74119758605957,0.4292202624281513,-0.1241931402486026,-3.104190486536341,2.582041863471649,1.8728635263956697,0.4740949630487477,2.6556783409073628,6.16,0.08,0.039,0.13,1
9,1745179427.439885,0.4501419961452484,1.1564712524414062,-3.140708923339844,-0.0189541969448328,-0.2384824007749557,0.0518805310130119,-0.1045711562037468,0.059974730014801,-8.28753662109375,0.1612413127070399,-0.0445200852861183,-3.024441105593965,3.067830920367672,2.138686718469714,0.5097387308740478,2.2354008325499715,9.08,0.17,0.157,0.18,1
9,1745179427.4413922,2.0,0.0,-5.0,-0.0189541969448328,-0.2384824007749557,0.0518805310130119,-0.1045711562037468,0.059974730014801,-8.28753662109375,0.1612413127070399,-0.0445200852861183,-3.024441105593965,3.026473121134414,1.907622278260741,0.5185887253315796,2.6826197825230675,9.08,0.17,0.157,0.18,1
9,1745179427.4430254,4.0,0.0,-5.0,-0.0189541969448328,-0.2384824007749557,0.0518805310130119,-0.1315843164920807,0.0008961018174886,-8.310809135437012,0.1508131199156269,-0.041767038726335,-3.0240131621525457,3.2493698182498205,1.7338497975405305,0.5803666293147989,4.170836955936196,9.08,0.17,0.157,0.18,1
9,1745179427.4466777,6.0,0.0,-5.0,-0.0189541969448328,-0.2384824007749557,0.0518805310130119,-0.1087612211704254,0.0275018401443958,-8.374224662780762,0.1508131199156269,-0.041767038726335,-3.0240131621525457,2.8477006689511573,1.5580247918000278,0.4958087995952104,5.966180765650847,9.08,0.17,0.157,0.18,1
9,1745179427.4493053,8.0,0.0,-5.0,-0.0189541969448328,-0.2384824007749557,0.0518805310130119,-0.0333537459373474,0.0642969235777854,-8.312917709350586,0.1508131199156269,-0.041767038726335,-3.0240131621525457,2.5232716289216333,1.982919060503084,0.5570634848354141,7.860963359782383,9.08,0.17,0.157,0.18,1
9,1745179427.4511535,10.0,0.0,-5.0,-0.0189541969448328,-0.2384824007749557,0.0518805310130119,-0.126678466796875,-0.0642841607332229,-8.32929801940918,0.1508131199156269,-0.041767038726335,-3.0240131621525457,2.809351430126436,2.375092090541795,0.5313886970979007,9.797661810823037,9.08,0.17,0.157,0.18,1
9,1745179427.4540389,12.0,0.0,-5.0,-0.0189541969448328,-0.2384824007749557,0.0518805310130119,-0.0739164426922798,0.0005423612892627,-8.319257736206055,0.1508131199156269,-0.041767038726335,-3.0240131621525457,2.6835175286559085,2.382026168705256,0.5101797786712603,11.755577781405693,9.08,0.17,0.157,0.18,1
9,1745179427.5041847,14.0,0.0,-5.0,0.0264754053205251,-0.2158731818199157,0.1137729063630104,-0.0345942229032516,-0.0372097343206405,-15.271880149841309,0.1142524135073616,-0.013649620235339,-3.0227343142656578,2.918409863908836,1.61692611729549,0.4698113792269812,13.766732319593672,9.08,0.17,0.157,0.18,0
9,1745179427.5516665,20.781144956978327,2.3401496456484896,-5.0,0.0670074969530105,-0.2068308293819427,-0.0264820512384176,-0.0495682060718536,-0.0191446468234062,-15.35480499267578,0.159072046763612,0.0136564063274662,-3.0228429974097764,3.280628535529289,1.6061857154574448,0.5776859209034098,20.52031016710807,9.08,0.17,0.157,0.18,0
9,1745179427.598746,20.987406388329447,2.2695331548650257,-5.0,0.2103159874677658,-0.2110428065061569,-0.3879283666610718,0.0204926505684852,-0.0166642814874649,-16.201671600341797,0.2409024259806039,0.0446638693474255,-3.0208085829395888,3.1813374187007453,2.315028896716262,0.5169216446858548,20.754857972999783,9.08,0.17,0.157,0.18,0
9,1745179428.530799,20.0,0.0,-5.0,5.824763774871826,-0.5038110017776489,-0.9056394100189208,0.0191319100558757,0.0273465365171432,-11.039664268493652,0.4442551125810516,0.0807728637786456,-3.027921771019456,2.598860820670469,1.8144376206592043,0.4587540083861648,17.698553722995815,9.08,0.17,0.157,0.18,0
9,1745179428.532266,18.0,0.0,-5.0,6.033136367797852,-0.4958408772945404,-0.8660726547241211,0.0191319100558757,0.0273465365171432,-11.039664268493652,0.4067198419618726,0.0753534604610623,-3.030340065427353,3.1474037007628226,1.6299529621818651,0.5285814752488305,15.399897626637042,9.08,0.17,0.157,0.18,0
9,1745179429.6308863,16.0,0.0,-5.0,7.894542217254639,-0.3741718232631683,-0.6062247157096863,0.2314417064189911,-0.0894704759120941,-10.394400596618652,-0.3718742366034453,-0.0381605157244564,-3.030814994713976,3.25424100869517,1.6574988576816407,0.4385054234706461,6.012090852829081,9.08,0.17,0.157,0.18,0
9,1745179429.6326275,14.0,0.0,-5.0,7.663339614868164,-0.3609121143817901,-0.5926746129989624,0.2314417064189911,-0.0894704759120941,-10.394400596618652,-0.3998268295123908,-0.0444386256897861,-3.029454837929874,3.484766704500401,2.473713786041526,0.5929534947597203,3.407781336162321,9.08,0.17,0.157,0.18,0
9,1745179429.635051,10.615889549255373,0.2898032069206238,-4.722900390625,7.663339614868164,-0.3609121143817901,-0.5926746129989624,0.1973442733287811,-0.0435155220329761,-10.538451194763184,-0.3998268295123908,-0.0444386256897861,-3.029454837929874,3.356806160507421,2.4172827873307794,0.4650817865124185,1.441017637684477,9.08,0.17,0.157,0.18,1
9,1745179429.6381657,10.615889549255373,0.2898032069206238,-4.722900390625,7.663339614868164,-0.3609121143817901,-0.5926746129989624,0.3401588797569275,-0.0671164765954017,-10.614874839782717,-0.3998268295123908,-0.0444386256897861,-3.029454837929874,2.8865985321789216,1.826867045009933,0.570214848330746,0.7349081773522743,9.08,0.17,0.157,0.18,1
9,1745179429.6407354,8.0,0.0,-5.0,7.663339614868164,-0.3609121143817901,-0.5926746129989624,0.3596113622188568,0.0415741354227066,-10.645292282104492,-0.3855916316219568,-0.0459502863506491,-3.0301167055534752,3.0388885211863093,2.0350534201035257,0.5311451401229298,2.646440671196076,9.08,0.17,0.157,0.18,1
9,1745179429.6438315,6.0,0.0,-5.0,7.663339614868164,-0.3609121143817901,-0.5926746129989624,0.3074289262294769,-0.0853467285633087,-10.705339431762695,-0.3855916316219568,-0.0459502863506491,-3.0301167055534752,2.918508768515578,2.1840937467953525,0.5578688954159194,4.633271675952342,9.08,0.17,0.157,0.18,1
9,1745179429.645932,4.0,0.0,-5.0,7.663339614868164,-0.3609121143817901,-0.5926746129989624,0.3074289262294769,-0.0853467285633087,-10.705339431762695,-0.3855916316219568,-0.0459502863506491,-3.0301167055534752,2.976483163780842,2.358807813217441,0.4449466452174774,6.628028712988781,9.08,0.17,0.157,0.18,1
9,1745179429.6478784,2.0,0.0,-5.0,7.663339614868164,-0.3609121143817901,-0.5926746129989624,0.2871147990226745,-0.0209444388747215,-10.729700088500977,-0.3642418054537233,-0.0494492364244888,-3.0311600388073665,3.136691863898592,2.0661871026488123,0.46873972834354,8.625214363552086,9.08,0.17,0.157,0.18,1
9,1745179429.6491385,0.0,0.0,-5.0,7.663339614868164,-0.3609121143817901,-0.5926746129989624,0.2871147990226745,-0.0209444388747215,-10.729700088500977,-0.3642418054537233,-0.0494492364244888,-3.0311600388073665,3.1553962393225263,2.214199920541506,0.5120203372640008,10.623458994802338,9.08,0.17,0.157,0.18,1
10,1745179459.989477,0.0,0.0,-5.0,0.0247912127524614,0.3174000382423401,0.0320633202791214,-0.1392643749713897,-0.0055560069158673,-9.882525444030762,-0.0296025233405569,0.0212430961769953,-2.761285283617198,3.484450452613873,2.376861331621288,0.4286282513725362,6.037146333906398,4.95,0.18,0.186,0.032,0
