mission_id,time,real_x,real_y,real_z,vx,vy,vz,ax,ay,az,roll,pitch,yaw,wind_x,wind_y,wind_z,erreur_m,velocity,rain,fog,snow,is_attack
7.0,1744993275.1859937,-0.066921442747116,2.092857599258423,-5.013519287109375,0.1783578842878341,1.8628696203231807,0.3744831383228302,-0.1223550587892532,0.0321081653237342,-12.430852890014648,-0.1155841118626195,0.645302232795677,-3.056195619756396,3.141889157806129,2.233741208651295,0.4516150222614247,2.0939709122614456,10.13,0.36,0.181,0.347,1.0
7.0,1744993290.1455655,2.0933678150177,-1.2271597385406494,-5.008049011230469,-0.6000128388404846,-0.8293851613998413,-0.0945375487208366,-0.126320868730545,-0.0658419281244278,-10.084425926208496,0.0968079111571387,-0.264819798275699,-2.9565941000833096,3.4432363305070326,1.9854786696415387,0.4800660207255676,1.230732854586292,10.13,0.36,0.181,0.347,1.0
7.0,1744993292.857126,4.3622822761535645,0.3646756112575531,-4.980491638183594,0.726606011390686,0.7864623665809631,0.022329743951559,-0.0225946679711341,0.0386680997908115,-10.110069274902344,-0.1949371144825306,0.1396951136934223,-2.9607148850769858,3.172631352302372,2.035370855773268,0.483971993463098,0.5144096861858624,10.13,0.36,0.181,0.347,1.0
7.0,1744993295.023919,6.090193748474121,-0.026462672278285,-4.976318359375,0.1885862499475479,-0.6868502497673035,-0.0403644256293773,-0.1064218431711196,0.059315450489521,-9.862065315246582,-0.0455845753237867,-0.0885558789140711,-2.9553557475069527,3.3121257047982064,1.9622602474595083,0.5861188403400674,0.0969329943342956,10.13,0.36,0.181,0.347,1.0
7.0,1744993297.7609067,8.216639518737793,-0.0981116890907287,-5.014274597167969,0.3788196742534637,0.5423427224159241,0.0203819125890731,-0.0577430836856365,-0.0106546720489859,-9.90065860748291,-0.1116594539912542,0.0355155051661484,-2.9528950444453947,2.684080762528257,1.8248590216170308,0.4305569136451196,0.2382485020718622,10.13,0.36,0.181,0.347,1.0
7.0,1744993300.0905664,10.049528121948242,0.1631015390157699,-4.9896392822265625,0.4842458963394165,-0.3601427674293518,0.0036758757196366,-0.0361992493271827,-0.0700996592640876,-9.87444305419922,-0.0845362596363632,-0.0266846099478041,-2.9638005626468,2.760482224248352,2.329018284616135,0.589297143183583,0.1707702882992633,10.13,0.36,0.181,0.347,1.0
7.0,1744993302.3391168,12.063518524169922,-0.2641976177692413,-4.992805480957031,0.5215724110603333,0.2518807053565979,6.122342892922461e-05,-0.101824939250946,0.0432944595813751,-9.825641632080078,-0.0951011661402446,-0.0275799412064419,-2.9590455517613683,3.319278910154841,2.379047834562704,0.5280226898620498,0.271821164098616,10.13,0.36,0.181,0.347,1.0
7.0,1744993304.4592762,13.957330703735352,0.1964181214570999,-4.996177673339844,0.5781399607658386,-0.0660739466547966,0.0046049212105572,-0.0604333654046058,-0.0163606368005275,-9.85305118560791,-0.0921702664004534,0.0118572091132196,-2.962436772185374,3.116952257573266,2.082928759664798,0.4811431636581895,0.2010357119060027,10.13,0.36,0.181,0.347,1.0
7.0,1744993306.5459435,15.971678733825684,-0.1051193475723266,-4.999153137207031,0.6172773241996765,-0.0577153898775577,0.0098453434184193,-0.0537244714796543,-0.032465822994709,-9.816736221313477,-0.0915158679214704,-0.0413778751460672,-2.9612160735330093,3.1728783436772434,2.003390531142093,0.4583785286562574,0.1088709719270394,10.13,0.36,0.181,0.347,1.0
7.0,1744993308.62822,17.95623207092285,-0.0027994199190288,-4.995040893554688,0.5876588225364685,0.1067127287387847,0.0055260765366256,-0.0331325680017471,-0.0379184819757938,-9.882863998413086,-0.093459361223419,-0.0021536638450495,-2.9630041985789672,2.874723883785281,2.393769010421772,0.480681194626921,0.0441368452012747,10.13,0.36,0.181,0.347,1.0
7.0,1744993310.731299,19.968355178833008,0.0520327724516391,-4.990699768066406,0.6114974617958069,-0.0751473605632782,0.0017758894246071,-0.0762738585472107,0.0091864727437496,-9.86540985107422,-0.0954409850822424,-0.0160471762937787,-2.963827209500736,2.888555852039924,1.804879295511911,0.5048245246139242,0.0616059934561046,10.13,0.36,0.181,0.347,1.0
7.0,1744993313.0680006,17.651132583618164,-0.1129457801580429,-4.9660186767578125,-0.9550233483314514,0.0821182653307914,-0.0690162777900695,-0.1946353018283844,-0.0331423282623291,-9.973610877990724,0.1661239839641721,0.0236845490343358,-2.957629781504992,3.2154179338989857,1.7505685929810144,0.4268823889194268,0.3682661453320632,10.13,0.36,0.181,0.347,1.0
7.0,1744993314.417517,16.027307510375977,0.0207162294536829,-5.0106048583984375,-0.6766461133956909,0.0722654536366462,-0.0236213095486164,-0.0826452523469924,-0.0695460364222526,-9.740352630615234,0.0850832178091351,0.0303725543912804,-2.957435220292554,2.9815409383327967,1.5637225556190384,0.4365517119960897,0.0358793158708832,10.13,0.36,0.181,0.347,1.0
7.0,1744993316.6069813,14.070467948913574,0.0363535061478614,-5.008056640625,-0.6052943468093872,-0.0573758222162723,-0.0052049388177692,-0.2170007675886154,-0.0256140045821666,-9.871183395385742,0.0701993807923188,0.0179253100791109,-2.9563482938779844,3.472671405511972,1.8028666555181747,0.455453653845016,0.0797008073452779,10.13,0.36,0.181,0.347,1.0
7.0,1744993318.7480488,12.00412654876709,-0.0658556148409843,-5.002967834472656,-0.6536176204681396,0.0469046980142593,-0.0083896266296505,-0.0990800410509109,-0.0154185201972723,-9.881465911865234,0.0914750619781344,0.0146106887104962,-2.958494974875318,2.556332025433096,2.4943729604980134,0.4304033481703493,0.0660514833464649,10.13,0.36,0.181,0.347,1.0
7.0,1744993320.798046,10.038884162902832,0.0200572051107883,-5.001091003417969,-0.625219464302063,0.0135917952284216,-0.0112729929387569,-0.0035298392176628,-0.0603541582822799,-9.88709545135498,0.084236436151934,0.0233082450683552,-2.959338054363258,2.537608811464631,1.756868368695891,0.554117108777655,0.0437659672573134,10.13,0.36,0.181,0.347,1.0
7.0,1744993322.9005954,8.03743839263916,-0.003655248787254,-4.99810791015625,-0.5998433232307434,-0.0151561116799712,-0.016401182860136,-0.1875338554382324,-0.0143855698406696,-9.832564353942873,0.0823342128040656,0.0154270909846395,-2.9601314729772144,3.277415992170254,2.287751324577292,0.5635259119936693,0.0376639627638604,10.13,0.36,0.181,0.347,1.0
7.0,1744993325.0003884,6.052047729492188,-0.0311155635863542,-5.004684448242188,-0.6424762606620789,0.0236840695142745,-0.0109470505267381,-0.1353330165147781,-0.0476740449666976,-9.874343872070312,0.088616611263093,0.0165544252457697,-2.9611276252290346,2.7537042383745325,1.8173652162571383,0.5484873325798416,0.0608201323405507,10.13,0.36,0.181,0.347,1.0
7.0,1744993327.0582,4.058266639709473,-0.0018058673013001,-5.0040130615234375,-0.6190484762191772,0.0097538465633988,-0.0099161826074123,-0.0285091176629066,-0.005143545102328,-9.842574119567873,0.0829680769254779,0.0184737194188234,-2.96224802231917,3.119833371223341,1.6275570694836246,0.4603166301107466,0.0584325861359421,10.13,0.36,0.181,0.347,1.0
7.0,1744993329.1207235,2.0379419326782227,0.005554755218327,-4.999244689941406,-0.630769670009613,-0.0017109354957938,-0.0167327392846345,-0.0272830948233604,0.0504007413983345,-9.839034080505373,0.0884767482183579,0.0196382362511448,-2.962371451102229,2.624000158374153,2.342501886291772,0.5961650495406342,0.0383538271125441,10.13,0.36,0.181,0.347,1.0
7.0,1744993333.201327,-0.2865324020385742,0.0037927599623799,-4.2772064208984375,0.0556693486869335,0.0319054126739501,0.8052986264228821,-0.1340984851121902,0.0005544926971197,-9.713019371032717,0.001546980393964,-0.0012203359638507,-2.9616336112909427,3.083651105970109,2.23301787346072,0.447599694283317,0.7775254082257209,10.13,0.36,0.181,0.347,1.0
11.0,1744993598.0577867,-0.0656773075461387,-0.0163020733743906,-4.96588134765625,0.0230579506605863,0.0118261016905307,-0.4001007378101349,0.0452249273657798,-0.0650032684206962,-8.625965118408203,0.0057151154418421,0.0026244512578006,-3.0127405079061926,2.914030025314833,1.811294693173343,0.4579573177745862,0.0757848847763707,9.63,0.18,0.492,0.228,1.0
11.0,1744993599.529291,2.390627145767212,0.0297736339271068,-4.8842315673828125,1.0457401275634766,0.0430877059698104,-0.0674495622515678,-0.0370974540710449,0.0222298838198184,-10.379156112670898,-0.2585183967884764,-0.0266006522059939,-2.9941028507618337,3.2788551659311995,1.7262151341468757,0.49969788826295,0.4085074861959132,9.63,0.18,0.492,0.228,1.0
11.0,1744993600.9144645,3.72105073928833,0.0396639853715896,-5.017021179199219,0.2857927978038788,-0.0544634237885475,-0.0878853350877761,-0.0997774824500083,0.033215194940567,-9.718520164489746,-0.06269763062931,-0.0049817969832109,-2.977571849006261,2.63563096692812,1.945533669287422,0.4478124503557646,0.2822687413237194,9.63,0.18,0.492,0.228,1.0
11.0,1744993603.6236663,5.990694999694824,-0.0296679325401783,-5.016609191894531,0.5328841805458069,0.0470394752919673,0.0327864848077297,-0.0773475021123886,-0.0277544185519218,-9.85293197631836,-0.1108393341797557,-0.0142126508652381,-2.966005441375418,3.2393539353599405,2.1725214131841435,0.5381889708191515,0.0352510213650222,9.63,0.18,0.492,0.228,1.0
11.0,1744993605.8289857,7.876947402954102,0.0321106985211372,-4.996070861816406,0.510851263999939,-0.0234681628644466,-0.0018268885323777,-0.02763032913208,-0.0139713967218995,-9.898910522460938,-0.0814630867516353,-0.0080120055071085,-2.966912634285221,3.179011377253486,1.8524594314772624,0.4554203465862543,0.1272339448658312,9.63,0.18,0.492,0.228,1.0
11.0,1744993608.0574863,9.965880393981934,-0.0075168060138821,-5.00347900390625,0.6020181775093079,-0.003117972286418,0.0104613611474633,0.069461278617382,-0.0065049226395785,-9.81463623046875,-0.0991861701378973,-0.0147013584950054,-2.970252895856682,2.8193230146452377,1.7379432568469673,0.4674397471146959,0.0351105875151372,9.63,0.18,0.492,0.228,1.0
11.0,1744993609.5912986,12.200522422790527,0.007360144983977,-4.918617248535156,0.7001312375068665,0.0267044100910425,-0.1079715341329574,-0.0194798521697521,-0.0440857596695423,-9.945210456848145,-0.1858198824250961,-0.0212937166687266,-2.9919117889992086,3.447706288283356,1.8834010915020265,0.4545270584776141,0.2165330598591279,9.63,0.18,0.492,0.228,1.0
11.0,1744993611.6370804,13.698175430297852,0.0028944520745426,-5.048774719238281,0.3036368489265442,-0.0152533315122127,0.0097509827464818,-0.0316585525870323,0.027261696755886,-9.80713176727295,-0.042368394820964,-0.0043711841791806,-2.965777473426108,3.0282169861939647,1.906520207444344,0.4233793579699819,0.3057538584637519,9.63,0.18,0.492,0.228,1.0
11.0,1744993614.0942,16.054903030395508,0.0181012153625488,-5.000938415527344,0.5825225710868835,0.0054392055608332,0.0238742101937532,-0.0372003838419914,-0.0232602655887603,-9.884276390075684,-0.1207117009701783,-0.0136401176894644,-2.957019903282976,3.159177612889679,2.3892883669461886,0.5344821442995693,0.057817621603741,9.63,0.18,0.492,0.228,1.0
11.0,1744993615.2698743,18.809579849243164,0.079563669860363,-4.761909484863281,1.453513264656067,0.0492261052131652,-0.1465146243572235,-0.0068615525960922,-0.0343927182257175,-10.992488861083984,-0.4253221703053169,-0.0519939893105304,-2.954874600014729,3.172385532129705,2.155908388939898,0.4193821192629938,0.8476066323833841,9.63,0.18,0.492,0.228,1.0
11.0,1744993616.2590663,19.887680053710938,0.1243927851319313,-4.940353393554688,0.0886646881699562,-0.0838243961334228,-0.2176045626401901,-0.1118301525712013,-0.0335403718054294,-9.712642669677734,-0.1240259778446165,-0.0053243140130203,-2.9454685070198425,3.102440888246045,2.4586500886926754,0.5835324224491338,0.1778961859841259,9.63,0.18,0.492,0.228,1.0
11.0,1744993617.9406652,17.48189926147461,-0.1354696154594421,-5.088623046875,-1.2840909957885742,-0.0342010036110878,-0.0194902271032333,-0.1518874764442443,-0.0879582017660141,-9.93783473968506,0.1708988573869784,0.020444200492244,-2.910586026131235,3.3755316298015,1.9906797914921208,0.4023434912648475,0.5428023916773882,9.63,0.18,0.492,0.228,1.0
11.0,1744993618.9904788,15.665305137634276,-0.1416184902191162,-5.076950073242188,-0.991605579853058,0.1156000941991806,0.0172520633786916,-0.1421896666288375,-0.0403509773313999,-9.864519119262695,0.1322005664387261,0.0290437092955295,-2.906483696244917,3.4925274461038,1.899078624157084,0.4668172771777701,0.3714804994046524,9.63,0.18,0.492,0.228,1.0
11.0,1744993620.4621935,14.042421340942385,0.0707750096917152,-5.035690307617188,-0.8262568116188049,0.0413273721933364,0.0149429785087704,-0.0563621781766414,0.0441434755921363,-9.903478622436523,0.0702227013005842,0.0418568964942871,-2.900048391963649,3.030389799370622,1.5560380644610616,0.5865499449785887,0.0899025595966084,9.63,0.18,0.492,0.228,1.0
11.0,1744993622.439898,11.982773780822754,0.0112746749073266,-5.001091003417969,-0.7996506094932556,-0.0884519219398498,-0.0271197464317083,-0.1263067126274109,0.0138349588960409,-9.840877532958984,0.0961385584167131,0.0216031142222717,-2.895716029592465,2.8313345096881943,2.3136708029873403,0.5537358121241949,0.0206167701123731,9.63,0.18,0.492,0.228,1.0
11.0,1744993624.3334832,9.98578643798828,-0.0995552763342857,-5.008125305175781,-0.715370774269104,0.0655524805188179,-0.0115259299054741,-0.0506114773452281,-0.013138473033905,-9.81696319580078,0.0944199547008067,0.0174344523534384,-2.8985847840155765,2.544840292908427,1.936798263085937,0.5533154225723615,0.1008925119880387,9.63,0.18,0.492,0.228,1.0
11.0,1744993626.3078864,8.015220642089844,0.0318190157413482,-5.005889892578125,-0.6755086779594421,0.0190743152052164,-0.0138322412967681,-0.1836336851119995,0.027936341241002,-9.812663078308104,0.0861183634355698,0.0360091159855359,-2.899548635151461,2.725145754038455,1.8791430453752085,0.5633815101063051,0.0357604326449938,9.63,0.18,0.492,0.228,1.0
11.0,1744993628.304,6.03005313873291,-0.0154319554567337,-5.005439758300781,-0.667080819606781,-0.0272209718823432,-0.0122878747060894,-0.1383249461650848,0.0007648165337741,-9.903353691101074,0.0944520288466441,0.022061145869194,-2.9014169108916423,2.6875286254018667,1.689190626622855,0.522611423156448,0.0342188159831557,9.63,0.18,0.492,0.228,1.0
11.0,1744993630.3417792,4.036271572113037,-0.0417819023132324,-5.003273010253906,-0.628698468208313,0.0408425480127334,-0.0129346502944827,-0.0732899531722068,-0.0093965325504541,-9.79637622833252,0.0909645285496729,0.0236020833664979,-2.903909740847934,3.342989912672196,1.7497643107069505,0.5319237850174291,0.0554262293556572,9.63,0.18,0.492,0.228,1.0
11.0,1744993632.4012394,2.041583299636841,0.0176293645054101,-5.001319885253906,-0.6248003244400024,0.0078587373718619,-0.0178442597389221,-0.0777929350733757,-0.0315776839852333,-9.815848350524902,0.0867269142193973,0.0271719657595658,-2.905454212512779,3.3081842820162146,2.2363805291854364,0.5206823833870587,0.0451852564298951,9.63,0.18,0.492,0.228,1.0
11.0,1744993634.4613652,0.0174732487648725,-0.0072768311947584,-5.002677917480469,-0.6210929751396179,-0.0144814392551779,-0.0129495626315474,-0.1338368654251098,-0.0657268017530441,-9.911885261535645,0.0958754077770228,0.0242241331575577,-2.9077590423467985,2.6227113661545447,1.747169700015732,0.5880779299476331,0.019116431065142,9.63,0.18,0.492,0.228,1.0
12.0,1744993640.0322688,-0.2830236852169037,0.0452913790941238,-5.028854370117188,-0.0843657180666923,-0.0211221575736999,-0.4008670747280121,-0.0668970793485641,-0.070412665605545,-8.579194068908691,0.0599323799001314,0.0215509645685385,-2.908250491429443,2.676022087966711,2.415436808358882,0.4410659728781408,0.2880734109369767,14.36,0.22,0.271,0.307,1.0
12.0,1744993642.301187,2.22188687324524,-0.002173313871026,-4.9764251708984375,0.7877323627471924,-0.0043668807484209,0.1258809268474578,-0.0250019580125808,0.0027398262172937,-10.14423656463623,-0.1480777052982099,-0.0318549105147026,-2.914181847433806,3.444814132892557,2.1040769449224506,0.5482778252464544,0.2231463205587283,14.36,0.22,0.271,0.307,1.0
12.0,1744993644.004444,3.883280992507935,-0.0116527844220399,-4.9196319580078125,0.5192345380783081,0.0127714946866035,-0.0800264328718185,-0.0928917229175567,0.0342979133129119,-9.837162971496582,-0.0650637749821179,-0.0124126807093627,-2.9160732221430967,3.239526042828886,2.153750932835292,0.5385150498364215,0.142190492890268,14.36,0.22,0.271,0.307,1.0
12.0,1744993646.2741072,5.972245693206787,0.0332220643758773,-4.998016357421875,0.6324909329414368,1.2250558938831093e-05,0.0112877869978547,-0.0361431054770946,-0.0250271055847406,-9.826101303100586,-0.0924024257456163,-0.0126420954085704,-2.9174646320656707,2.866150862877398,1.9556880141129185,0.4829526901066066,0.0433352275273186,14.36,0.22,0.271,0.307,1.0
12.0,1744993648.44051,7.9866838455200195,0.032659389078617,-4.993705749511719,0.7222974896430969,-0.0274294149130582,-0.0017841922817751,-0.0118311773985624,-0.0745103284716606,-9.880134582519531,-0.0950535751764593,-0.0168534388653448,-2.9226208919950776,2.8155028046705866,2.424872367785348,0.5838229522259142,0.0358269905843684,14.36,0.22,0.271,0.307,1.0
12.0,1744993650.4154313,9.947344779968262,-0.0097448294982314,-4.999259948730469,0.6093683242797852,-0.0040682340040802,0.0076844943687319,-0.0280875526368618,0.0652231201529502,-9.788996696472168,-0.0834554553613657,-0.0173528312145631,-2.92358935465489,2.715046245800375,1.9519593189851152,0.5549664532658978,0.0535544729637208,14.36,0.22,0.271,0.307,1.0
12.0,1744993652.5165713,11.940235137939451,0.007877460680902,-5.0013580322265625,0.6182838678359985,0.0082179363816976,0.0090480213984847,-0.0404582880437374,-0.0021113846451044,-9.802595138549805,-0.0843652820090533,-0.0122201209532047,-2.9253579351434538,2.556388388754641,2.1273098814350546,0.4476788280152862,0.060297076010564,14.36,0.22,0.271,0.307,1.0
12.0,1744993654.5736864,13.95863914489746,0.0344206504523754,-4.994842529296875,0.6294214725494385,-0.0209302380681037,0.012266481295228,-0.132884606719017,-0.0302216075360775,-9.88225269317627,-0.0901670805883449,-0.0118091350845058,-2.927224512706951,3.326894059832742,2.3463546908320745,0.4858278785801677,0.0540564613754122,14.36,0.22,0.271,0.307,1.0
12.0,1744993656.6312876,15.95605754852295,0.0044233221560716,-4.994438171386719,0.6073100566864014,-0.0207326617091894,0.009121767245233,0.0353298857808113,-0.0069225467741489,-9.8768310546875,-0.0863945989927895,-0.0162156064759551,-2.929863831179634,3.124176811408556,2.11854538559244,0.5396437260712051,0.0445133548301279,14.36,0.22,0.271,0.307,1.0
12.0,1744993658.7129366,17.95450782775879,-0.0102241346612572,-4.995643615722656,0.6063974499702454,0.0102374022826552,0.0153270876035094,-0.1599201261997223,0.0021010395139455,-9.853394508361816,-0.0852355410279042,-0.0140155658369357,-2.9321089710561687,3.32916067102931,2.08736051508233,0.5119162041953041,0.0468299983853022,14.36,0.22,0.271,0.307,1.0
12.0,1744993660.769692,19.95747947692871,0.0209569074213504,-4.994346618652344,0.6177761554718018,-0.0067540248855948,0.0094607984647154,-0.0296531468629837,-0.039707139134407,-9.84725570678711,-0.0895485551729527,-0.0118861764456163,-2.9345194238051566,3.45536769437624,1.9047589204966648,0.5133070297066221,0.0477404186364668,14.36,0.22,0.271,0.307,1.0
12.0,1744993663.1031568,17.626893997192383,-0.0089324759319424,-4.973213195800781,-0.9570286870002748,-0.0062982700765132,-0.0751442536711692,-0.1419879496097564,-0.0095688803121447,-9.967357635498049,0.1750722911765556,0.0395375317334987,-2.932663559107972,2.8396207147498416,2.097014316606733,0.5993359004462011,0.3741729698101663,14.36,0.22,0.271,0.307,1.0
12.0,1744993664.403601,16.040985107421875,-0.0189311429858207,-5.020805358886719,-0.6735002398490906,0.0116707682609558,-0.018879359588027,-0.1379829347133636,0.0094480700790882,-9.807498931884766,0.0896775606196892,0.0241309969342917,-2.938053403140761,3.260687921294763,1.8394231875085123,0.5983303162837342,0.0497094574858486,14.36,0.22,0.271,0.307,1.0
12.0,1744993666.5507312,14.077485084533691,-0.006327056325972,-5.0141448974609375,-0.6598998308181763,0.0059005091898143,-0.0022345627658069,-0.0694814026355743,-0.0321997329592704,-9.751623153686523,0.0858286102174545,0.0219416250133204,-2.9395295334316827,2.68337564606677,1.9967532603415168,0.576304519809396,0.0790192893610526,14.36,0.22,0.271,0.307,1.0
12.0,1744993668.6340318,12.036094665527344,-0.0036225554067641,-5.004905700683594,-0.6579777598381042,0.0026268155779689,-0.0131521439179778,-0.0169190019369125,0.0273169018328189,-9.81166172027588,0.093061463410815,0.0235498817215371,-2.940196898992941,2.659849512247142,2.32593187042937,0.5591640253530732,0.0366061973769866,14.36,0.22,0.271,0.307,1.0
12.0,1744993670.6739683,10.043376922607422,-0.0250623058527708,-5.007865905761719,-0.6299170851707458,0.0073870732448995,-0.0142299961298704,-0.2044776380062103,-0.0245360657572746,-9.874794960021973,0.0918204462494076,0.0193606284614863,-2.9422456516455693,3.201285811651497,2.273810540803024,0.575606194166835,0.0507104433327134,14.36,0.22,0.271,0.307,1.0
12.0,1744993672.756137,8.041927337646484,-0.0279812514781951,-5.005126953125,-0.6250742673873901,0.013759110122919,-0.0103246234357357,-0.1222421377897262,-0.0846839323639869,-9.84119701385498,0.0930342879483231,0.0172572253230513,-2.9446901428735583,3.166446395298523,2.105993601475051,0.5530398736438562,0.0506669293006222,14.36,0.22,0.271,0.307,1.0
12.0,1744993674.8562317,6.01090669631958,0.008193427696824,-5.002975463867188,-0.5991170406341553,0.006457099225372,-0.0160962641239166,-0.1315649002790451,-0.0193844363093376,-9.790088653564451,0.0935143031987604,0.0259644071468747,-2.946201401121165,2.9069461799404444,2.0020046447768083,0.5709181010104017,0.0139621512402481,14.36,0.22,0.271,0.307,1.0
12.0,1744993676.9139962,4.064146995544434,0.0020878638606518,-5.009780883789063,-0.6227564811706543,-0.0106958569958806,-0.0086920643225312,-0.0997841879725456,-0.0063343034125864,-9.82164192199707,0.0890361240725614,0.0208495432433838,-2.947568974069013,3.111321552213957,1.969417793403199,0.465380352306483,0.0649219677811243,14.36,0.22,0.271,0.307,1.0
12.0,1744993678.9755185,2.0308547019958496,-0.0283679403364658,-5.003135681152344,-0.6323455572128296,0.0160103477537632,-0.013419940136373,-0.0889257490634918,0.0251401886343956,-9.92453670501709,0.0977080953739095,0.0211270745257435,-2.9493049212047526,2.51994270421264,1.92601278090517,0.5401280948432046,0.0420307645716222,14.36,0.22,0.271,0.307,1.0
12.0,1744993681.060287,0.0448607243597507,-0.0013344078324735,-5.0012969970703125,-0.5912704467773438,0.0165419243276119,-0.0146031910553574,-0.1155790165066719,-0.0275448616594076,-9.839762687683104,0.0890820347811675,0.0239633756196866,-2.951601793853683,3.2723169700815444,2.2460679726914003,0.516094095559846,0.044899303287972,14.36,0.22,0.271,0.307,1.0
13.0,1744993708.6531274,-0.2770045697689056,0.1472642719745636,-4.9619903564453125,-0.4352767467498779,0.2371013313531875,-0.4110993444919586,-0.147633820772171,0.032206505537033,-8.687005043029785,0.098523351756974,0.0804850448046979,-2.974659488495437,2.769312505501792,2.110194978445096,0.5846200158043252,0.3160111239754214,6.57,0.32,0.252,0.22,1.0
13.0,1744993711.111635,2.4517247676849365,0.0759670361876487,-4.912773132324219,0.97029846906662,-0.2327402681112289,0.0422053523361682,-0.0056012496352195,-0.0586468987166881,-10.363911628723145,-0.1933298119512244,-0.0416659451858051,-2.966501108377998,3.1986238531768105,1.8498678132763788,0.4533270436256797,0.4662990272042969,6.57,0.32,0.252,0.22,1.0
13.0,1744993712.418155,3.938739776611328,-0.2497346252202987,-4.892143249511719,0.5360338091850281,0.0205362364649772,-0.1053461953997612,-0.0131344124674797,0.0310873202979564,-9.788310050964355,-0.0704445105709588,-0.0467270479315533,-2.961526974368821,3.1543230783190483,1.6314402066178797,0.4506474806415819,0.2788427453412486,6.57,0.32,0.252,0.22,1.0
13.0,1744993714.8122137,5.946681499481201,0.1428111642599105,-4.991859436035156,0.6188076138496399,0.0782436579465866,0.0093444949015975,-0.0705126002430915,0.0083466861397027,-9.807021141052246,-0.088160597026315,0.0230209085326401,-2.955494047395232,3.247263903543451,2.271549567905329,0.5313951560907979,0.15265700087618,6.57,0.32,0.252,0.22,1.0
13.0,1744993716.8945456,7.97461986541748,0.0118158664554357,-4.992942810058594,0.6269481182098389,-0.1370634287595749,0.0072382763028144,-0.1227915734052658,0.018681276589632,-9.874503135681152,-0.088699917219671,-0.0244390098989536,-2.9560452357189284,3.436540732238539,1.575523627336818,0.4585409247083299,0.0288716099549121,6.57,0.32,0.252,0.22,1.0
13.0,1744993718.9945092,9.94198989868164,-0.0878549441695213,-4.9909210205078125,0.5799821019172668,0.116814486682415,0.0066513144411146,-0.0722088739275932,-0.0335323326289653,-9.909516334533691,-0.0789931392813194,-0.0096434087604024,-2.953864903685157,2.598982757612794,1.8171667101559408,0.5987155514508843,0.1056697257430698,6.57,0.32,0.252,0.22,1.0
13.0,1744993721.1162364,11.975458145141602,0.1146739274263382,-4.988296508789063,0.6135026216506958,-0.0433883108198642,0.0024314236361533,-0.1400884091854095,0.0072253793478012,-9.825754165649414,-0.0908901280977441,0.0035256920812706,-2.952669967391487,3.3292930906990987,2.13488263598315,0.4386974420165138,0.1178532306633817,6.57,0.32,0.252,0.22,1.0
13.0,1744993723.195689,13.956141471862791,-0.031958881765604,-4.988105773925781,0.5837604403495789,-0.0267165396362543,0.0035059992223978,0.0561091676354408,-0.0579989589750766,-9.825233459472656,-0.0790917735893013,-0.0170989436691636,-2.9504478791908246,2.6286406676337326,1.9400885580354343,0.5463486568927364,0.0555554968295187,6.57,0.32,0.252,0.22,1.0
13.0,1744993725.2951725,15.94337558746338,0.0105517348274588,-4.990882873535156,0.620175302028656,0.0455811582505703,0.0097908983007073,-0.0916225016117096,-0.0809897035360336,-9.885855674743652,-0.0866321629742784,-0.0029135899854073,-2.9480720731201324,3.2026226749989988,1.971131495051391,0.5801013876218151,0.0583162515767467,6.57,0.32,0.252,0.22,1.0
13.0,1744993727.3974884,17.974620819091797,0.0568599663674831,-4.994270324707031,0.5997949242591858,-0.0398084335029125,0.0030569750815629,-0.0615897327661514,-0.0531001836061477,-9.767024040222168,-0.0891080692258432,-0.0059941714167783,-2.9459850269270937,3.035480137649038,2.4230736835285733,0.4030744779766468,0.0625298950730406,6.57,0.32,0.252,0.22,1.0
13.0,1744993729.4764838,19.95621681213379,-0.0180261060595512,-4.991233825683594,0.5966864824295044,-0.001231747912243,0.0095073478296399,-0.0389395244419574,-0.0060586337931454,-9.865957260131836,-0.0839002806812879,-0.0132346000695368,-2.94302092207418,3.2176368003329463,1.8787639759674704,0.5772694092741286,0.0481534407030663,6.57,0.32,0.252,0.22,1.0
13.0,1744993731.828441,17.629732131958008,-0.1243010461330413,-4.96258544921875,-0.9386420845985411,0.0734096840023994,-0.0851941332221031,-0.1239322200417518,-0.0537657104432582,-9.913969993591309,0.17589324064316,0.0313116340902157,-2.93068983961228,3.003943224058502,2.1706611035147203,0.5613336234929771,0.3923632153812247,6.57,0.32,0.252,0.22,1.0
13.0,1744993733.1539438,16.040122985839844,0.0581961572170257,-5.015480041503906,-0.662789523601532,0.0859829932451248,-0.0254667904227972,-0.1495921313762664,0.0336598455905914,-9.727069854736328,0.086169375428422,0.0453649422218363,-2.927308199427117,2.729601046055389,1.7664536874806207,0.4455665246037181,0.0723621336922547,6.57,0.32,0.252,0.22,1.0
13.0,1744993735.3638651,14.041912078857422,0.0560669265687465,-5.007415771484375,-0.6061303019523621,-0.1420417875051498,-0.0076748076826334,-0.0614888668060302,0.0259620174765586,-9.792641639709473,0.0858034022901666,0.0188369608173759,-2.9197116862995665,2.721513381427701,1.844933987176235,0.4660881208889977,0.0703925867952331,6.57,0.32,0.252,0.22,1.0
13.0,1744993737.48466,12.024480819702148,-0.1033648028969764,-5.000205993652344,-0.6492131352424622,0.0690796077251434,-0.0192704014480114,-0.1086345762014389,0.1217276230454444,-9.883623123168944,0.0957368780613503,0.0189327532612244,-2.919823524183244,2.7710815444000576,1.520040933468804,0.5148943300240703,0.1062244578456614,6.57,0.32,0.252,0.22,1.0
13.0,1744993739.5239956,10.023981094360352,0.0603447668254375,-5.001029968261719,-0.6190373301506042,0.0015206600073724,-0.0165445748716592,-0.1765282154083252,-0.0163696464151144,-9.821246147155762,0.0912010501578561,0.0382940744133067,-2.917060519624711,2.658248994592157,2.374201748713907,0.5701811036060217,0.064943395388266,6.57,0.32,0.252,0.22,1.0
13.0,1744993741.5831437,8.052018165588379,-0.0230620745569467,-5.001655578613281,-0.6244983077049255,-0.0470007136464118,-0.0146645838394761,-0.1419399380683899,-0.1203704625368118,-9.78296184539795,0.0932049933075596,0.0178868189952484,-2.9150353506751974,2.6552489365807355,1.5560609771427705,0.513582442901529,0.0569252999517344,6.57,0.32,0.252,0.22,1.0
13.0,1744993743.6650274,6.042613983154297,-0.042442075908184,-4.9992523193359375,-0.6208347082138062,0.050018947571516,-0.0218591075390577,-0.1385046392679214,-0.0578338094055652,-9.738031387329102,0.0918339112937754,0.0264594258885627,-2.914051387334313,3.267180073872602,2.082469290225061,0.5889652563986599,0.0601484862157491,6.57,0.32,0.252,0.22,1.0
13.0,1744993745.7436972,4.028439044952393,0.0269413813948631,-5.003288269042969,-0.5918155312538147,-0.017972944304347,-0.0136066041886806,-0.125646024942398,0.0096239671111106,-9.884200096130373,0.0904006000760749,0.0296305993458714,-2.912061106796813,3.199107905119734,1.5000284604318337,0.5006778274842574,0.0393119577554543,6.57,0.32,0.252,0.22,1.0
13.0,1744993747.8636906,2.039085865020752,-0.0273297522217035,-4.999412536621094,-0.5918818712234497,-0.0030831936746835,-0.0203054342418909,-0.1143083721399307,0.0305518582463264,-9.850488662719728,0.0900479028468937,0.0224162418185101,-2.910264134930492,3.3365487192444343,2.171422259214262,0.5837983026062596,0.0476965964628683,6.57,0.32,0.252,0.22,1.0
13.0,1744993749.965242,0.0315141789615154,-0.0135524962097406,-5.0025634765625,-0.6031386256217957,0.0188353359699249,-0.0133719975128769,-0.1192410439252853,0.0469417013227939,-9.79465389251709,0.091866923333489,0.0280277258805012,-2.908232300984391,3.2347922868705314,1.841541632996748,0.4987678138847325,0.0344003639692946,6.57,0.32,0.252,0.22,1.0
15.0,1744993784.0641572,0.0723388195037841,0.1877177953720092,-5.228553771972656,0.5704227685928345,-0.2212512791156768,0.0837991014122963,-0.0644732415676117,-0.1179478466510772,-9.366691589355469,-0.0720326217378453,0.0068030998548382,-3.1220914395869497,2.733282301219169,2.152682418467005,0.4255388308152327,0.3044793953446728,19.64,0.35,0.391,0.213,1.0
15.0,1744993786.057928,1.9710203409194944,-0.033453956246376,-4.933296203613281,0.6806529760360718,0.073744498193264,0.0078129628673195,-0.0398289039731025,-0.0340306721627712,-10.043042182922363,-0.0800420281691034,0.0071904804987861,3.1384461797456384,3.139330135598027,2.1371696014451214,0.5858978128286045,0.0800523846075655,19.64,0.35,0.391,0.213,1.0
15.0,1744993788.2635672,4.001913547515869,0.2475544512271881,-4.9627685546875,0.5563334822654724,-0.1827944368124008,-0.0492895767092704,-0.0198569521307945,-0.0906574726104736,-9.804253578186035,-0.0751513301317379,0.0312590784822257,3.1208256059334056,2.7667582041463934,2.309270193678311,0.4316307826060391,0.2503458577778898,19.64,0.35,0.391,0.213,1.0
15.0,1744993808.8685598,6.322063446044922,0.3239321410655975,-4.986457824707031,0.0938411504030227,-0.4250342845916748,0.0049727796576917,-0.0831999033689498,-0.0084239095449447,-9.892792701721191,-0.0669383461930182,0.018646150113337,-3.0896657919377963,3.393244945446068,2.464300026833624,0.5028568847118015,0.4569904657707182,19.64,0.35,0.391,0.213,1.0
15.0,1744993811.1581976,8.078149795532227,-0.3245636224746704,-4.9881591796875,0.4986915588378906,0.2516511678695678,-0.0013475245796144,-0.1181997209787368,0.007780484855175,-9.901244163513184,-0.0833930107089161,-0.0159367734729353,-3.084620136672142,3.065828531931144,1.7159979141426631,0.4951844220168419,0.3340496079945045,19.64,0.35,0.391,0.213,1.0
15.0,1744993813.2607105,9.982027053833008,0.2277278006076812,-4.98797607421875,0.6140346527099609,-0.0302569195628166,0.0102086002007126,-0.0001416914165019,-0.0562574975192546,-9.889018058776855,-0.0919791471582082,0.0428284941019896,-3.086652651550846,2.9020687115073374,2.044094156184232,0.5977652661881123,0.2287521644809649,19.64,0.35,0.391,0.213,1.0
15.0,1744993815.3011427,11.993326187133787,-0.0854287967085838,-4.991256713867188,0.6227463483810425,-0.0933637768030166,0.0044400235638022,-0.0522556453943252,-0.0485342964529991,-9.799309730529783,-0.0929563260679293,-0.0192398888931498,-3.0824776948752057,3.3362385185567702,1.8557621882740087,0.5687572137230568,0.0861339894446436,19.64,0.35,0.391,0.213,1.0
15.0,1744993817.4023545,13.94825267791748,-0.0397473461925983,-4.993629455566406,0.5843223333358765,0.133858785033226,0.0062141492962837,-0.1076215431094169,-0.0466895960271358,-9.821362495422363,-0.0830408407424429,0.0154689072330668,-3.078830386528929,2.8863936600346065,1.7978253495253298,0.5836237559947082,0.0655608168683602,19.64,0.35,0.391,0.213,1.0
15.0,1744993819.525106,15.994884490966797,0.1098710298538208,-4.992759704589844,0.6090167164802551,-0.089960291981697,0.0048103397712111,-0.0159172937273979,-0.0219999626278877,-9.876641273498535,-0.0936876418953792,0.0136538581805596,-3.077145701135653,2.857938448580872,1.6646740043511468,0.5303749995271703,0.1102280976495298,19.64,0.35,0.391,0.213,1.0
15.0,1744993821.56398,17.94644546508789,-0.0650005489587783,-4.993598937988281,0.6023296117782593,0.0166162345558404,-0.0007192413322627,-0.0688558593392372,-0.0510018840432167,-9.88005828857422,-0.0855499126633291,-0.0030317515756798,-3.07287230138196,2.802813710204073,1.8010337368458145,0.4345225695607935,0.0844637979815776,19.64,0.35,0.391,0.213,1.0
15.0,1744993823.6645844,19.97690391540528,0.0462941452860832,-4.987449645996094,0.6149238348007202,0.0269922725856304,0.0059973686002194,0.0331537723541259,0.0158675666898489,-9.792314529418944,-0.0948074206614078,0.0164391891160889,-3.069865614356933,3.303106317518539,1.6046353180409814,0.5624780297750158,0.0532361568579016,19.64,0.35,0.391,0.213,1.0
15.0,1744993825.994321,17.651716232299805,-0.1641440838575363,-4.966064453125,-0.971360206604004,0.031519278883934,-0.0757642164826393,-0.1004027128219604,-0.0580315962433815,-9.898355484008787,0.1756647995518779,0.0014182611056949,-3.057555299861072,2.908561118720427,2.0850029708394247,0.4441840250313916,0.3865184141157816,19.64,0.35,0.391,0.213,1.0
15.0,1744993827.3401644,15.996520042419434,0.0146163618192076,-5.015655517578125,-0.6705139875411987,0.1443830728530883,-0.0234937537461519,-0.0669118911027908,-0.0447941720485687,-9.8600492477417,0.0984276086892038,0.03985524846404,-3.0517810571916764,2.5581888551337864,2.1829853482605683,0.4173087223562262,0.0216989255086862,19.64,0.35,0.391,0.213,1.0
15.0,1744993828.9401352,14.066746711730955,0.1188967227935791,-5.003791809082031,-0.5678519010543823,-0.1805539578199386,-0.0104536479339003,-0.1574376672506332,-0.0277394726872444,-9.842155456542969,0.0742630753091375,0.0179124005669238,-3.041883594601752,3.48475831565428,1.6461017940400668,0.5505869917173445,0.1364035631281794,19.64,0.35,0.391,0.213,1.0
15.0,1744993831.1044257,11.989219665527344,-0.1174377053976059,-5.0003204345703125,-0.6495317816734314,0.0685514733195304,-0.0194357559084892,-0.0380069836974144,-0.0492230057716369,-9.866220474243164,0.0994235593498885,0.0112371873324353,-3.0410569831225467,3.005021599906017,2.464732751643947,0.5422445819253803,0.1179318995806947,19.64,0.35,0.391,0.213,1.0
15.0,1744993833.1030192,10.06122875213623,0.0719852223992347,-5.001350402832031,-0.6196099519729614,0.0059954887256026,-0.0182075295597314,-0.1570565998554229,0.0263934731483459,-9.80700969696045,0.0834179439203549,0.0341908396294566,-3.0380452701643046,3.404455435910888,2.412364221811803,0.5407432755122183,0.0945127288773104,19.64,0.35,0.391,0.213,1.0
15.0,1744993835.2049582,8.029759407043457,-0.0173689071089029,-5.001731872558594,-0.6202091574668884,-0.0567136257886886,-0.0184098277240991,-0.1279183775186538,-0.0185219254344701,-9.865921974182127,0.0918666689319259,0.0127891306059421,-3.035376421555742,3.259665869204542,2.2987763534085475,0.5415084806717487,0.0345007336776345,19.64,0.35,0.391,0.213,1.0
15.0,1744993837.2479718,6.033742904663086,-0.0506182312965393,-5.0027618408203125,-0.6378277540206909,0.0463636517524719,-0.0121632544323802,-0.1270218789577484,0.0023578256368637,-9.860319137573242,0.09532097711082,0.0197349569242966,-3.0337926379913296,2.6416072048036394,1.7150604233423343,0.5627882377539516,0.0608967710097079,19.64,0.35,0.391,0.213,1.0
15.0,1744993839.306765,4.040627479553223,0.0330179892480373,-5.00421142578125,-0.6029317378997803,-0.0215659216046333,-0.0110657401382923,0.0119031146168708,-0.1024289578199386,-9.840062141418455,0.0898515463817244,0.0250278220896798,-3.030989289403708,3.087227215653576,1.7126402118604176,0.4065707295420505,0.0525215747663949,19.64,0.35,0.391,0.213,1.0
15.0,1744993841.4092488,2.043663740158081,-0.0214083809405565,-4.994140625,-0.6029259562492371,-0.0176844540983438,-0.0226187780499458,-0.0705505311489105,-0.067116841673851,-9.821229934692385,0.0900303803082185,0.0166221981736764,-3.0296617638811565,3.2823729903693817,2.002791566272532,0.5842647490658724,0.0489813561927293,19.64,0.35,0.391,0.213,1.0
15.0,1744993843.509343,0.0368215255439281,-0.030107932165265,-5.002769470214844,-0.5981150269508362,0.0248826276510953,-0.0151027329266071,-0.1087406054139137,0.001091624610126,-9.905780792236328,0.0891982058036453,0.0203491564388214,-3.027890807223549,3.4548920527007474,1.9542676723692027,0.5240111397470922,0.0476443311205148,19.64,0.35,0.391,0.213,1.0
16.0,1744993852.6371903,-0.1104367449879646,-1.1929469108581543,-5.219627380371094,0.0681451708078384,-1.064416527748108,-0.4738059639930725,-0.0665386170148849,0.0022262558341026,-8.362893104553223,0.0721409688903313,-0.3157519342388789,-2.964738461674389,3.1755243370196,1.6328660498976495,0.5787196537247028,1.218012640730062,3.26,0.38,0.487,0.493,1.0
16.0,1744993855.0533612,2.285208225250244,0.4073004424571991,-4.878547668457031,0.5590341091156006,0.7066988945007324,0.079484038054943,-0.0447619557380676,0.0200987700372934,-10.529494285583496,-0.1575367956933499,0.1537016230171697,-2.9821518824709963,3.3895110515462745,1.913936091746317,0.5809641639826051,0.5118476834112345,3.26,0.38,0.487,0.493,1.0
16.0,1744993857.3874557,4.049858570098877,-0.1392397284507751,-4.9349212646484375,0.2828212678432464,-0.7248996496200562,-0.125737577676773,-0.1086072325706482,-0.0467014983296394,-9.872363090515137,-0.0434708417341567,-0.1019969035083068,-2.984284708973952,2.7293133039086914,1.655120530866145,0.5078642939072662,0.1615822415561467,3.26,0.38,0.487,0.493,1.0
16.0,1744993860.0486932,6.187386512756348,-0.0686362013220787,-5.000602722167969,0.3813426196575165,0.5655460357666016,0.0204034727066755,-0.1089480966329574,-0.0566917695105075,-9.82602596282959,-0.1035374812712168,0.0556594288509161,-2.982244818811968,3.445724773809624,2.0194373736031803,0.4310566802351889,0.1995620118382291,3.26,0.38,0.487,0.493,1.0
16.0,1744993862.4067593,8.05697250366211,0.1418878138065338,-4.988533020019531,0.4544092714786529,-0.4064173400402069,-0.0048129009082913,-0.0662133395671844,-0.00557701010257,-9.830903053283691,-0.0773661353988304,-0.0268141480877547,-2.987479577749473,2.846674178507479,1.6461055910680922,0.5613352417235403,0.1533281106327184,3.26,0.38,0.487,0.493,1.0
16.0,1744993863.6494002,11.181416511535645,-0.207304760813713,-4.696128845214844,1.5323632955551147,0.0934182479977607,-0.2237582802772522,-0.0070561682805418,-0.0519520863890647,-11.403091430664062,-0.4739606846310011,-0.0815612848326128,-2.9694205605451462,2.74516676253571,2.4274967859430387,0.4335458782053999,1.23735925110517,3.26,0.38,0.487,0.493,1.0
16.0,1744993864.4481416,12.135467529296877,-0.141183391213417,-4.889976501464844,0.088482066988945,0.151141881942749,-0.3144778609275818,-0.1523639857769012,0.0189161710441112,-9.657358169555664,-0.1661960885072645,-0.0147013231335389,-2.9940010516083206,2.795479606974031,2.152831515116159,0.4933600456289188,0.2244757708044144,3.26,0.38,0.487,0.493,1.0
16.0,1744993867.9552314,14.05074977874756,0.0983080193400383,-5.0514068603515625,0.4751926362514496,-0.0902676284313201,0.0731859728693962,-0.1125513240694999,0.0083896555006504,-9.981452941894531,-0.1247652527590663,-0.0097380972571107,-2.9312893321914832,2.6743886217217514,2.4145934959608333,0.4741324139390724,0.1219945572584799,3.26,0.38,0.487,0.493,1.0
16.0,1744993870.2440326,15.807753562927246,-0.0958457589149475,-5.002632141113281,0.3571668267250061,0.0231825672090053,-0.0063015739433467,-0.0652586072683334,-0.0030075279064476,-9.860175132751465,-0.0511924151253271,-0.0162541191316538,-2.9277039505224827,2.7553166135090503,1.7656179717768097,0.4552822373782219,0.2148302358514527,3.26,0.38,0.487,0.493,1.0
16.0,1744993872.637766,17.992246627807617,0.0763009339570999,-4.999267578125,0.5693210363388062,-0.0024691536091268,0.0179613251239061,-0.0722991749644279,-0.0717617198824882,-9.848072052001951,-0.1027764368501531,-0.0004226347286165,-2.929537566230348,2.951349104233404,2.1706135515317846,0.5172726126157893,0.0766973516158303,3.26,0.38,0.487,0.493,1.0
16.0,1744993874.740314,19.91009521484375,-0.0166660826653242,-4.987800598144531,0.5325767397880554,-0.0442927367985248,0.0031759131234139,-0.160687506198883,0.0303585864603519,-9.918993949890137,-0.0753635453774095,-0.0175122884082704,-2.929268989537257,3.452936626222145,1.894195917822585,0.5183961261742505,0.092246702439871,3.26,0.38,0.487,0.493,1.0
16.0,1744993877.0103807,17.65640640258789,-0.1063012853264808,-4.96942138671875,-0.9633611440658568,0.0691502913832664,-0.0830872058868408,-0.1427541822195053,0.0704445540904998,-9.972362518310549,0.1686784479240048,0.0320288754397917,-2.924267373621302,3.3231842102029026,1.5666107964845004,0.5013061260499023,0.3609592428998887,3.26,0.38,0.487,0.493,1.0
16.0,1744993878.3542068,15.984800338745115,0.0422069504857063,-5.0216827392578125,-0.6925266981124878,0.0644008517265319,-0.0158483851701021,-0.1150013729929924,0.0182367004454135,-9.849248886108398,0.0973175602941001,0.042433374591866,-2.9243060136470698,2.84045020436144,1.6456885453851626,0.4186576744369352,0.0498256716290742,3.26,0.38,0.487,0.493,1.0
16.0,1744993880.3497007,14.073296546936035,0.0606179721653461,-5.001495361328125,-0.5825461745262146,-0.0995033755898475,-0.0358227044343948,-0.1747575402259826,-0.0384927317500114,-9.796515464782717,0.0845189928011252,0.0226302130896193,-2.930652435048497,3.3016190256172075,2.054844580197183,0.4567930925765448,0.0951270647486126,3.26,0.38,0.487,0.493,1.0
16.0,1744993882.5202336,12.056453704833984,-0.0766900777816772,-5.0095062255859375,-0.6381913423538208,0.0460209995508194,-0.0197707545012235,-0.0731216594576835,-0.0020392779260873,-9.775168418884276,0.0956392207086697,0.0200025438077705,-2.9265608053514,2.611366084992312,2.497941079045543,0.5314165185540218,0.0957013957292842,3.26,0.38,0.487,0.493,1.0
16.0,1744993886.1449058,10.482813835144045,0.1884475946426391,-5.279876708984375,1.2219023704528809,0.070050448179245,0.1021059677004814,-0.0288382321596145,-0.0513048209249973,-9.49586582183838,-0.1665833770063416,-0.0133820648797246,-2.8112829280381875,3.151816912271116,1.86833354722761,0.4029262392869177,0.589026881869597,3.26,0.38,0.487,0.493,1.0
16.0,1744993889.2441013,7.471315383911133,-0.1702321320772171,-4.977973937988281,-0.9862595200538636,0.0100045595318079,-0.1036634147167205,-0.2121033072471618,-0.087634153664112,-10.178343772888184,0.2387238969601438,0.0630950297478905,-2.7872635111010173,3.4224193986967,2.4926680870158417,0.4100484910778765,0.5558520931761722,3.26,0.38,0.487,0.493,1.0
16.0,1744993890.461234,6.092198371887207,-0.092510849237442,-5.038009643554688,-0.415039598941803,0.1558590233325958,-0.0322683379054069,-0.1195395737886428,-0.0114853158593177,-9.73121452331543,0.0756729771057536,0.0349035831042392,-2.795948292274579,3.2530454977689285,2.0372673104974206,0.5751060743628563,0.1360276810374963,3.26,0.38,0.487,0.493,1.0
16.0,1744993893.0683265,4.077513217926025,0.0754414200782775,-5.0158538818359375,-0.5197155475616455,-0.1047797501087188,-0.0057521280832588,-0.1686523407697677,-0.0245774630457162,-9.798609733581545,0.0750459627722413,0.0326950033127765,-2.7945643132995226,2.992644212473273,2.416073181625948,0.4636892464578364,0.1093208689406671,3.26,0.38,0.487,0.493,1.0
16.0,1744993895.2768617,2.023587703704834,-0.1040121912956237,-4.997673034667969,-0.5822651386260986,0.0640216022729873,-0.0199050810188055,-0.0171612054109573,0.0158001817762851,-9.829907417297363,0.0914108179708803,0.026955912870575,-2.799646948842771,2.617025967122644,1.67760523260855,0.5950176111778814,0.1066786317490103,3.26,0.38,0.487,0.493,1.0
16.0,1744993897.3775847,0.069577544927597,0.0477025881409645,-5.0047454833984375,-0.5886542201042175,0.0152472602203488,-0.0137906754389405,-0.0776287019252777,-0.0677992925047874,-9.823227882385254,0.0767998871968308,0.0424948437435255,-2.80260671818308,3.0424183521397663,1.6781182221725537,0.5673628052975839,0.0844931434270445,3.26,0.38,0.487,0.493,1.0
17.0,1744993910.7035117,-0.1873839497566223,-0.3234083354473114,-5.186149597167969,-0.4210244417190552,0.2117940634489059,0.22454933822155,-0.1436808407306671,-0.0519718900322914,-9.684836387634276,0.0838129020293837,0.0197489149755549,-2.7779739546386444,3.1553178237993165,1.5811563691727146,0.408025634903558,0.4175612153792424,9.01,0.08,0.321,0.13,1.0
17.0,1744993922.9699688,1.6285606622695925,-0.0506962575018405,-5.015640258789063,0.3074681758880615,-0.3559650480747223,-0.0061156912706792,-0.0676918253302574,-0.0116993524134159,-9.716299057006836,0.030256421362145,-0.0399452149390477,-3.0578075714822948,2.8137376073155966,2.032294112486873,0.5112922456346236,0.3752091547834162,9.01,0.08,0.321,0.13,1.0
17.0,1744993925.1123865,4.212545394897461,0.0833987072110176,-4.9886627197265625,0.8125621676445007,0.1702266633510589,0.0248960684984922,-0.0263984221965074,-0.024864412844181,-9.930535316467283,-0.1515084731246587,0.0298102924767097,-3.0499535995777407,3.265613041613936,1.8989229438617,0.5740611745961435,0.2286032002850903,9.01,0.08,0.321,0.13,1.0
17.0,1744993926.0713928,5.935059547424316,0.0583143047988414,-4.981285095214844,0.5988296866416931,-0.1649634689092636,-0.0059187323786318,-0.0689304694533348,-0.0363735482096672,-9.79948616027832,-0.0830557760150863,-0.0085346268773914,-3.0443933791758315,3.493166577843186,1.6976348017885257,0.5874943491946897,0.0892640363529695,9.01,0.08,0.321,0.13,1.0
17.0,1744993928.383005,8.0081787109375,-0.0523410253226757,-4.997230529785156,0.6573646068572998,0.1756284385919571,-0.0024316613562405,0.0014234744012355,-0.0382154732942581,-9.79605770111084,-0.0969440583040681,0.0102811581124038,-3.034493554331529,2.6806840635431533,2.466396013197402,0.5452482405203025,0.0530485080817459,9.01,0.08,0.321,0.13,1.0
17.0,1744993930.397853,9.98917293548584,0.1620652973651886,-4.998748779296875,0.6240055561065674,-0.1010355055332183,0.0089987320825457,0.0392872393131256,0.0857302024960517,-9.843012809753418,-0.0974300755983647,0.012476476454796,-3.0239113411829,3.2952769720055914,1.6293305434961578,0.4274776595161395,0.1624313747073167,9.01,0.08,0.321,0.13,1.0
17.0,1744993932.4161332,11.951552391052246,-0.0534950643777847,-4.9915618896484375,0.5932373404502869,-0.0089130075648427,0.0043790726922452,-0.0698013454675674,0.1123296171426773,-9.826642036437988,-0.0873063979617692,-0.0138961182163296,-3.011069419355681,2.619391101600898,1.5989623072524954,0.5773737167989383,0.0726642582831681,9.01,0.08,0.321,0.13,1.0
17.0,1744993934.5807676,13.92577838897705,0.093324676156044,-4.989707946777344,0.6054299473762512,0.0425838902592659,0.0065907044336199,-0.0391845218837261,-0.0093158334493637,-9.818498611450195,-0.0874948608213808,0.0173981969422605,-2.9978398135087216,2.8588243025888875,2.408993140682706,0.5912007581083947,0.1196840385432011,9.01,0.08,0.321,0.13,1.0
17.0,1744993936.6410346,16.007755279541016,0.0757300183176994,-4.995079040527344,0.6167299747467041,-0.0953045859932899,0.0085784364491701,-0.0716003701090812,-0.0104491841048002,-9.841533660888672,-0.098839435204661,-0.0083882405447067,-2.9822741368718564,2.962544236140616,1.5608474045614074,0.4683687958398576,0.0762849649491294,9.01,0.08,0.321,0.13,1.0
17.0,1744993938.6803925,17.939796447753906,-0.0530467703938484,-4.9930419921875,0.5779067873954773,0.0458795800805091,0.0099759791046381,-0.085821621119976,-0.0333049930632114,-9.788552284240724,-0.0854739437459356,-0.0110563435729477,-2.9682814085080205,3.364433034843396,2.440716197202936,0.5306965219142974,0.0805409301224205,9.01,0.08,0.321,0.13,1.0
17.0,1744993940.8475294,19.964746475219727,0.1241248846054077,-4.988059997558594,0.6058821082115173,-0.0067803105339407,0.0021545027848333,-0.0271233357489109,-0.0277751926332712,-9.813295364379885,-0.0956261820260126,0.0102698165155785,-2.951847632928317,2.89629430968266,1.5169538060180623,0.564173555147814,0.1295853450280544,9.01,0.08,0.321,0.13,1.0
17.0,1744993943.4528167,17.365076065063477,-0.5104033350944519,-4.974327087402344,-0.7107773423194885,0.2946231961250305,-0.0777787044644355,-0.2410988956689834,-0.0743979811668396,-10.05074691772461,0.1943053521266638,-0.0017330594910406,-2.912865230599249,3.1964397783939447,2.257902781868818,0.5985433887068541,0.81504543804138,9.01,0.08,0.321,0.13,1.0
17.0,1744993944.6719189,16.031326293945312,0.2541262805461883,-5.0103759765625,-0.5979170799255371,0.3721945285797119,-0.0249273609369993,-0.1324779242277145,-0.0740694850683212,-9.871603965759276,0.064816378064196,0.1124042370826564,-2.882777004992988,3.365605837864835,2.3028146320297087,0.5328980209775319,0.2562599540431819,9.01,0.08,0.321,0.13,1.0
17.0,1744993947.2715435,14.070696830749512,0.0005078733665868,-5.000923156738281,-0.4566753506660461,-0.4733999371528625,-0.0250332728028297,-0.073148488998413,0.1167991310358047,-9.887271881103516,0.0675339570049013,-0.0300512526259738,-2.8534425176834186,3.1453721421709804,2.499349514430687,0.5799995795187858,0.0707046818233773,9.01,0.08,0.321,0.13,1.0
17.0,1744993949.5585885,11.782343864440918,-0.2339408248662948,-5.002937316894531,-0.6189712285995483,0.3451320827007293,-0.0191660039126873,-0.2039437443017959,0.0309975296258926,-9.919633865356444,0.1174258534797144,0.0474365437487458,-2.8468052005778945,3.337993465584119,1.6786121849162796,0.4463275607123632,0.3195483229750624,9.01,0.08,0.321,0.13,1.0
17.0,1744993951.572962,10.064680099487305,0.3487007319927215,-4.997764587402344,-0.4508537650108337,-0.2054258584976196,-0.0119878612458705,-0.0684447884559631,-0.0575554892420768,-9.88044261932373,0.0489919453990988,0.0617033781167795,-2.8326671435306947,2.707091472127091,2.406854501689621,0.4776912802613491,0.3546557666687928,9.01,0.08,0.321,0.13,1.0
17.0,1744993953.9234312,7.985101222991943,-0.3141710162162781,-4.9973907470703125,-0.6651953458786011,0.0216599535197019,-0.0212685316801071,-0.1909471601247787,0.0134254889562726,-9.92823886871338,0.1113459738149242,-0.0077417460383995,-2.821710700382772,2.526887490001327,1.5551876389221084,0.4376965144379091,0.3145349093305157,9.01,0.08,0.321,0.13,1.0
17.0,1744993955.9652047,6.025270462036133,0.0650233924388885,-5.004074096679688,-0.6546995043754578,0.1691353172063827,-0.0119774090126156,-0.1078558191657066,-0.0261231921613216,-9.812207221984863,0.0801621868368636,0.0687744604371,-2.8197241008871807,2.8533635582835712,1.6199552420273269,0.4256955187216839,0.0698801551195815,9.01,0.08,0.321,0.13,1.0
17.0,1744993958.210572,4.046964168548584,0.0842931643128395,-4.996925354003906,-0.5596148371696472,-0.2012732774019241,-0.0161704961210489,-0.2099461257457733,-0.0528282113373279,-9.797836303710938,0.0796722325320019,0.0257710303909825,-2.810375722567763,2.656723875686113,2.164265976624157,0.5086408816453087,0.0965423436909031,9.01,0.08,0.321,0.13,1.0
17.0,1744993960.4247966,1.9924379587173464,-0.1572355777025222,-4.998527526855469,-0.6554084420204163,0.0965557545423507,-0.0181555729359388,-0.1382698267698288,0.0212798416614532,-9.90391445159912,0.1005294046857062,0.0273296027928601,-2.8099330206957585,2.5945333082721533,1.7884457163639498,0.5841758320239951,0.157424202526066,9.01,0.08,0.321,0.13,1.0
17.0,1744993962.3823318,0.0716584846377372,0.1018733158707618,-4.9981231689453125,-0.5553673505783081,0.0083215460181236,-0.0273346938192844,-0.0962855145335197,0.0458211228251457,-9.828812599182127,0.072090339751265,0.0532605856948737,-2.804180381345424,3.2514546610316923,2.3563347832391024,0.4841227401743435,0.1245657794174976,9.01,0.08,0.321,0.13,1.0
23.0,1744994196.6158185,0.6433400511741638,-0.2864739298820495,-4.976493835449219,1.0951975584030151,-0.2603526711463928,0.0706347003579139,0.0194475688040256,-0.0654620379209518,-10.39846420288086,-0.3253984706327147,-0.1263067178115755,-3.086012021519432,3.114997915491078,2.0590689173287204,0.4054013107832856,0.7046320129817617,5.35,0.14,0.285,0.289,1.0
23.0,1744994200.9958527,2.1822993755340576,0.2153333872556686,-5.017524719238281,0.2551957070827484,-0.441721111536026,0.0179449133574962,-0.0539283752441406,-0.0795535594224929,-9.93234157562256,-0.0969841336750976,-0.0331110125576437,-3.081240321715107,3.388960972179329,1.5452815503332245,0.5079924072864398,0.2826811733587642,5.35,0.14,0.285,0.289,1.0
23.0,1744994203.2108986,4.036011219024658,-0.2645220458507538,-4.9959564208984375,0.4500907361507416,0.2854926586151123,0.0120722530409693,-0.0478330664336681,-0.0339375026524066,-9.848713874816896,-0.0992871836164433,-0.025187943521635,-3.080005059353262,3.139408303659988,2.450214686726228,0.5749675640786639,0.2669926425365702,5.35,0.14,0.285,0.289,1.0
23.0,1744994205.414688,5.966508388519287,0.2401999682188034,-4.984786987304688,0.5929737687110901,-0.0544902011752128,0.0070014712400734,-0.1224164813756942,0.0132611207664012,-9.86460781097412,-0.1071855566331324,0.0201480665567833,-3.0801166520310725,3.389164858996517,2.3015247421547627,0.5952929735125894,0.2430003056112418,5.35,0.14,0.285,0.289,1.0
23.0,1744994207.472091,7.981167316436768,-0.1193035244941711,-4.997657775878906,0.5898755788803101,-0.0458082631230354,0.001947404933162,-0.0514034405350685,0.0129033103585243,-9.876158714294434,-0.1080302995320353,-0.039447903329009,-3.072285314350188,3.378394154458905,1.5921625321258168,0.5098373132475041,0.1208035054986301,5.35,0.14,0.285,0.289,1.0
23.0,1744994208.916408,9.922457695007324,0.0023671970702707,-5.003593444824219,0.5584858059883118,0.1461450308561325,0.0092919189482927,-0.0466796234250068,-0.1010731533169746,-9.745685577392578,-0.0942255482611172,0.004536633508524,-3.06613027085449,2.6826603939843903,1.9136659955002275,0.4627142398075067,0.077661609120925,5.35,0.14,0.285,0.289,1.0
23.0,1744994211.0712576,12.017428398132324,0.1030561253428459,-4.9923858642578125,0.6069834232330322,-0.0863032639026641,0.0078211352229118,-0.0189319085329771,-0.0803604423999786,-9.826818466186523,-0.1125537609900639,-0.0089245438334543,-3.058208583545058,2.6872525649909287,1.7075767710431655,0.5085401737399654,0.1047964173778838,5.35,0.14,0.285,0.289,1.0
23.0,1744994213.1363468,13.93783950805664,-0.0804846435785293,-4.990631103515625,0.5674952268600464,0.0450382493436336,0.0004248589975759,-0.124753437936306,0.0738418623805046,-9.933710098266602,-0.0944588945638489,-0.023900728364805,-3.048020975905632,2.820282017725316,1.7368398740762396,0.511156077585528,0.1021248296543905,5.35,0.14,0.285,0.289,1.0
23.0,1744994215.312043,15.940348625183104,0.0867813676595687,-4.998306274414063,0.6366870999336243,0.0326826237142086,0.0040502799674868,-0.0899676233530044,-0.0719115585088729,-9.769648551940918,-0.1048766456359728,0.0012776532952183,-3.0370963811197225,2.8755664659378555,1.5155773687992768,0.4380689082983729,0.105319328695028,5.35,0.14,0.285,0.289,1.0
23.0,1744994217.3528037,17.97368049621582,0.0403947010636329,-4.9981689453125,0.6283302307128906,-0.0593807101249694,0.0060761896893382,-0.0745459347963333,-0.0324735641479492,-9.867186546325684,-0.1086672281810887,-0.0183817471858333,-3.025953408074286,3.0563675697727124,2.4425176328319465,0.4301302690323014,0.0482472891957085,5.35,0.14,0.285,0.289,1.0
23.0,1744994219.4784937,19.91505622863769,-0.0321435667574405,-4.9944915771484375,0.616539716720581,0.0559650994837284,0.0036840140819549,-0.0273031257092952,-0.001405562274158,-9.817358016967772,-0.0982197761330843,-0.0161263358852594,-3.0139874255334047,3.2910259351848747,2.1897205872896017,0.4391542984829256,0.0909889877922221,5.35,0.14,0.285,0.289,1.0
23.0,1744994221.9969127,17.593074798583984,-0.3328419327735901,-4.9638671875,-0.8643174767494202,0.1599021106958389,-0.0772005319595336,-0.158976212143898,-0.0416757650673389,-9.992563247680664,0.1613249146725471,-0.020819047772385,-2.989474212628134,3.3268618956088694,2.194263591973748,0.5451500281177528,0.5269510906138103,5.35,0.14,0.285,0.289,1.0
23.0,1744994223.3424962,16.003843307495117,0.1703939735889434,-5.00439453125,-0.6446389555931091,0.2478830367326736,-0.0266824960708618,-0.0983445793390274,-0.0120832687243819,-9.878399848937988,0.0704923446782141,0.0639671847313854,-2.969278169848344,3.3871642673589792,1.550111889520918,0.5975433349233077,0.1704939563528245,5.35,0.14,0.285,0.289,1.0
23.0,1744994225.780247,14.046573638916016,0.0972779989242553,-5.004295349121094,-0.4679939746856689,-0.3875161707401275,-0.0119883716106414,-0.0830905884504318,-0.008929681032896,-9.813419342041016,0.05634786840535,-0.0242476092195734,-2.943627872941822,2.623281126126197,2.227074108255918,0.4755969875957193,0.1079377734653578,5.35,0.14,0.285,0.289,1.0
23.0,1744994228.2028418,11.91086196899414,-0.2242134064435959,-4.999771118164063,-0.6458890438079834,0.2319620996713638,-0.0210586413741111,-0.1346996277570724,-0.0553893446922302,-9.8211669921875,0.0953538303764467,0.0057546210335221,-2.939017157233511,3.2638157736760056,2.420592137833143,0.5225416891750324,0.2412825990152159,5.35,0.14,0.285,0.289,1.0
23.0,1744994230.1953833,10.068951606750488,0.2377878725528717,-5.000968933105469,-0.5614388585090637,-0.0741922557353973,-0.0096064070239663,-0.1122159957885742,-0.0076337689533829,-9.818915367126465,0.0556131571567873,0.0413608018980555,-2.926249193265388,3.3992960422080927,2.457039612878649,0.4654695387523205,0.2475850060848952,5.35,0.14,0.285,0.289,1.0
23.0,1744994232.403955,8.033506393432617,-0.1508278399705886,-4.996360778808594,-0.6390389800071716,-0.0780331417918205,-0.0203072931617498,-0.1312567293643951,0.0080672148615121,-9.933530807495115,0.084825535064198,-0.0196400849758378,-2.917252204288026,2.6251346849675654,2.3162557773972754,0.5855675684536203,0.1545475966876703,5.35,0.14,0.285,0.289,1.0
23.0,1744994234.398061,6.037480354309082,-0.0348861776292324,-5.000465393066406,-0.6727766394615173,0.1333215981721878,-0.0161182358860969,-0.1029534265398979,0.0465602166950702,-9.82993984222412,0.0804694495907238,0.0258963216113725,-2.911624228262443,3.04211222892775,1.532691005480475,0.5552089127356186,0.0512058486837093,5.35,0.14,0.285,0.289,1.0
23.0,1744994236.5325649,4.0827956199646,0.1173755303025245,-5.0,-0.6042504906654358,-0.125891774892807,-0.0138627225533127,-0.1117362082004547,-0.042842224240303,-9.832674026489258,0.0664370075598174,0.0175061905439428,-2.9024361295094514,3.2234076136555183,1.912830078553472,0.5421310903646419,0.1436388867929617,5.35,0.14,0.285,0.289,1.0
23.0,1744994238.7018907,2.0233418941497803,-0.1292822211980819,-5.0023345947265625,-0.6464247703552246,0.0196707341820001,-0.0104139922186732,-0.0922145470976829,-0.0731105208396911,-9.839781761169434,0.0867677676174426,-0.0020469813272097,-2.895622081246663,2.6877778278418054,1.8481168087466828,0.4408027324988146,0.1313932535290402,5.35,0.14,0.285,0.289,1.0
