mission_id,step,time,target_x,target_y,target_z,real_x,real_y,real_z,vx,vy,vz,ax,ay,az,roll,pitch,yaw,wind_x,wind_y,wind_z,erreur_m,is_attack,velocity,erreur_cumulee_m,battery_level,rain,fog,snow
1,0,1745069767.816768,0,0,-5,0.025746546685695648,-0.057006340473890305,-4.5974273681640625,0.0656885877251625,0.08975131064653397,-0.7890194654464722,-0.036596834659576416,0.046483114361763,-8.688882827758789,-0.013782439632243888,0.029050683101122535,-3.133288772327111,3.3034688569286716,2.2960048393399854,0.5365073547447851,0.4074031558834284,1,5.69,0.4074031558834284,100,0.15,0.2,0.191
1,1,1745069769.5903618,2,0,-5,1.6115796566009521,0.07858285307884216,-5.0870208740234375,1.0921640396118164,-0.005099323112517595,0.17892204225063324,-0.12141912430524826,-0.040552668273448944,-9.818949699401855,-0.08859254140045501,0.03561984073553576,-3.088670143575871,3.074054306722682,1.7665176154178086,0.4310941073427351,0.4057317592696536,1,5.69,0.813134915153082,100,0.15,0.2,0.191
1,2,1745069770.847538,4,0,-5,3.5402815341949463,0.0250875111669302,-4.9134521484375,1.2686768770217896,-0.021071771159768105,0.013644717633724213,-0.01224924623966217,-0.05573476850986481,-10.047922134399414,-0.10732208065946444,0.023650743433420246,-3.0807534751418264,3.341359982635827,1.9906732481293992,0.541707363658951,0.4684666280844215,1,5.69,1.2816015432375036,100,0.15,0.2,0.191
1,3,1745069772.2663903,6,0,-5,5.631847381591797,0.03764572739601135,-4.910682678222656,1.152352213859558,0.010367038659751415,-0.07558158040046692,0.016955140978097916,-0.044628068804740906,-9.780616760253906,-0.11776975549998552,0.03075024217948268,-3.0838004572736244,3.232804144608411,2.006187915298611,0.5043827577712532,0.38069822064394837,1,5.69,1.662299763881452,100,0.15,0.2,0.191
1,4,1745069773.732772,8,0,-5,7.516505241394043,0.10282133519649506,-4.975486755371094,1.081972360610962,-0.049034569412469864,-0.03412232547998428,-0.015564686618745327,-0.035053566098213196,-9.669254302978516,-0.09071883450740564,0.03984068534404392,-3.108414077199282,2.960513276944315,1.6270947087091738,0.44238893574497234,0.49491444486219965,1,5.69,2.157214208743652,100,0.15,0.2,0.191
1,5,1745069775.3069265,10,0,-5,9.525260925292969,0.037136685103178024,-4.993064880371094,1.1496456861495972,-0.06343278288841248,0.008998628705739975,-0.053563352674245834,0.06384095549583435,-9.85827922821045,-0.10010391172050709,0.02880441196196119,-3.117454193100667,3.424266041245439,2.259547594468211,0.5846364057724994,0.47623987476733615,1,5.69,2.633454083510988,100,0.15,0.2,0.191
1,6,1745069776.8289523,12,0,-5,11.591443061828613,-0.018710456788539886,-4.9971466064453125,1.1173045635223389,0.009228075854480267,0.004869602620601654,0.058748915791511536,-0.029738765209913254,-9.869256019592285,-0.10788031066078038,0.02869454029377551,-3.1152135438123247,2.891123955735964,2.4553655166048456,0.43279513556116,0.40899510360882324,1,5.69,3.042449187119811,100,0.15,0.2,0.191
1,7,1745069778.292229,14,0,-5,13.52340030670166,0.005403431132435799,-5.000152587890625,1.1203925609588623,0.0110869025811553,0.0031354092061519623,-0.10671786963939667,-0.03169717267155647,-9.837294578552246,-0.09923814293102197,0.03326930591112334,-3.1158331837653104,2.995812901450785,1.8099813064513919,0.408743611697597,0.47663034733757664,1,5.69,3.5190795344573877,100,0.15,0.2,0.191
1,0,1745070846.1593843,0,0,-5,0.012918693013489246,-0.04851532354950905,-4.549095153808594,0.0496721975505352,0.11673848330974579,-0.8297505974769592,0.022892434149980545,0.0035737399011850357,-8.683486938476562,-0.009383338004405568,0.0335149163674776,-3.104677098450648,2.6693065994862115,1.961598294855575,0.4803933303996103,0.4536913152873725,1,6.52,0.4536913152873725,100,0.07,0.178,0.098
1,1,1745070847.9309077,2,0,-5,1.5881584882736206,0.07854034006595612,-5.0676727294921875,1.113231897354126,-0.029751088470220566,0.16675370931625366,0.00043922755867242813,-0.011524232104420662,-9.785177230834961,-0.08702860473081413,0.03279914791783835,-3.093832164586339,2.5099344617478394,1.6791922419782956,0.4877274810512351,0.42469002121037447,1,6.52,0.878381336497747,100,0.07,0.178,0.098
1,2,1745070849.186703,4,0,-5,3.5231130123138428,-0.00020471401512622833,-4.903373718261719,1.2996275424957275,-0.01825777254998684,0.002875565318390727,0.011842930689454079,-0.0019828714430332184,-10.066071510314941,-0.11026492170672308,0.019276179655299538,-3.083704592015567,2.579919460588706,2.1412629341195224,0.5767934176956963,0.48657772170000835,1,6.52,1.3649590581977553,100,0.07,0.178,0.098
1,3,1745070850.553494,6,0,-5,5.593274116516113,0.04175002500414848,-4.9101104736328125,1.1851392984390259,0.03414568305015564,-0.08147916197776794,-0.09084067493677139,0.0004620403051376343,-9.859636306762695,-0.11574142468123993,0.034550338080362314,-3.0879179431390904,3.185030221620803,2.312200264268568,0.4286581470458636,0.41862768163860414,1,6.52,1.7835867398363594,100,0.07,0.178,0.098
1,4,1745070852.0116303,8,0,-5,7.55560827255249,0.1254592090845108,-4.9742279052734375,1.079965353012085,-0.058564964681863785,-0.023008527234196663,0.03404410183429718,-0.03917114809155464,-9.80382251739502,-0.09379131128032295,0.04325622132758807,-3.120057482515851,2.9060942703195094,1.9736419771486913,0.5088343865876569,0.4624805092482144,1,6.52,2.246067249084574,100,0.07,0.178,0.098
1,5,1745070853.637611,10,0,-5,9.573594093322754,0.015709752216935158,-4.988731384277344,1.059049129486084,-0.06870666146278381,0.00041270125075243413,-0.002762904390692711,-0.005338018760085106,-9.864104270935059,-0.09712383660880992,0.02530460945766592,-3.126206785892925,2.557398246609393,2.1869555429768246,0.5784398422020751,0.4268439706312679,1,6.52,2.672911219715842,100,0.07,0.178,0.098
1,6,1745070855.1034153,12,0,-5,11.547224998474121,-0.03841954469680786,-4.994354248046875,1.1134214401245117,0.03087182156741619,0.006483691744506359,0.005273651331663132,0.02946288138628006,-9.845274925231934,-0.09896970938450018,0.028048330977975617,-3.1205152530506273,3.3973611614899,2.17918443597907,0.5572701274630864,0.4544371661039465,1,6.52,3.1273483858197886,100,0.07,0.178,0.098
1,7,1745070856.5683477,14,0,-5,13.564421653747559,0.027333350852131844,-4.9945831298828125,1.12397038936615,0.019591879099607468,0.004855634644627571,0.06458126753568649,0.014192814007401466,-9.985296249389648,-0.1057921407354874,0.03828541802809053,-3.1212448156859485,2.620118695686595,2.1167909812796886,0.5967294316953804,0.4364687277167563,1,6.52,3.563817113536545,100,0.07,0.178,0.098
1,8,1745070860.2566292,20.568928765747614,2.6420283055415297,-5,20.59676742553711,3.0913403034210205,-4.9327545166015625,-2.7764651775360107,-0.5164826512336731,-0.4452062249183655,-0.327594518661499,-0.08521842211484909,-10.024086952209473,0.22994550385908505,0.05749244605403799,3.0929043993771868,3.40918157181703,2.0835597278214664,0.509853586445784,0.4551683396885425,1,6.52,4.0189854532250875,100,0.07,0.178,0.098
1,9,1745070863.031091,22.393185065662095,2.2942711771587954,-5,21.943857192993164,2.1999261379241943,-4.9955291748046875,2.300708055496216,0.3667314052581787,0.05573636293411255,-0.05200844630599022,0.028868217021226883,-10.570259094238281,-0.2653562456780633,0.07918031759031387,3.0972321800517113,3.361392211052954,1.8834319906180066,0.4428079257412833,0.4591475926794048,1,6.52,4.478133045904492,100,0.07,0.178,0.098
1,10,1745070863.0586731,22.321085676613617,2.60430424762142,-5,22.057519912719727,2.222780227661133,-4.987709045410156,2.224029779434204,0.362709105014801,0.051900263875722885,-0.05306846648454666,-0.034281082451343536,-10.53286361694336,-0.2696251428753146,0.08100799769725416,3.096968953544669,2.908902849293206,2.07637147172243,0.44155130585899705,0.4638734280688615,1,6.52,4.942006473973354,100,0.07,0.178,0.098
1,11,1745070870.4889293,18,0,-5,18.268814086914062,-0.19163163006305695,-4.93988037109375,-1.437971830368042,-0.5162306427955627,-0.16509829461574554,-0.11412668228149414,-0.09446156024932861,-9.961297035217285,0.11894366389696832,-0.05169609953331707,-3.1172100547606103,3.1397760664561396,2.3370676480790813,0.521577796609256,0.33555635107071163,1,6.52,5.277562825044066,100,0.07,0.178,0.098
1,12,1745070873.7681572,16,0,-5,15.594836235046387,0.11248409748077393,-5.038658142089844,0.786102831363678,0.1202477365732193,0.03897494450211525,0.02436840534210205,-0.04331004247069359,-9.839431762695312,-0.018315391747829434,0.07270661251884204,-3.1301149402150186,3.0900496818833156,2.175523916943486,0.40705305777204215,0.422261531005714,1,6.52,5.699824356049779,100,0.07,0.178,0.098
1,13,1745070875.844015,14,0,-5,14.440629959106445,0.13534627854824066,-4.9606781005859375,-1.4190113544464111,-0.06844419986009598,-0.08814164996147156,-0.2291036993265152,-0.023672524839639664,-9.930730819702148,0.11724407126433302,0.05343663431046739,-3.124063634136126,3.107687831438971,2.1256545245108884,0.5349060837962019,0.4626225110741319,1,6.52,6.162446867123911,100,0.07,0.178,0.098
1,14,1745070876.8587024,12,0,-5,12.40419864654541,0.09960288554430008,-4.995552062988281,-1.47209894657135,-0.11127550899982452,-0.05728139728307724,-0.1369175910949707,-0.016792435199022293,-9.882749557495117,0.14648167779334687,0.04353750707869062,-3.1303586049628906,3.0440835768769023,2.209385283231094,0.5936468838096813,0.41631366158409044,1,6.52,6.578760528708002,100,0.07,0.178,0.098
1,15,1745070878.4931166,10,0,-5,10.36125659942627,-0.08917254209518433,-5.029457092285156,-1.2528704404830933,-0.050550155341625214,-0.009662987664341927,-0.0664631575345993,-0.06112375855445862,-9.889482498168945,0.1391374717928395,0.017853346390709488,-3.138695390659,2.9314359185678516,1.9639753799898025,0.49886103843954793,0.3732637046092826,1,6.52,6.952024233317284,100,0.07,0.178,0.098
1,16,1745070881.4717772,8,0,-5,8.464223861694336,0.04243495315313339,-5.000701904296875,-0.7699838876724243,0.16499461233615875,-0.01601162925362587,-0.06976470351219177,-0.0004440806806087494,-9.807141304016113,0.05389384657485337,0.0625564626454648,3.1247175563908915,3.1866839794533393,1.9522212884099985,0.46575968399839984,0.46615985636383633,1,6.52,7.41818408968112,100,0.07,0.178,0.098
1,17,1745070884.0514143,6,0,-5,6.430209159851074,0.1753729283809662,-4.991874694824219,-1.0552377700805664,0.0015566888032481074,-0.025371039286255836,-0.0841924399137497,-0.08232931792736053,-9.808097839355469,0.0804133987805993,0.0383067468405956,3.117160635591935,2.5812192587662426,2.494994931771445,0.5408658208796853,0.46465213419598345,1,6.52,7.882836223877104,100,0.07,0.178,0.098
1,18,1745070885.4076672,4,0,-5,4.42692232131958,0.1788855791091919,-5.00079345703125,-1.3069156408309937,-0.015384556725621223,-0.02535163424909115,-0.09719563275575638,0.02037826180458069,-9.839113235473633,0.12456591971142612,0.04299579644072894,3.115845521170414,2.8765027295237076,2.3793298984650595,0.47257296268423404,0.4628858913686938,1,6.52,8.345722115245797,100,0.07,0.178,0.098
1,19,1745070886.676072,2,0,-5,2.412644863128662,0.1287987232208252,-5.011329650878906,-1.246863603591919,-0.05847959220409393,-0.015423259697854519,-0.16225838661193848,-0.009422542527318,-9.846543312072754,0.12674711038091518,0.03358540833210082,3.113018826439216,2.830701732463539,1.6490898177215643,0.4760440747036081,0.43242716746155635,1,6.52,8.778149282707354,100,0.07,0.178,0.098
1,20,1745070888.0451863,0,0,-5,0.46272197365760803,0.017312411218881607,-5.007148742675781,-1.174346923828125,0.0015962797915562987,-0.009421362541615963,-0.04588685557246208,-0.052246782928705215,-9.823309898376465,0.11609317110988282,0.026011507809840028,3.106645418813273,2.926581129147668,2.1369653294735524,0.5770213312904642,0.46310090586139896,1,6.52,9.241250188568753,100,0.07,0.178,0.098
1,0,1745072647.8527277,0,0,-5,0.026150019839406013,-0.06329021602869034,-4.588531494140625,0.05999787896871567,0.09752253443002701,-0.796729564666748,-0.00474066287279129,-0.09555325657129288,-8.736052513122559,-0.014049612263580178,0.027892305489839373,-3.1219932106362256,3.3521750342027117,1.9934171375432557,0.5004040877096616,0.41712804544492826,1,6.39,0.41712804544492826,100,0.19,0.186,0.118
1,1,1745072649.6251152,2,0,-5,1.586437702178955,0.07981985807418823,-5.079704284667969,1.105983018875122,-0.003674361389130354,0.1603209227323532,-0.07290230691432953,-0.031275659799575806,-9.84621524810791,-0.08604654641285386,0.03671286963342075,-3.087237957247777,2.64309532051307,2.1987579034105185,0.4443503712021041,0.42866975274264313,1,6.39,0.8457977981875714,100,0.19,0.186,0.118
1,2,1745072650.89429,4,0,-5,3.5338690280914307,0.021238811314105988,-4.922737121582031,1.2898179292678833,-0.022838713601231575,0.014844260178506374,-0.0037749391049146652,-0.04390528053045273,-10.064498901367188,-0.10965487507591089,0.023156971876521402,-3.079392579207381,2.7443431235799802,2.3998459814126725,0.5024623422093605,0.4729679930607287,1,6.39,1.3187657912483002,100,0.19,0.186,0.118
1,3,1745072652.2483344,6,0,-5,5.611323833465576,0.026765039190649986,-4.916999816894531,1.171810507774353,0.014025939628481865,-0.06495317071676254,0.03320688754320145,0.0028763264417648315,-9.83444881439209,-0.1151403288914198,0.02868475974638721,-3.080206525651884,2.6668177801488913,1.853015154804204,0.587067230612561,0.3983397546696959,1,6.39,1.717105545917996,100,0.19,0.186,0.118
1,4,1745072653.705199,8,0,-5,7.549391746520996,0.11284290254116058,-4.9804534912109375,1.1026251316070557,-0.03462478518486023,-0.026177827268838882,0.02207363024353981,-0.037014126777648926,-9.78150463104248,-0.09537727972475549,0.043420857236776904,-3.1067687479417447,2.903357199630732,2.4368597618879004,0.41068999204933676,0.4649337423366398,1,6.39,2.182039288254636,100,0.19,0.186,0.118
1,5,1745072655.6765203,12.741056222941276,2.909551067190278,-5,12.652441024780273,2.588880777359009,-4.9717559814453125,2.0878727436065674,1.450909972190857,-0.009022503159940243,-0.00884880032390356,-0.0565214641392231,-10.261741638183594,-0.29138917492223093,0.14385632210019475,-3.080285679692169,2.608216246983426,1.9082617102603807,0.5767968653398344,0.33388592769043357,1,6.39,2.515925215945069,100,0.19,0.186,0.118
1,6,1745072661.1792953,15.519037885280131,2.151755106894096,-5,15.163445472717285,2.4911909103393555,-5.022186279296875,0.5416283011436462,0.33015042543411255,0.010638563893735409,-0.026136139407753944,0.054515570402145386,-9.806062698364258,-0.03463567781841764,0.12999788276984467,-3.0586422622069738,3.2136636348419265,2.4489479273686703,0.4381372892299385,0.4920923282493164,1,6.39,3.0080175441943857,100,0.19,0.186,0.118
1,7,1745072662.8489714,17.955516866916525,1.4305995022786246,-5,17.57948875427246,1.758364200592041,-4.968986511230469,1.3502382040023804,-0.8876501321792603,-0.014684381894767284,-0.013444456271827221,-0.06593012064695358,-9.939855575561523,-0.12770471994781374,-0.030398290023661716,-3.0860880786981695,2.753676912855526,2.140457708897197,0.46807537742064,0.4997886307678477,1,6.39,3.5078061749622336,100,0.19,0.186,0.118
1,8,1745072669.4561336,20.777034354413356,1.460869917240667,-5,20.72454833984375,0.9730365872383118,-5.007881164550781,0.560336709022522,0.16933339834213257,0.005270414054393768,-0.03334717079997063,-0.06253370642662048,-9.779635429382324,-0.07218147854746713,-0.031343771700856074,-3.122312451647476,2.787147936983351,2.330014219684926,0.4893176469349903,0.49071198512086917,1,6.39,3.9985181600831026,100,0.19,0.186,0.118
1,9,1745072671.0159347,22.23733213320625,2.8775732194663366,-5,22.18341827392578,2.4194517135620117,-5.0027618408203125,0.6336148977279663,1.2451359033584595,-0.004830066114664078,-0.038429297506809235,-0.00048649078235030174,-9.857260704040527,-0.09115065651861823,0.10991054940547586,-3.1030177104411236,2.7885625129106755,1.5958786135177232,0.4003797258192231,0.46129128125217966,1,6.39,4.459809441335282,100,0.19,0.186,0.118
1,10,1745072678.077214,24.45616952441589,2.6547218000898867,-5,24.25614356994629,3.0946836471557617,-5.006095886230469,0.4124271869659424,-0.1344151645898819,0.005292053800076246,-0.04342443868517876,0.01426222175359726,-9.867626190185547,-0.036371276722490506,0.0892532416052917,-3.079413082606755,2.719194911537511,2.103761592726248,0.46113603609134124,0.4833362899307547,1,6.39,4.9431457312660365,100,0.19,0.186,0.118
1,11,1745072680.154711,21.1901196170352,1.1514900488232187,-5,21.600004196166992,1.130521535873413,-4.92413330078125,-1.8687504529953003,-0.8704808354377747,-0.1335703432559967,-0.25974076986312866,-0.0321645513176918,-10.056000709533691,0.17084854812952316,-0.064747350904314,-3.032863240959208,3.1343275203673966,2.1463753916219988,0.5930967717307344,0.4173736968182353,1,6.39,5.360519428084272,100,0.19,0.186,0.118
1,12,1745072681.9235156,16,0,-5,16.375999450683594,-0.15463459491729736,-5.017509460449219,-2.3580710887908936,-0.15792585909366608,-0.06547687947750092,-0.1812698096036911,0.09729869663715363,-10.0521240234375,0.24079911739773469,0.004271024599750575,-3.0354560515366,2.7234652960032015,2.04819831208619,0.5325350287650985,0.4069324588489147,1,6.39,5.767451886933187,100,0.19,0.186,0.118
1,13,1745072682.7840142,14,0,-5,14.353103637695312,-0.1732315868139267,-5.044456481933594,-1.5649230480194092,0.1327599138021469,-0.0027004401199519634,-0.07353696972131729,0.005855303257703781,-9.8820161819458,0.16694080849744686,0.03302466783530151,-3.0357957896923904,2.5609016206676154,2.219359804232787,0.48408204022942153,0.3958127592810084,1,6.39,6.163264646214195,100,0.19,0.186,0.118
1,14,1745072684.249056,12,0,-5,12.477409362792969,0.03864980861544609,-5.020744323730469,-0.9272686243057251,0.11871110647916794,0.011024035513401031,-0.1263500154018402,-0.05085275322198868,-9.889631271362305,0.05847536645422068,0.05573103807554738,-3.0483454512742503,3.3447040699327006,2.3496897382306448,0.5391080605535892,0.47942031074562697,1,6.39,6.642684956959822,100,0.19,0.186,0.118
1,15,1745072685.970937,10,0,-5,10.448140144348145,0.12205982208251953,-5.001533508300781,-1.1035840511322021,-0.06078413501381874,-0.01802227646112442,-0.09570513665676117,-0.03780089691281319,-9.850395202636719,0.08039582845336674,0.05118444735385514,-3.0478850569340588,2.8706696068890434,2.14276771382022,0.4615766955902391,0.46446801912607577,1,6.39,7.107152976085898,100,0.19,0.186,0.118
1,16,1745072687.38822,8,0,-5,8.45144271850586,0.022587578743696213,-5.004035949707031,-1.1417853832244873,-0.05898701772093773,-0.014064467512071133,-0.10525265336036682,-0.07437852025032043,-9.919464111328125,0.0880647138404072,0.036264172403577544,-3.0531286137259057,3.395742057231465,2.1396906046381403,0.4793914545448988,0.45202545912315706,1,6.39,7.559178435209055,100,0.19,0.186,0.118
1,17,1745072688.846002,6,0,-5,6.379284381866455,-0.05246654897928238,-5.0011138916015625,-1.0771862268447876,0.028191983699798584,-0.010970593430101871,-0.08202886581420898,-0.0669478178024292,-9.846724510192871,0.09399416050209825,0.03428948174569554,-3.0567156238447533,2.5713193900374636,1.6065715942199887,0.5988432200780763,0.3828976649760539,1,6.39,7.942076100185108,100,0.19,0.186,0.118
1,18,1745072690.3061042,4,0,-5,4.429433822631836,-0.006113582290709019,-4.999397277832031,-1.0527726411819458,0.051555462181568146,-0.013796464540064335,-0.18541772663593292,-0.09484941512346268,-9.806324005126953,0.08196083691770374,0.044253141400613774,-3.0589212109291672,2.8272112011832164,2.0464345332670857,0.4983412417524762,0.4294777609872578,1,6.39,8.371553861172366,100,0.19,0.186,0.118
1,19,1745072691.7684727,2,0,-5,2.454739570617676,0.04034252464771271,-4.997932434082031,-1.109749674797058,-0.006098857615143061,-0.01656796969473362,-0.14522747695446014,0.004083331674337387,-9.809538841247559,0.0847570272592017,0.0457220671331468,-3.060473564183733,2.6384991271158476,1.9441443505067926,0.5285533238895939,0.45653025223891197,1,6.39,8.828084113411277,100,0.19,0.186,0.118
1,20,1745072693.2338915,0,0,-5,0.4350258708000183,0.008861720561981201,-5.000923156738281,-1.1141718626022339,-0.01588561199605465,-0.01645541936159134,-0.15283504128456116,0.010463140904903412,-9.896758079528809,0.09284336247957523,0.040093324401695794,-3.0624464963277944,2.6966080341193535,2.2409397390125982,0.5670921963608532,0.43511709984209573,1,6.39,9.263201213253373,100,0.19,0.186,0.118
2,0,1745072698.2166412,0,0,-5,0.0689094141125679,0.4410332441329956,-4.778617858886719,-0.3371546268463135,-0.15888912975788116,-0.7055675983428955,-0.0941065102815628,0.022023137658834457,-8.547684669494629,0.02098177996969484,0.0722133896071844,-3.085005656550294,3.2147082023129143,1.9511732232291985,0.5921461660586712,0.49826587499819075,1,5.25,0.49826587499819075,50,0.15,0.01,0.118
2,1,1745072700.3434112,2,0,-5,1.6781216859817505,-0.19804401695728302,-5.110069274902344,1.1513867378234863,-0.03122059814631939,0.2185228019952774,-0.046221353113651276,-0.023856818675994873,-10.055566787719727,-0.10535882180803131,-0.022409340424368644,-3.1049903835946377,2.9068201232399775,2.268373447423686,0.45406039722805625,0.39362714205874466,1,5.25,0.8918930170569355,50,0.15,0.01,0.118
2,2,1745072701.597617,4,0,-5,3.644590377807617,-0.133879154920578,-4.93280029296875,1.18179190158844,0.2556457221508026,-0.011744347400963306,0.03957241773605347,-0.03854947164654732,-10.046293258666992,-0.12152522663332892,0.02731108031443717,-3.11108388902592,3.1012151286786165,2.2904045514518994,0.4597714309709551,0.38568825273044843,1,5.25,1.2775812697873838,50,0.15,0.01,0.118
2,3,1745072702.9540756,6,0,-5,5.57681941986084,0.2585904598236084,-4.951446533203125,1.0899978876113892,0.023052051663398743,-0.05515274405479431,-0.06275628507137299,0.02127024158835411,-9.819415092468262,-0.09998364681049786,0.06776944525964773,-3.119812634646441,3.453132992926156,1.6333556252339503,0.5253579977403211,0.4983053967766119,1,5.25,1.7758866665639959,50,0.15,0.01,0.118
2,4,1745072704.5223415,8,0,-5,7.540696620941162,0.14368589222431183,-4.998878479003906,1.105422019958496,-0.208783358335495,-0.0062758768908679485,-0.06417547166347504,-0.11051404476165771,-9.820745468139648,-0.09406770419947616,0.022965048389264678,-3.120345973445123,3.090051224090948,2.087150445484041,0.5152991783605648,0.4812551168024167,1,5.25,2.2571417833664125,50,0.15,0.01,0.118
2,5,1745072705.9824646,10,0,-5,9.517593383789062,-0.12557877600193024,-5.0055389404296875,1.1163545846939087,0.024461474269628525,0.009499194100499153,-0.0027377307415008545,-0.08698088675737381,-9.808440208435059,-0.0928546144181244,0.0054308198673671286,-3.115050217658899,2.8174851353170163,2.1702417699239116,0.4619700277947996,0.49851464593060185,1,5.25,2.7556564292970145,50,0.15,0.01,0.118
2,6,1745072707.4984488,12,0,-5,11.610862731933594,0.010007846169173717,-4.999748229980469,1.0963279008865356,0.09845767170190811,0.013151109218597412,-0.03513101860880852,-0.09847557544708252,-9.858467102050781,-0.10850112158950646,0.038063948473259245,-3.115705875261696,2.583300676851358,1.5026727473988695,0.5948131606685567,0.38926601928665017,1,5.25,3.1449224485836647,50,0.15,0.01,0.118
2,7,1745072708.9569964,14,0,-5,13.564105987548828,0.12407781928777695,-4.9984283447265625,1.075507640838623,-0.053161196410655975,0.005288026761263609,0.010221736505627632,-0.07167728245258331,-9.913519859313965,-0.09971126068734126,0.04068337591366963,-3.116344824940418,2.584153227713141,2.258329084500043,0.5296099798387487,0.4532122741390519,1,5.25,3.5981347227227167,50,0.15,0.01,0.118
2,8,1745072711.4202943,18.916792137813932,1.3967774868108864,-5,18.59840202331543,1.1962900161743164,-4.980125427246094,2.256195068359375,0.7089272737503052,-0.004019112326204777,-0.03387143462896347,-0.02691253460943699,-10.173548698425293,-0.27599295287430825,0.07648758803504394,-3.0974284586455454,2.8385880497488376,2.46721128415425,0.5906112603553404,0.37677909912144697,1,5.25,3.9749138218441638,50,0.15,0.01,0.118
2,9,1745072712.2833781,21.114469344719616,2.0196018728414975,-5,20.71442985534668,1.8996057510375977,-4.974639892578125,1.55380380153656,0.5629158616065979,-0.01792338117957115,-0.09310241043567657,-0.007519151549786329,-9.880975723266602,-0.1920898872962343,0.08322910377337978,-3.099962864761693,2.9543437756388036,2.036586679287494,0.5731317417578653,0.4184182086790501,1,5.25,4.393332030523214,50,0.15,0.01,0.118
2,10,1745072714.054535,23.94588603925845,2.9263479339675014,-5,23.504240036010742,2.9083828926086426,-5.004737854003906,1.1257559061050415,0.2989497482776642,0.006948084570467472,-0.049272507429122925,0.04283639416098595,-9.84708309173584,-0.12324040403776006,0.07032923672276357,-3.095429323784142,3.3199886563421144,1.5142023913124079,0.4831095457565245,0.4420366298806725,1,5.25,4.835368660403887,50,0.15,0.01,0.118
2,11,1745072716.024616,20.36082766810025,1.2010083199143429,-5,20.73825454711914,1.3139150142669678,-4.891807556152344,-2.176445722579956,-1.0178253650665283,-0.18272246420383453,-0.21619991958141327,-0.03770032897591591,-10.245830535888672,0.18648402294922478,-0.06282752374593019,-3.073100476048488,3.212171025842939,2.0563489702902698,0.4169956733122705,0.408539564230083,1,5.25,5.24390822463397,50,0.15,0.01,0.118
2,12,1745072718.6528127,19.245630479429277,1.7270613887731812,-5,18.794710159301758,1.9109983444213867,-5.03216552734375,1.02877676486969,0.6169631481170654,0.01397231500595808,-0.07575762271881104,0.01751164346933365,-9.869701385498047,-0.05858533901241471,0.13517892592568148,-3.085861337789553,2.7461638395370516,1.742243800323641,0.47760286351387926,0.4880538493919865,1,5.25,5.731962074025957,50,0.15,0.01,0.118
2,13,1745072720.9794323,14,0,-5,14.036833763122559,0.139463409781456,-4.8539581298828125,-2.665174961090088,-1.1631537675857544,-0.3374355435371399,-0.2868936061859131,-0.0906427800655365,-10.571776390075684,0.32645371483696783,-0.06096007563361416,-3.0594998899945742,2.8053775183116842,2.4855565896782723,0.5948469256449063,0.2052681090694912,1,5.25,5.937230183095449,50,0.15,0.01,0.118
1,0,1745073897.5658073,0,0,-5,0.015805313363671303,-0.07085289806127548,-4.568717956542969,0.06445366889238358,0.1315648853778839,-0.8273121118545532,0.013734828680753708,0.01875947415828705,-8.7341947555542,-0.011132555811761782,0.030520327755995016,-3.1300818016426373,2.615527174833102,2.3492672572404407,0.5992258361765461,0.4373489934853834,1,7.47,0.4373489934853834,100,0.03,0.039,0.091
1,0,1745096322.1562214,0,0,-5,-0.0020134891383349895,-0.09957603365182877,-4.54351806640625,0.06841395795345306,0.03375251591205597,-0.8480658531188965,-0.04250798374414444,-0.04857326298952103,-8.633651733398438,-0.00812216119662198,0.014088454444408038,3.139840928157805,3.0840990191233324,1.6798642421259422,0.5418120801714581,0.46722071477389476,0,9.36,0.46722071477389476,100,0.1,0.035,0.144
1,1,1745096323.9271429,2,0,-5,1.5783495903015137,0.013721015304327011,-5.094367980957031,1.1436835527420044,0.06253504008054733,0.1869623064994812,-0.09837646782398224,-0.06430353224277496,-9.898488998413086,-0.09130594373209057,0.03295656649551139,-3.1010912883731034,3.395748428742091,1.7932642978455164,0.475208421486192,0.43229925987652296,0,9.36,0.8995199746504177,100,0.1,0.035,0.144
1,2,1745096325.19315,4,0,-5,3.5374460220336914,0.04849166423082352,-4.921356201171875,1.2834341526031494,0.004475741647183895,0.02927243523299694,-0.07689957320690155,-0.021944614127278328,-10.019693374633789,-0.11067750459449874,0.031862338803761596,-3.0987304649974132,2.808142872168275,1.6716688314010972,0.5682213378049449,0.47169107594531595,0,9.36,1.3712110505957336,100,0.1,0.035,0.144
1,3,1745096326.5587015,6,0,-5,5.577118873596191,0.09258522093296051,-4.91119384765625,1.1753302812576294,-0.024002641439437866,-0.07042456418275833,-0.021999167278409004,0.058995142579078674,-9.811145782470703,-0.1103146266402906,0.0380650282736375,-3.1083375393882173,2.8658946493503294,1.8597387874198956,0.5256452944876762,0.44191289062196454,0,9.36,1.813123941217698,100,0.1,0.035,0.144
1,4,1745096328.023476,8,0,-5,7.517027854919434,0.09758756309747696,-4.971275329589844,1.1416387557983398,-0.06681391596794128,-0.02711818553507328,0.03726121038198471,-0.041886378079652786,-9.849380493164062,-0.0932826763950071,0.03813551641626762,-3.1281079346575713,3.350842828350553,2.3086975240055656,0.5436131644253299,0.4935691765955405,0,9.36,2.3066931178132384,100,0.1,0.035,0.144
1,5,1745096329.5841346,10,0,-5,9.608762741088867,0.010092128068208694,-4.999214172363281,1.106834888458252,-0.04238070920109749,0.006721052341163158,0.026724252849817276,-0.04071136564016342,-9.843186378479004,-0.10868314376915293,0.02787137072442633,-3.130092056168308,3.29659466458856,2.236816291629336,0.449038414666354,0.39136819152087016,0,9.36,2.6980613093341086,100,0.1,0.035,0.144
1,6,1745096331.0466843,12,0,-5,11.545905113220215,-0.02442726492881775,-5.003631591796875,1.0933897495269775,0.014210914261639118,0.01044591423124075,-0.06259293854236603,-0.002698659896850586,-9.868361473083496,-0.09705041560721393,0.027604745443912122,-3.12625947605227,2.5424423247770376,1.5848428821769862,0.453673907711562,0.45476592432857993,0,9.36,3.1528272336626886,100,0.1,0.035,0.144
1,7,1745096332.604337,14,0,-5,13.627057075500488,0.009933874942362309,-4.9986724853515625,1.0587455034255981,0.010323036462068558,0.007790203206241131,-0.042279068380594254,-0.026825282722711563,-9.849641799926758,-0.10590483586262915,0.034480796489736405,-3.1260262988775294,2.7145488693804003,1.5865392216373422,0.4570543697218695,0.3730775644564556,0,9.36,3.5259047981191443,100,0.1,0.035,0.144
1,8,1745096334.1670172,16,0,-5,15.606704711914062,0.024776216596364975,-4.9981842041015625,1.0576719045639038,-0.01594976708292961,0.003232027869671583,-0.004446597769856453,0.02750033512711525,-9.716940879821777,-0.10108543963745767,0.033734951134337623,-3.1293820398912735,3.2402731436150938,1.6067075361631695,0.40215165384106805,0.3940791058330489,0,9.36,3.9199839039521933,100,0.1,0.035,0.144
1,9,1745096335.6261158,18,0,-5,17.51148223876953,0.021644780412316322,-4.993843078613281,1.1182010173797607,-0.01469606813043356,0.0025226690340787172,-0.11432547122240067,-0.006598014384508133,-9.787165641784668,-0.0985845165323031,0.03453825074485043,-3.1287063664597627,3.1815690640240764,2.3096242505954874,0.5193643024416938,0.48903579341157527,0,9.36,4.409019697363768,100,0.1,0.035,0.144
1,10,1745096337.689273,23.524635642771255,2.178975637924257,-5,23.459217071533203,1.969726324081421,-4.9586029052734375,2.3595848083496094,1.0983631610870361,-0.02197374776005745,0.06509304791688919,-0.03290901333093643,-10.347709655761719,-0.32860521197210696,0.12821048219824102,-3.1153389467869053,2.5056004698151,2.2427779549823694,0.5217553395738674,0.22311114776793584,0,9.36,4.632130845131704,100,0.1,0.035,0.144
1,11,1745096339.8562498,22.692469611202416,1.8296357496024582,-5,23.071874618530273,2.046919584274292,-4.884346008300781,-1.8102104663848877,-0.7912602424621582,-0.16620531678199768,-0.21292376518249512,-0.05442683398723602,-10.030625343322754,0.12687117314066076,-0.017023655098978387,-3.117523090236681,2.7841613612113063,2.2390508928782653,0.4539762179656256,0.4522568630668986,0,9.36,5.084387708198603,100,0.1,0.035,0.144
1,12,1745096341.2220514,19.046777673007146,1.0554400647544584,-5,19.206375122070312,0.6915470361709595,-4.952354431152344,-2.0103232860565186,-0.34136763215065,-0.1547744870185852,-0.1920933723449707,-0.050964295864105225,-10.052709579467773,0.22275462468042392,-0.07150118865736184,-3.1264535416765744,3.2004581920808315,1.9904963546614094,0.43038799985664294,0.40019942807300224,0,9.36,5.484587136271606,100,0.1,0.035,0.144
1,13,1745096348.3303638,18.077667756662954,2.879096535856915,-5,17.67591667175293,2.682692050933838,-5.01739501953125,0.3730655014514923,0.572106122970581,-0.002979901386424899,-0.030724037438631058,-0.03784806281328201,-9.744863510131836,0.013157720795961513,0.07510358851971254,-3.0880395301908656,2.943603199277091,1.9729737466884227,0.5719020966252656,0.44752792385366713,0,9.36,5.932115060125273,100,0.1,0.035,0.144
1,14,1745096350.5007274,15.176625391327029,2.0923663954434435,-5,15.317270278930664,2.5083930492401123,-4.967376708984375,-1.4090436697006226,-0.7119418978691101,-0.0810718908905983,-0.17447488009929657,-0.09509873390197754,-9.947883605957031,0.15235649271072904,0.028953654481000343,-3.0690199153398927,2.6096975000814306,2.2462051589394094,0.5507662613767867,0.44036739229305183,0,9.36,6.372482452418325,100,0.1,0.035,0.144
1,15,1745096352.9762082,13.462986049063533,2.955054693671448,-5,13.106620788574219,2.678858995437622,-5.021949768066406,0.3496676981449127,0.641599714756012,0.00910751149058342,-0.06124374642968178,0.07610426843166351,-9.90768814086914,0.0281852391657927,0.06883110428088507,-3.1090058402074305,2.9710818240585977,1.8928479235261262,0.5258643962139748,0.451400105144711,0,9.36,6.823882557563036,100,0.1,0.035,0.144
1,16,1745096355.2464116,8,0,-5,8.172392845153809,0.3792758584022522,-4.888038635253906,-2.5309269428253174,-1.5998637676239014,-0.25249946117401123,-0.21482928097248077,-0.014615390449762344,-10.474591255187988,0.30499010411643257,-0.06980741112187688,-3.0360974125975457,2.7426494195070386,1.5445787747299682,0.4834145287168933,0.431398675267783,0,9.36,7.255281232830819,100,0.1,0.035,0.144
1,17,1745096357.77334,6,0,-5,5.748166084289551,-0.3585839867591858,-5.0260467529296875,0.8146939873695374,0.9324327707290649,0.017314916476607323,0.005114708095788956,-0.040791504085063934,-9.952447891235352,-0.0409084982982549,0.08032638864934731,-3.0909885294011694,2.8051397501837156,2.0185405679027273,0.41178652667879384,0.4389547015357618,0,9.36,7.6942359343665805,100,0.1,0.035,0.144
1,18,1745096360.3467917,4,0,-5,4.004631042480469,0.4722815752029419,-4.965248107910156,-1.2326953411102295,-0.674504280090332,-0.10963735729455948,-0.14446118474006653,-0.08566337823867798,-9.971158981323242,0.15833210327421077,0.043729283417533786,-3.084779413066014,3.1419649178446196,2.3288525480580917,0.4500509766927132,0.47358106680319484,0,9.36,8.167817001169775,100,0.1,0.035,0.144
1,19,1745096361.311406,2,0,-5,2.3911850452423096,-0.24763602018356323,-5.00579833984375,-1.1488243341445923,-0.333342581987381,-0.047054603695869446,-0.0781848132610321,-0.10794664919376373,-9.751795768737793,0.09140962176162347,-0.042884668552087446,-3.103672642694288,3.2146698211929783,2.376691704647857,0.5958631542385195,0.463015074115871,0,9.36,8.630832075285646,100,0.1,0.035,0.144
1,20,1745096362.8730576,0,0,-5,0.26292362809181213,-0.35507717728614807,-5.022651672363281,-0.9601141810417175,0.4217638671398163,-0.0018530292436480522,-0.10111474245786667,-0.009304651990532875,-9.904667854309082,0.09892393374868484,0.032025499391435897,-3.1032162983946487,3.426662119173578,2.492831171843497,0.5666972020327128,0.44240449172596974,0,9.36,9.073236567011616,100,0.1,0.035,0.144
2,0,1745096369.0500877,0,0,-5,-0.2364652305841446,0.28903695940971375,-4.745903015136719,0.07523924857378006,0.06393656879663467,-0.7497225403785706,0.03377646207809448,-0.05642532557249069,-8.487768173217773,0.03374711075052431,0.07216769738242507,-3.0893470316313434,2.507333982329525,2.264520997557534,0.5870638281737184,0.4516895470305194,0,6.42,0.4516895470305194,50,0.15,0.019,0.03
2,1,1745096370.918314,2,0,-5,1.6898777484893799,0.14919601380825043,-5.142646789550781,1.2312570810317993,-0.14139382541179657,0.2672758102416992,-0.02539747953414917,-0.026124756783246994,-10.056379318237305,-0.11838185340391094,0.020710212598325915,-3.0962699784751626,2.504201626267815,2.491989703148617,0.47679723180638456,0.37253639820483697,0,6.42,0.8242259452353564,50,0.15,0.019,0.03
2,2,1745096372.0721786,4,0,-5,3.580409049987793,-0.04077565670013428,-4.9394683837890625,1.2595974206924438,0.0071052624844014645,0.030455656349658966,-0.08091714978218079,-0.054361384361982346,-10.038654327392578,-0.11124054366311209,0.009973381541694587,-3.0938521727390995,2.862815039617077,2.0243932981774275,0.5579805310740045,0.4258911786742969,0,6.42,1.2501171239096533,50,0.15,0.019,0.03
2,3,1745096373.4306693,6,0,-5,5.563666820526123,0.04590977728366852,-4.930549621582031,1.1917511224746704,0.103240966796875,-0.06092188507318497,-0.05857241153717041,-0.046975813806056976,-9.823845863342285,-0.11192033462536134,0.04077292990728609,-3.096321727620037,3.3915935719228143,1.9464235340091969,0.5487409973135748,0.44420457699399907,0,6.42,1.6943217009036524,50,0.15,0.019,0.03
2,4,1745096374.99629,8,0,-5,7.641452789306641,0.17717832326889038,-4.994178771972656,1.03314208984375,-0.060922570526599884,-0.013312782160937786,0.0090557299554348,-0.025686446577310562,-9.86998462677002,-0.10618311333398597,0.04713641474593554,-3.0981000692264966,2.995738793657009,2.170614268044123,0.4073756379335788,0.3999776834125999,0,6.42,2.0942993843162525,50,0.15,0.019,0.03
1,0,1745096852.9544713,0,0,-5,-0.004762602970004082,0.08859444409608841,-4.611320495605469,0.0441114604473114,-0.049615100026130676,-0.8473223447799683,-0.027969297021627426,-0.03906307369470596,-8.541491508483887,-0.00632816895588475,0.03984289840745787,-3.075353512083334,2.5550943851842685,2.4107730523075954,0.5289149671681319,0.3986770811673569,0,5.04,0.3986770811673569,100,0.15,0.074,0.065
1,1,1745096854.7698638,2,0,-5,1.5378104448318481,-0.09210304915904999,-5.140533447265625,1.164887547492981,0.0016246711602434516,0.23597444593906403,-0.06894393265247345,0.012004802003502846,-9.819242477416992,-0.08334985160649362,0.012289984119230737,-3.1409510690490916,3.1421285257051172,1.679199733216574,0.4424671649143811,0.49178430878921775,0,5.04,0.8904613899565746,100,0.15,0.074,0.065
1,2,1745096856.0314167,4,0,-5,3.5264289379119873,-0.05184590443968773,-4.9222412109375,1.3018481731414795,0.10546528548002243,0.027562258765101433,-1.5925616025924683e-05,0.03175827115774155,-10.088369369506836,-0.1145163545142171,0.03619854285855009,3.1279767406947747,2.7163624292296342,2.36704736162872,0.4521560419648929,0.4827048559221297,0,5.04,1.3731662458787044,100,0.15,0.074,0.065
1,3,1745096857.3968277,6,0,-5,5.580836772918701,0.06170015409588814,-4.908668518066406,1.1911200284957886,0.012227985076606274,-0.08085496723651886,-0.01958118937909603,-0.02264980413019657,-9.931360244750977,-0.11241210406685972,0.04476263021864568,3.1182850214117255,3.0064789236698735,1.6254449854609352,0.4815063243640739,0.433412228190266,0,5.04,1.8065784740689703,100,0.15,0.074,0.065
1,4,1745096858.9552612,8,0,-5,7.56401252746582,-0.0015011104987934232,-4.9793243408203125,1.2005926370620728,-0.027936210855841637,-0.04051409661769867,-0.09219725430011749,0.019883424043655396,-9.78061294555664,-0.0938248269955823,0.028440130113923823,3.1239465104352777,3.233043409995407,2.088210610187608,0.4424038462424013,0.4364800252267981,0,5.04,2.2430584992957683,100,0.15,0.074,0.065
1,5,1745096861.1228666,14.679362707648524,2.745975834573988,-5,14.298295974731445,2.6577091217041016,-4.95965576171875,2.912468433380127,1.3611762523651123,-0.03789456561207771,-0.0518985316157341,-0.024859819561243057,-10.519780158996582,-0.34815141990908854,0.1691218022303812,-3.086822179913999,3.095523733861658,1.9256189364962328,0.44998228286190567,0.39323088014478913,0,5.04,2.6362893794405573,100,0.15,0.074,0.065
1,6,1745096863.3931463,12.113661208653697,1.0859852937905723,-5,12.481351852416992,1.1058344841003418,-4.7203216552734375,-2.6738648414611816,-1.5267263650894165,-0.3992067575454712,-0.28458085656166077,-0.0712289810180664,-10.783934593200684,0.2432266058579159,-0.11952516830010973,-3.046913493415528,2.900343393855345,2.450611519262499,0.5693322369636082,0.4623963412225593,0,5.04,3.0986857206631164,100,0.15,0.074,0.065
1,7,1745096869.4014308,8.005715016504961,1.4200623090790903,-5,8.258861541748047,1.0193359851837158,-4.987266540527344,-0.8768423199653625,-0.06066708639264107,-0.05853401497006416,-0.10658694803714752,-0.02217968739569187,-9.917818069458008,0.0555435585124105,-0.038514900162002035,-3.080299748550423,2.976089051738776,1.9395616216200606,0.4257699118875464,0.4741591408962717,0,5.04,3.572844861559388,100,0.15,0.074,0.065
1,8,1745096870.6669033,6.616481465265229,1.9555621875125064,-5,6.6827263832092285,1.5018150806427002,-5.01263427734375,-0.8570717573165894,0.7184742093086243,-0.02355566807091236,-0.11849348247051239,-0.04709335044026375,-9.919151306152344,0.09074735900882898,0.05325160643343439,-3.0837723117789486,2.8696507957246644,2.019870605050749,0.4367218336394769,0.45873134960467365,0,5.04,4.031576211164062,100,0.15,0.074,0.065
1,9,1745096880.306612,2,0,-5,1.8547166585922241,-0.4146462082862854,-5.020195007324219,0.581863284111023,0.33981069922447205,0.01821300759911537,-0.11327105760574341,0.01564137637615204,-9.823413848876953,-0.05032320931949841,0.0016455009759646188,-3.088436028750624,3.3391332917639667,1.6929038024105154,0.5616962426606946,0.4398256082331123,0,5.04,4.471401819397174,100,0.15,0.074,0.065
1,10,1745096882.4699984,0,0,-5,0.3110893964767456,0.2523493766784668,-4.972755432128906,-1.2686781883239746,-0.09486119449138641,-0.06769691407680511,-0.13752640783786774,-0.02909405715763569,-9.87716293334961,0.1037401050079173,0.07373774084505899,-3.0795284618457583,2.971735127174398,2.2256072598029992,0.5937026186548886,0.4014960609878498,0,5.04,4.8728978803850245,100,0.15,0.074,0.065
2,0,1745096887.7606134,0,0,-5,0.028894146904349327,0.17187491059303284,-4.543510437011719,-0.39011386036872864,-0.039860159158706665,-1.04039466381073,-0.06103534623980522,-0.0025726212188601494,-8.345641136169434,0.04389473234995097,0.03863735321218734,-3.073700792587456,2.715521216622519,1.7923181345636037,0.5930180208790417,0.4886292845644079,0,6.15,0.4886292845644079,50,0.15,0.021,0.004
2,1,1745096889.8830252,2,0,-5,1.577311396598816,0.11718933284282684,-5.1619720458984375,1.2352213859558105,0.03226080909371376,0.28800439834594727,-0.06765151768922806,-0.0019623180851340294,-10.048637390136719,-0.1015399724859691,0.03297481106623738,-3.0733357704812603,2.8848736383583375,1.5523387350544866,0.48322502728797767,0.46758308227513523,0,6.15,0.9562123668395431,50,0.15,0.021,0.004
2,2,1745096891.138622,4,0,-5,3.6447670459747314,0.13679365813732147,-4.935691833496094,1.2252602577209473,-0.03920327499508858,0.015834923833608627,-0.004156793467700481,0.02149762585759163,-10.033466339111328,-0.12043862338488574,0.029934266649726607,-3.072399274207463,2.540292016901156,1.5179654909058522,0.4165720621615289,0.38605504375827426,0,6.15,1.3422674105978174,50,0.15,0.021,0.004
2,3,1745096892.5065417,6,0,-5,5.591515064239502,0.0687110647559166,-4.937080383300781,1.0818532705307007,-0.036524996161460876,-0.06106562912464142,-0.013293052092194557,-0.052608754485845566,-9.856886863708496,-0.09903543134570811,0.024274057130272465,-3.0694831959723823,3.0070970162994506,2.493722748879365,0.5154960892751883,0.4189749769720461,0,6.15,1.7612423875698635,50,0.15,0.021,0.004
2,4,1745096894.0723398,8,0,-5,7.560763835906982,0.024255750700831413,-4.995185852050781,1.054624319076538,0.015580848790705204,-0.008488943800330162,-0.11606592684984207,-0.0018024127930402756,-9.784236907958984,-0.0901795601725185,0.025831199284699544,-3.0662731057101817,3.483058205965885,1.8407714064947904,0.44341074688341264,0.43993172800979713,0,6.15,2.2011741155796605,50,0.15,0.021,0.004
2,5,1745096895.6318703,10,0,-5,9.535257339477539,0.07745128870010376,-5.002532958984375,1.098616361618042,0.006482014898210764,0.012304496020078659,-0.01039920188486576,-0.09348141402006149,-9.884732246398926,-0.09335434614201384,0.03540897183316702,-3.0644496559283554,2.5212773639624833,2.30766170031239,0.5702786768201696,0.47115905861186486,0,6.15,2.6723331741915253,50,0.15,0.021,0.004
2,6,1745096897.4938657,10.56991843881767,2.4180278437611737,-5,10.651954650878906,2.073533535003662,-4.991294860839844,-0.022471874952316284,1.3125839233398438,-0.013378088362514973,-0.0030692964792251587,-0.036980994045734406,-9.862945556640625,-0.04779373844469091,0.14367804107189555,-3.043953077658589,3.018500482886145,2.391400597543638,0.4200021577166071,0.35423445386279073,0,6.15,3.026567628054316,50,0.15,0.021,0.004
2,7,1745096899.6663404,9.408272478051487,1.4018795785506002,-5,9.202359199523926,1.8075897693634033,-4.984809875488281,-0.3995770215988159,-1.1239417791366577,-0.04780445247888565,-0.14014992117881775,-0.02436813712120056,-9.851573944091797,0.08543743848763806,-0.023889820173083623,-3.0381080130722435,2.568387436045323,2.4155303203539775,0.5106265484208733,0.4552271708564983,0,6.15,3.4817947989108142,50,0.15,0.021,0.004
2,8,1745096901.9363475,7.99136254349232,2.9185538693117894,-5,7.679847240447998,2.555459976196289,-5.003303527832031,-0.2756449282169342,1.2724504470825195,-0.028433339670300484,-0.09644801169633865,0.010589059442281723,-9.946033477783203,0.0801972730674994,0.14423986273368192,-3.050501726526231,2.9606473584965265,2.286048443142429,0.5830982198586683,0.4784243644973605,0,6.15,3.9602191634081745,50,0.15,0.021,0.004
2,9,1745096904.26232,6.842681750109361,1.3648449312968463,-5,7.063559532165527,1.7274448871612549,-4.9830474853515625,-0.2197546809911728,-1.4306747913360596,-0.027307182550430298,-0.058432430028915405,-0.0009371377527713776,-9.963987350463867,0.010256459601067152,-0.08045148256371838,-3.0074270926856173,2.5398583936556807,1.508835620717056,0.4373571384390868,0.424915415526229,0,6.15,4.385134578934403,50,0.15,0.021,0.004
2,10,1745096911.2772496,3.576753028683692,1.4897034363788106,-5,3.8397746086120605,1.115128993988037,-4.992240905761719,-0.6466983556747437,0.3431471288204193,-0.03546437248587608,-0.09958471357822418,-0.05950712040066719,-9.805291175842285,0.040301610044249495,0.01869252751498347,-2.9832536212500447,3.2198824568612494,2.035704814978035,0.5332943868899394,0.45776256721555186,0,6.15,4.842897146149955,50,0.15,0.021,0.004
3,0,1745096943.2930422,0,0,-5,0.027825606986880302,-0.45269662141799927,-5.0870361328125,-0.10480354726314545,2.6374354362487793,0.20778726041316986,-0.10797954350709915,-0.0018832231871783733,-10.385732650756836,-0.036554951091571794,0.3526425480089808,-2.992495411981575,3.402437837159409,2.060622872541278,0.45908280458701983,0.461826573361056,0,3.54,0.461826573361056,100,0.06,0.171,0.105
3,1,1745096945.2697709,2,0,-5,1.8813352584838867,0.39389753341674805,-4.8367156982421875,1.0914027690887451,-1.1362248659133911,-0.10518928617238998,-0.030037425458431244,-0.09899584949016571,-10.174717903137207,-0.11673723409428544,-0.0077618563405762574,-3.021650189729436,2.576835258565461,1.9943389419222703,0.5068034802960835,0.44260405659169066,0,3.54,0.9044306299527467,100,0.06,0.171,0.105
3,2,1745096948.048418,4,0,-5,4.304197311401367,-0.3370509445667267,-4.983161926269531,-0.21537458896636963,0.9333666563034058,-0.029426930472254753,-0.026078693568706512,0.019429728388786316,-9.82266616821289,-0.05154863513211561,0.11368860426900282,-2.9884820840816717,3.2329111945793008,2.2209374018316246,0.52086789147846,0.45433783050071425,0,3.54,1.358768460453461,100,0.06,0.171,0.105
3,3,1745096950.3118713,6,0,-5,5.960711479187012,0.44794198870658875,-5.000923156738281,0.9132556319236755,-0.7047879695892334,0.014378872700035572,-0.0324491411447525,-0.025351902469992638,-9.866704940795898,-0.12142244728048505,0.027932597069501026,-3.002959346435758,3.371693485126113,2.1741008991204533,0.4960355987639256,0.4496626127803486,0,3.54,1.8084310732338094,100,0.06,0.171,0.105
3,4,1745096952.7782857,8,0,-5,8.359930038452148,-0.3188948631286621,-4.980224609375,-0.1177709549665451,0.43044474720954895,-0.006113606039434671,-0.09451618045568466,0.014748157933354378,-9.877578735351562,-0.06732035835859727,0.04221651064615577,-2.9890809971527252,2.9223342623955086,1.7207329033514482,0.4864642569456065,0.4812843570950385,0,3.54,2.289715430328848,100,0.06,0.171,0.105
3,5,1745096954.8444393,10,0,-5,9.668351173400879,0.3622767925262451,-4.9975128173828125,0.9274734258651733,-0.2410375028848648,-0.0018715413752943277,-0.06924058496952057,0.07007651031017303,-9.775930404663086,-0.0824805654721845,0.07189377088929981,-2.996008268276943,3.307576732422937,1.5826455934604602,0.4244299061340484,0.4911635213093998,0,3.54,2.7808789516382477,100,0.06,0.171,0.105
3,6,1745096956.816509,11.127262941645007,1.8680768244581496,-5,11.405098915100098,1.4906482696533203,-4.990501403808594,0.15279504656791687,0.9372181296348572,-0.002511839848011732,-0.08568839728832245,-0.0026779440231621265,-9.958141326904297,-0.0988845119087146,0.0954175373027609,-2.9674826468723645,3.157597099225538,2.2041820253398714,0.47612219374627046,0.46875938972718945,0,3.54,3.2496383413654373,100,0.06,0.171,0.105
1,0,1745097965.5837717,0,0,-5,0.02181001752614975,-0.029252754524350166,-4.533500671386719,0.049592725932598114,0.12116193771362305,-0.8254047632217407,-0.06566362828016281,0.09961268305778503,-8.656375885009766,-0.011238651456387258,0.03628622882269826,-3.1072644095992614,2.870772627837614,1.7035300082308755,0.43314236604657896,0.4679241649117889,0,4.39,0.4679241649117889,100,0.05,0.102,0.079
1,1,1745097967.3005655,2,0,-5,1.644173502922058,0.1152808889746666,-5.059173583984375,1.080077886581421,-0.04326552152633667,0.16360417008399963,0.06322553753852844,0.009796589612960815,-9.848001480102539,-0.09324510218703091,0.037217549549551636,-3.0860580344837714,2.74126316946665,2.452101198953974,0.49478867393012077,0.3786867999113567,0,4.39,0.8466109648231456,100,0.05,0.102,0.079
1,2,1745097968.457067,4,0,-5,3.524564504623413,0.012244154699146748,-4.9017486572265625,1.2466391324996948,-0.04069721698760986,4.290117067284882e-05,-0.09294717013835907,-0.037108488380908966,-10.080275535583496,-0.10165052133944866,0.01878673566072994,-3.0710192987619553,2.8128478248447824,2.4166047196266667,0.48246043975995956,0.4856358264636792,0,4.39,1.3322467912868248,100,0.05,0.102,0.079
1,3,1745097969.7706482,6,0,-5,5.612606048583984,0.014564747922122478,-4.9068756103515625,1.1742256879806519,0.03050784394145012,-0.07874616235494614,-0.03693510219454765,-0.028905265033245087,-9.884292602539062,-0.11561348009210969,0.02729061952885433,-3.071318288922523,3.1960758098548365,2.0830767308623104,0.45227288381646913,0.39869582067428705,0,4.39,1.7309426119611118,100,0.05,0.102,0.079
1,4,1745097971.2243063,8,0,-5,7.598546028137207,0.1080973669886589,-4.964088439941406,1.0453200340270996,-0.03896881267428398,-0.0294838584959507,-0.01671353355050087,-0.000607827678322792,-9.826614379882812,-0.0991336227136459,0.03987365765215002,-3.09563770408485,2.6412237825053118,1.607661401597763,0.5751804014441342,0.4173008176605157,0,4.39,2.1482434296216275,100,0.05,0.102,0.079
1,5,1745097972.7815082,10,0,-5,9.603069305419922,0.04623987898230553,-4.9925537109375,1.0437712669372559,-0.07161419093608856,-0.0013952853623777628,0.0073132701218128204,-0.05931446701288223,-9.736706733703613,-0.09752820991302984,0.028586967889110044,-3.1075464642905732,3.2133515888134987,2.258458283269894,0.42239524474696,0.39968431283817457,0,4.39,2.547927742459802,100,0.05,0.102,0.079
1,6,1745097974.5497324,10.710127894997859,2.1033219638274256,-5,10.866063117980957,1.7064096927642822,-4.980712890625,0.09776613116264343,1.2499315738677979,-0.009942520409822464,-0.05034758523106575,-0.03405675292015076,-9.869609832763672,-0.07320925560171432,0.12734943710767502,-3.09182491089606,2.727421670614071,2.1627889751738323,0.5577337054385845,0.4268807061408772,0,4.39,2.974808448600679,100,0.05,0.102,0.079
1,7,1745097977.0145433,9.971005517664874,2.327514032603415,-5,9.540172576904297,2.5558879375457764,-4.991546630859375,-0.07183331251144409,-0.645000696182251,-0.025228161364793777,-0.09524405002593994,0.03575529903173447,-9.945513725280762,0.07325113330544945,-0.0028724609964005726,3.0842898573134536,3.044948758922673,1.5601030141869587,0.416892512570807,0.48769162669955457,0,4.39,3.462500075300234,100,0.05,0.102,0.079
1,8,1745097979.178676,7.213227206049473,2.5305612590145214,-5,7.1957550048828125,2.0350964069366455,-4.99200439453125,-1.0285207033157349,0.4977039694786072,-0.02868851087987423,-0.18230926990509033,-0.01305923331528902,-9.87286376953125,0.13398032120642503,0.006880396324435391,3.0890458354752997,2.657435449660532,2.2227855290250655,0.5167732188183207,0.4958372990860728,0,4.39,3.9583373743863066,100,0.05,0.102,0.079
1,9,1745097979.5258381,6.352671838979458,2.5551159541475754,-5,6.723248481750488,2.2326254844665527,-4.994102478027344,-0.8363685011863708,0.5392618775367737,-0.024529390037059784,-0.03098384290933609,-0.010355322621762753,-9.864667892456055,0.038138332584159954,0.045925577995349944,3.103797264444661,3.4194162378914865,1.968528148721335,0.42438531680903624,0.49128599813952784,0,4.39,4.449623372525834,100,0.05,0.102,0.079
1,10,1745097981.14674,4.338456576322529,2.8573117691598067,-5,4.630172252655029,3.2267563343048096,-5.000556945800781,-0.9460791945457458,0.020626487210392952,-0.01975833810865879,-0.0943838357925415,-0.04166124761104584,-9.803439140319824,0.0849446003438274,0.10426239079049694,3.129781093682617,2.882912004488574,1.7220768745370938,0.5591564514332362,0.47073095577190727,0,4.39,4.9203543282977416,100,0.05,0.102,0.079
1,0,1745098551.8310673,0,0,-5,-0.057547204196453094,0.07716664671897888,-2.6168441772460938,0.0084388954564929,-0.10234098136425018,0.17490044236183167,-0.07163688540458679,-0.1316785216331482,-8.984701156616211,0.005172947951781312,0.006297984910399478,-3.1038273814905604,3.4000205686683387,1.9772198285059128,0.47202490092395644,2.38509916934339,0,3.3,2.38509916934339,100,0.18,0.006,0.14
1,1,1745098551.8329039,2,0,-5,-0.057547204196453094,0.07716664671897888,-2.6168441772460938,0.0084388954564929,-0.10234098136425018,0.17490044236183167,-0.06320512294769287,-0.0714765191078186,-8.957850456237793,0.005172947951781312,0.006297984910399478,-3.1038273814905604,3.370055868187639,2.4036315850191925,0.5993221687711178,3.1494264341921596,0,3.3,5.534525603535549,100,0.18,0.006,0.14
1,2,1745098551.8342996,4,0,-5,-0.057547204196453094,0.07716664671897888,-2.6168441772460938,0.0084388954564929,-0.10234098136425018,0.17490044236183167,-0.06320512294769287,-0.0714765191078186,-8.957850456237793,0.005252996356448536,0.006687785752199135,-3.1040970354954887,3.3966582908169145,1.6090312759240275,0.5095038289973708,4.706280450756643,0,3.3,10.240806054292193,100,0.18,0.006,0.14
1,3,1745098551.835777,6,0,-5,-0.057547204196453094,0.07716664671897888,-2.6168441772460938,0.0084388954564929,-0.10234098136425018,0.17490044236183167,-0.08457499742507935,0.0006447844207286835,-8.9082670211792,0.005252996356448536,0.006687785752199135,-3.1040970354954887,2.8482730846868063,2.3294489552632682,0.4101251704897012,6.509935829020127,0,3.3,16.75074188331232,100,0.18,0.006,0.14
1,4,1745098551.8388274,8,0,-5,-0.057547204196453094,0.07716664671897888,-2.6168441772460938,0.0084388954564929,-0.10234098136425018,0.17490044236183167,0.023709304630756378,-0.045514319092035294,-8.929056167602539,0.005252996356448536,0.006687785752199135,-3.1040970354954887,2.982257581105542,1.8725651204082738,0.4393490440826473,8.402943134089732,0,3.3,25.15368501740205,100,0.18,0.006,0.14
1,5,1745098551.8926198,13.167167895323242,2.9518444896673666,-5,-0.05779646709561348,0.06473135948181152,-2.6183700561523438,0.015678826719522476,-0.09155698865652084,0.1152050718665123,0.009958971291780472,-0.05603218451142311,-15.866848945617676,0.01763024168510135,0.009637858321677305,-3.1053575484843594,3.2192856610331044,2.1291587778626697,0.41163875701315894,13.744353960924114,0,3.3,38.89803897832616,100,0.18,0.006,0.14
1,6,1745098551.937581,8,0,-5,-0.057488054037094116,0.05768504738807678,-2.6249465942382812,0.035192664712667465,-0.08758804947137833,-0.07681826502084732,-0.010364042595028877,-0.003121238201856613,-16.20709228515625,0.09004032348348895,0.013630108716152549,-3.105676545781143,3.2377408643593073,2.167556532477326,0.42232106190705265,8.400435702144442,0,3.3,47.298474680470605,100,0.18,0.006,0.14
1,7,1745098551.9838095,6,0,-5,-0.05318894237279892,0.045355174690485,-2.6558685302734375,0.14473631978034973,-0.08351444453001022,-0.4794163405895233,-0.04892386496067047,-0.027047941461205482,-16.13267707824707,0.16831996863082996,0.01697760659331283,-3.1054552972508342,3.2785488492855945,2.1558841308355627,0.5092907298734168,6.491387048335505,0,3.3,53.78986172880611,100,0.18,0.006,0.14
1,8,1745098553.7826352,4,0,-5,1.0751298666000366,-0.05310733988881111,-3.7897720336914062,2.608520030975342,0.03230757638812065,-1.4901314973831177,-0.001357069704681635,0.002388371154665947,-9.068926811218262,0.19651837240328862,0.05211847350849438,-3.048003327594701,3.149425027468413,2.067137611372939,0.5117029976366888,3.165807545831019,0,3.3,56.95566927463713,100,0.18,0.006,0.14
1,9,1745098553.7838476,2,0,-5,1.2112860679626465,-0.05936835706233978,-3.8724212646484375,2.6939568519592285,0.01904541812837124,-1.4327281713485718,-0.001357069704681635,0.002388371154665947,-9.068926811218262,0.18720719970239322,0.04640622740025444,-3.053906067361249,2.900301704823878,1.5653463258861082,0.5257176082802554,1.3773264220318775,0,3.3,58.33299569666901,100,0.18,0.006,0.14
1,10,1745098553.785086,0,0,-5,1.2112860679626465,-0.05936835706233978,-3.8724212646484375,2.6939568519592285,0.01904541812837124,-1.4327281713485718,-0.04834573343396187,0.014650523662567139,-8.99332046508789,0.18720719970239322,0.04640622740025444,-3.053906067361249,2.595371668230129,2.463569922637734,0.5783978359633397,1.6559505864239183,0,3.3,59.98894628309293,100,0.18,0.006,0.14
2,0,1745098564.137954,0,0,-5,-1.4670623540878296,0.29896557331085205,-2.5817718505859375,0.5745440721511841,-0.0045701912604272366,0.14083078503608704,-0.01100657507777214,0.004841066896915436,-8.462371826171875,0.08505221142032228,0.023471671791458624,-3.129013446759496,3.1027149402665333,1.8328380131345035,0.48777077376221556,2.8442010736629313,0,5.14,2.8442010736629313,50,0.13,0.16,0.196
2,1,1745098564.1399465,2,0,-5,-1.4670623540878296,0.29896557331085205,-2.5817718505859375,0.5745440721511841,-0.0045701912604272366,0.14083078503608704,-0.02282177284359932,-0.03812990337610245,-8.449006080627441,0.08505221142032228,0.023471671791458624,-3.129013446759496,3.2313156303155552,2.1141824696172375,0.42459303103867224,4.2376560931459135,0,5.14,7.081857166808845,50,0.13,0.16,0.196
2,2,1745098564.1421459,4,0,-5,-1.4670623540878296,0.29896557331085205,-2.5817718505859375,0.5745440721511841,-0.0045701912604272366,0.14083078503608704,-0.026744257658720016,-0.04468918591737747,-8.505122184753418,0.08505221142032228,0.023471671791458624,-3.129013446759496,2.6616818896278227,1.6976407100332722,0.5738872743266024,5.985480647377286,0,5.14,13.067337814186132,50,0.13,0.16,0.196
2,3,1745098564.1449165,6,0,-5,-1.4670623540878296,0.29896557331085205,-2.5817718505859375,0.5745440721511841,-0.0045701912604272366,0.14083078503608704,-0.009747965261340141,-0.017624517902731895,-8.514988899230957,0.07964439480587307,0.021996000985361964,-3.129116684521847,2.756195360738798,2.01079261259075,0.4125424688207374,7.854567333499619,0,5.14,20.921905147685752,50,0.13,0.16,0.196
2,4,1745098564.1460528,8,0,-5,-1.4670623540878296,0.29896557331085205,-2.5817718505859375,0.5745440721511841,-0.0045701912604272366,0.14083078503608704,-0.009747965261340141,-0.017624517902731895,-8.514988899230957,0.07964439480587307,0.021996000985361964,-3.129116684521847,3.2410533996513298,1.7517726143811214,0.4384857489073063,9.775606242726363,0,5.14,30.697511390412117,50,0.13,0.16,0.196
2,5,1745098564.1471505,10,0,-5,-1.4670623540878296,0.29896557331085205,-2.5817718505859375,0.5745440721511841,-0.0045701912604272366,0.14083078503608704,-0.009747965261340141,-0.017624517902731895,-8.514988899230957,0.07964439480587307,0.021996000985361964,-3.129116684521847,3.1269533710770316,2.114776329447909,0.5650082844886859,11.723085209499331,0,5.14,42.42059659991145,50,0.13,0.16,0.196
2,6,1745098564.149633,11.137084164375219,1.0495608535393213,-5,-1.4670623540878296,0.29896557331085205,-2.5817718505859375,0.5745440721511841,-0.0045701912604272366,0.14083078503608704,-0.008067730814218521,-0.01765712909400463,-8.523771286010742,0.07964439480587307,0.021996000985361964,-3.129116684521847,3.1902502845376195,1.7321102183549324,0.4847851319619059,12.85596087875986,0,5.14,55.27655747867131,50,0.13,0.16,0.196
